timestamp,timestamp_sample,device_id,x,y,z,temperature,error_count
2947068,2947052,2228234,0.0024434612,0.018325958,0.015882498,32.0,0
2948841,2948825,2228234,-0.0012217306,0.018325958,0.012217306,32.0,0
3048907,3048888,2228234,0.017104229,0.026878074,0.028099803,32.0,0
3147937,3147921,2228234,0.020769421,0.017104229,0.015882498,32.0,0
3348972,3348955,2228234,0.010995575,0.031764995,0.02199115,32.0,0
3545485,3545466,2228234,0.015882498,0.025656343,0.034208458,32.0,0
3747109,3747093,2228234,0.013439037,0.01954769,0.01954769,32.0,0
3847921,3847904,2228234,0.017104229,0.02199115,0.0085521145,32.0,0
3946728,3946712,2228234,0.009773845,0.015882498,0.029321535,32.0,0
4047408,4047391,2228234,0.015882498,0.028099803,0.026878074,32.0,0
4347709,4347692,2228234,-0.0012217306,0.024434611,0.01954769,32.0,0
4748108,4748089,2228234,0.010995575,0.026878074,0.015882498,32.0,0
4849638,4849622,2228234,0.0085521145,0.023212882,0.01954769,32.0,0
4948314,4948295,2228234,0.0012217306,0.024434611,0.018325958,32.0,0
5147794,5147777,2228234,0.0,0.028099803,0.023212882,33.0,0
5448094,5448077,2228234,0.0073303836,0.023212882,0.023212882,33.0,0
5547480,5547463,2228234,0.012217306,0.01954769,0.018325958,33.0,0
5649011,5648994,2228234,0.010995575,0.028099803,0.020769421,33.0,0
5847791,5847774,2228234,0.0048869224,0.024434611,0.018325958,33.0,0
5946449,5946433,2228234,0.02199115,0.024434611,0.02199115,33.0,0
6148079,6148062,2228234,0.009773845,0.0085521145,0.023212882,32.0,0
6447749,6447732,2228234,0.020769421,0.025656343,0.02199115,32.0,0
6547812,6547784,2228234,0.014660767,0.029321535,0.01954769,32.0,0
6645350,6645334,2228234,-0.0012217306,0.029321535,0.018325958,32.0,0
6942989,6942961,2228234,0.0085521145,0.024434611,0.025656343,32.0,0
7048030,7048013,2228234,0.017104229,0.031764995,0.018325958,32.0,0
7148067,7148050,2228234,0.0036651918,0.031764995,0.017104229,33.0,0
7448213,7448196,2228234,0.0085521145,0.031764995,0.018325958,33.0,0
7748304,7748288,2228234,0.012217306,0.028099803,0.02199115,33.0,0
7848386,7848369,2228234,0.009773845,0.01954769,0.01954769,33.0,0
7948399,7948383,2228234,0.018325958,0.034208458,0.01954769,33.0,0
8148513,8148496,2228234,0.0036651918,0.029321535,0.017104229,33.0,0
8248497,8248480,2228234,0.020769421,0.031764995,0.01954769,33.0,0
8448626,8448610,2228234,0.0036651918,0.03543019,0.018325958,33.0,0
8746240,8746215,2228234,0.009773845,0.03543019,0.020769421,33.0,0
8948818,8948802,2228234,0.0085521145,0.029321535,0.024434611,33.0,0
9148880,9148863,2228234,0.014660767,0.020769421,0.020769421,33.0,0
9347714,9347697,2228234,0.009773845,0.032986727,0.017104229,33.0,0
9447810,9447794,2228234,0.014660767,0.030543266,0.026878074,33.0,0
9547187,9547171,2228234,0.013439037,0.034208458,0.018325958,33.0,0
9648002,9647986,2228234,0.017104229,0.03543019,0.01954769,33.0,0
9847490,9847471,2228234,0.0048869224,0.020769421,0.020769421,33.0,0
9948312,9948295,2228234,0.0085521145,0.036651917,0.031764995,33.0,0
10249371,10249354,2228234,0.01954769,0.026878074,0.02199115,33.0,0
10349459,10349440,2228234,0.0073303836,0.020769421,0.020769421,33.0,0
11047324,11047300,2228234,0.017104229,0.023212882,0.018325958,33.0,0
11248188,11248165,2228234,0.015882498,0.013439037,0.024434611,33.0,0
11349823,11349807,2228234,0.0,0.031764995,0.017104229,33.0,0
11747624,11747601,2228234,0.0073303836,0.032986727,0.024434611,33.0,0
11950084,11950068,2228234,0.0085521145,0.029321535,0.02199115,33.0,0
12145198,12145182,2228234,0.010995575,0.03909538,0.02199115,33.0,0
12247821,12247804,2228234,0.023212882,0.032986727,0.013439037,33.0,0
12446540,12446517,2228234,0.0073303836,0.02199115,0.025656343,33.0,0
12546611,12546595,2228234,0.0085521145,0.041538842,0.025656343,33.0,0
12948030,12948013,2228234,0.012217306,0.034208458,0.018325958,33.0,0
13045624,13045601,2228234,0.0085521145,0.030543266,0.020769421,33.0,0
13144368,13144345,2228234,0.018325958,0.023212882,0.025656343,33.0,0
13448244,13448218,2228234,0.012217306,0.030543266,0.010995575,33.0,0
13845944,13845916,2228234,0.01954769,0.036651917,0.02199115,34.0,0
13948470,13948454,2228234,0.020769421,0.026878074,0.029321535,34.0,0
14048550,14048530,2228234,0.014660767,0.028099803,0.024434611,34.0,0
14147530,14147513,2228234,0.017104229,0.029321535,0.023212882,34.0,0
14247623,14247592,2228234,0.010995575,0.030543266,0.01954769,34.0,0
14348690,14348667,2228234,0.012217306,0.031764995,0.01954769,34.0,0
14448797,14448765,2228234,-0.0024434612,0.030543266,0.018325958,34.0,0
14648771,14648755,2228234,0.012217306,0.029321535,0.023212882,33.0,0
15246578,15246557,2228234,0.013439037,0.030543266,0.01954769,33.0,0
15347286,15347270,2228234,0.014660767,0.023212882,0.020769421,33.0,0
15545370,15545354,2228234,0.017104229,0.03909538,0.028099803,33.0,0
15647566,15647549,2228234,0.020769421,0.03909538,0.026878074,33.0,0
15747671,15747654,2228234,0.0073303836,0.023212882,0.028099803,34.0,0
16047970,16047953,2228234,0.009773845,0.020769421,0.034208458,34.0,0
16149435,16149416,2228234,0.0073303836,0.02199115,0.015882498,34.0,0
16247026,16247005,2228234,0.015882498,0.036651917,0.01954769,34.0,0
16348272,16348253,2228234,0.0012217306,0.026878074,0.020769421,34.0,0
16648575,16648559,2228234,0.018325958,0.030543266,0.020769421,34.0,0
16747958,16747942,2228234,0.0085521145,0.037873648,0.018325958,34.0,0
16946027,16946002,2228234,0.014660767,0.030543266,0.017104229,34.0,0
17048255,17048238,2228234,0.012217306,0.02199115,0.026878074,34.0,0
17147639,17147622,2228234,0.0024434612,0.036651917,0.01954769,34.0,0
17348553,17348537,2228234,0.0085521145,0.036651917,0.018325958,34.0,0
17447939,17447923,2228234,0.01954769,0.028099803,0.026878074,34.0,0
17548043,17548023,2228234,0.0085521145,0.025656343,0.02199115,34.0,0
17646003,17645987,2228234,0.013439037,0.032986727,0.025656343,34.0,0
17748238,17748219,2228234,0.0036651918,0.02199115,0.023212882,34.0,0
17848371,17848351,2228234,0.0048869224,0.034208458,0.028099803,33.0,0
18047791,18047753,2228234,0.0,0.032986727,0.01954769,33.0,0
18147860,18147833,2228234,0.0085521145,0.030543266,0.017104229,33.0,0
18245384,18245348,2228234,0.0036651918,0.031764995,0.023212882,33.0,0
18346693,18346677,2228234,0.0024434612,0.020769421,0.018325958,33.0,0
18447968,18447952,2228234,0.013439037,0.024434611,0.025656343,33.0,0
18546916,18546893,2228234,0.006108653,0.028099803,0.01954769,33.0,0
18848105,18848079,2228234,0.0024434612,0.031764995,0.030543266,33.0,0
18945617,18945601,2228234,0.014660767,0.025656343,0.024434611,34.0,0
19248366,19248342,2228234,0.017104229,0.024434611,0.023212882,34.0,0
19347029,19347005,2228234,0.013439037,0.026878074,0.020769421,34.0,0
19448397,19448374,2228234,0.015882498,0.026878074,0.02199115,34.0,0
19548404,19548385,2228234,0.01954769,0.030543266,0.01954769,34.0,0
19645890,19645873,2228234,0.020769421,0.028099803,0.015882498,34.0,0
21147399,21147374,2228234,0.012217306,0.030543266,0.024434611,34.0,0
21247462,21247446,2228234,0.020769421,0.028099803,0.020769421,34.0,0
21547746,21547730,2228234,0.015882498,0.018325958,0.028099803,34.0,0
21947434,21947418,2228234,0.015882498,0.028099803,0.018325958,34.0,0
22048263,22048244,2228234,0.017104229,0.031764995,0.026878074,34.0,0
22348556,22348539,2228234,0.0024434612,0.03543019,0.020769421,34.0,0
22447151,22447134,2228234,0.02199115,0.03543019,0.032986727,34.0,0
22648133,22648117,2228234,0.018325958,0.036651917,0.031764995,34.0,0
22747280,22747263,2228234,0.024434611,0.034208458,0.02199115,34.0,0
22848387,22848371,2228234,0.0012217306,0.037873648,0.023212882,34.0,0
22948453,22948430,2228234,0.0073303836,0.024434611,0.02199115,34.0,0
23147473,23147456,2228234,-0.0012217306,0.034208458,0.02199115,34.0,0
23248762,23248736,2228234,0.014660767,0.03543019,0.01954769,34.0,0
23447574,23447558,2228234,0.017104229,0.018325958,0.023212882,34.0,0
23648426,23648405,2228234,0.013439037,0.026878074,0.017104229,34.0,0
23745281,23745258,2228234,0.0085521145,0.029321535,0.018325958,34.0,0
23845251,23845234,2228234,0.0085521145,0.025656343,0.031764995,34.0,0
23947852,23947833,2228234,0.018325958,0.03543019,0.020769421,34.0,0
24047839,24047823,2228234,0.020769421,0.024434611,0.015882498,34.0,0
24145455,24145439,2228234,0.0073303836,0.03543019,0.025656343,34.0,0
24248005,24247989,2228234,0.024434611,0.037873648,0.028099803,34.0,0
24348001,24347985,2228234,0.0073303836,0.024434611,0.020769421,34.0,0
24545570,24545553,2228234,0.010995575,0.015882498,0.02199115,34.0,0
24748217,24748200,2228234,0.020769421,0.036651917,0.014660767,34.0,0
24845707,24845691,2228234,0.015882498,0.025656343,0.024434611,34.0,0
24948270,24948253,2228234,-0.0012217306,0.020769421,0.018325958,34.0,0
25048309,25048293,2228234,0.013439037,0.024434611,0.023212882,34.0,0
25447366,25447348,2228234,0.013439037,0.020769421,0.01954769,35.0,0
25547508,25547482,2228234,0.01954769,0.017104229,0.012217306,35.0,0
25747661,25747645,2228234,0.014660767,0.028099803,0.024434611,35.0,0
25846159,25846142,2228234,0.0085521145,0.031764995,0.014660767,35.0,0
25947146,25947129,2228234,0.0073303836,0.030543266,0.034208458,35.0,0
26048776,26048757,2228234,0.013439037,0.034208458,0.017104229,35.0,0
26148835,26148818,2228234,0.0085521145,0.024434611,0.028099803,35.0,0
26247468,26247445,2228234,0.0085521145,0.03543019,0.02199115,35.0,0
26647877,26647861,2228234,-0.0012217306,0.029321535,0.025656343,34.0,0
26749079,26749062,2228234,0.013439037,0.034208458,0.029321535,34.0,0
27447213,27447197,2228234,0.013439037,0.032986727,0.01954769,34.0,0
27648147,27648124,2228234,-0.0012217306,0.031764995,0.026878074,34.0,0
27747535,27747510,2228234,0.020769421,0.03909538,0.015882498,34.0,0
27849590,27849571,2228234,0.01954769,0.036651917,0.025656343,34.0,0
28047829,28047812,2228234,0.028099803,0.036651917,0.026878074,34.0,0
28147934,28147910,2228234,0.020769421,0.029321535,0.023212882,34.0,0
28247209,28247193,2228234,0.024434611,0.024434611,0.026878074,34.0,0
28348132,28348109,2228234,0.0073303836,0.03909538,0.020769421,34.0,0
28947662,28947638,2228234,0.017104229,0.034208458,0.026878074,35.0,0
29247660,29247644,2228234,0.018325958,0.041538842,0.024434611,35.0,0
29447834,29447817,2228234,0.009773845,0.036651917,0.013439037,35.0,0
29646586,29646570,2228234,0.020769421,0.023212882,0.026878074,34.0,0
29747942,29747923,2228234,0.01954769,0.015882498,0.020769421,34.0,0
30048035,30048019,2228234,0.009773845,0.023212882,0.025656343,34.0,0
30645812,30645796,2228234,0.015882498,0.025656343,0.028099803,35.0,0
30748415,30748392,2228234,0.009773845,0.018325958,0.024434611,35.0,0
31148532,31148515,2228234,0.017104229,0.028099803,0.026878074,35.0,0
31248693,31248669,2228234,0.0036651918,0.036651917,0.015882498,35.0,0
31347591,31347574,2228234,0.029321535,0.026878074,0.018325958,35.0,0
31446263,31446221,2228234,0.028099803,0.02199115,0.023212882,35.0,0
31548747,31548728,2228234,0.017104229,0.023212882,0.023212882,35.0,0
31646407,31646391,2228234,0.026878074,0.032986727,0.02199115,34.0,0
31848829,31848813,2228234,0.017104229,0.031764995,0.020769421,34.0,0
31949009,31948986,2228234,0.01954769,0.032986727,0.023212882,34.0,0
32046574,32046558,2228234,0.017104229,0.02199115,0.023212882,34.0,0
32249150,32249124,2228234,0.025656343,0.026878074,0.02199115,34.0,0
32347867,32347848,2228234,0.014660767,0.031764995,0.031764995,34.0,0
32447984,32447968,2228234,0.02199115,0.026878074,0.015882498,34.0,0
32549269,32549252,2228234,0.014660767,0.032986727,0.023212882,34.0,0
32649317,32649293,2228234,0.0024434612,0.029321535,0.034208458,34.0,0
32949386,32949357,2228234,0.014660767,0.03909538,0.023212882,34.0,0
33046942,33046917,2228234,0.02199115,0.02199115,0.023212882,34.0,0
33249481,33249465,2228234,0.017104229,0.029321535,0.024434611,34.0,0
33448207,33448191,2228234,0.015882498,0.029321535,0.023212882,34.0,0
33549595,33549579,2228234,0.009773845,0.032986727,0.018325958,34.0,0
33848614,33848598,2228234,0.0085521145,0.025656343,0.01954769,35.0,0
34148912,34148896,2228234,0.010995575,0.024434611,0.018325958,35.0,0
34447507,34447491,2228234,0.014660767,0.025656343,0.018325958,35.0,0
34947778,34947751,2228234,0.0,0.041538842,0.017104229,35.0,0
35047859,35047842,2228234,0.017104229,0.032986727,0.018325958,35.0,0
35247912,35247896,2228234,0.012217306,0.030543266,0.028099803,35.0,0
35348011,35347995,2228234,0.01954769,0.03543019,0.029321535,35.0,0
35445523,35445503,2228234,0.0085521145,0.029321535,0.018325958,35.0,0
35548033,35548003,2228234,0.017104229,0.029321535,0.020769421,35.0,0
35948240,35948216,2228234,0.015882498,0.025656343,0.02199115,35.0,0
36046516,36046499,2228234,0.02199115,0.023212882,0.025656343,35.0,0
36245917,36245893,2228234,0.0048869224,0.032986727,0.02199115,35.0,0
36348422,36348399,2228234,0.020769421,0.047647495,0.036651917,35.0,0
36448446,36448427,2228234,0.017104229,0.037873648,0.030543266,35.0,0
36546075,36546052,2228234,0.0085521145,0.031764995,0.015882498,35.0,0
36947418,36947402,2228234,0.013439037,0.015882498,0.02199115,35.0,0
37048852,37048829,2228234,0.026878074,0.017104229,0.029321535,35.0,0
37147616,37147599,2228234,0.01954769,0.034208458,0.025656343,35.0,0
37246393,37246367,2228234,0.014660767,0.028099803,0.010995575,35.0,0
37347107,37347091,2228234,0.01954769,0.026878074,0.017104229,35.0,0
37548032,37548006,2228234,0.017104229,0.028099803,0.030543266,35.0,0
37749106,37749077,2228234,0.01954769,0.032986727,0.018325958,35.0,0
37849094,37849072,2228234,0.0012217306,0.024434611,0.026878074,35.0,0
37947718,37947701,2228234,0.0085521145,0.031764995,0.02199115,35.0,0
38149252,38149235,2228234,0.006108653,0.023212882,0.036651917,35.0,0
38348101,38348084,2228234,0.020769421,0.024434611,0.030543266,35.0,0
38449408,38449389,2228234,0.0073303836,0.017104229,0.032986727,35.0,0
38546907,38546890,2228234,0.01954769,0.029321535,0.030543266,35.0,0
38648406,38648390,2228234,0.006108653,0.024434611,0.02199115,35.0,0
38747788,38747771,2228234,0.0073303836,0.020769421,0.01954769,35.0,0
39244755,39244739,2228234,0.02199115,0.02199115,0.026878074,35.0,0
39348386,39348370,2228234,0.014660767,0.03909538,0.023212882,35.0,0
39644902,39644882,2228234,0.013439037,0.04276057,0.02199115,35.0,0
39748074,39748058,2228234,0.010995575,0.036651917,0.023212882,35.0,0
39848171,39848154,2228234,0.0048869224,0.028099803,0.02199115,35.0,0
39947535,39947513,2228234,0.015882498,0.030543266,0.01954769,35.0,0
40346528,40346512,2228234,0.0073303836,0.025656343,0.020769421,35.0,0
40447868,40447841,2228234,0.013439037,0.028099803,0.02199115,35.0,0
40547828,40547804,2228234,0.01954769,0.031764995,0.026878074,35.0,0
40645392,40645376,2228234,0.012217306,0.031764995,0.026878074,35.0,0
40747978,40747959,2228234,0.015882498,0.026878074,0.018325958,35.0,0
41448287,41448265,2228234,0.012217306,0.02199115,0.01954769,35.0,0
41748514,41748490,2228234,0.017104229,0.02199115,0.024434611,35.0,0
42048650,42048626,2228234,0.013439037,0.024434611,0.029321535,35.0,0
42648806,42648783,2228234,-0.0036651918,0.01954769,0.025656343,35.0,0
42748921,42748892,2228234,0.012217306,0.024434611,0.024434611,35.0,0
42847599,42847582,2228234,0.0012217306,0.036651917,0.028099803,35.0,0
42948943,42948918,2228234,0.012217306,0.047647495,0.023212882,35.0,0
43046561,43046544,2228234,0.020769421,0.020769421,0.026878074,35.0,0
43147899,43147883,2228234,0.0036651918,0.034208458,0.030543266,35.0,0
43646984,43646961,2228234,0.020769421,0.028099803,0.030543266,35.0,0
43847903,43847887,2228234,0.020769421,0.031764995,0.023212882,35.0,0
43947284,43947261,2228234,0.0085521145,0.032986727,0.018325958,35.0,0
44349599,44349583,2228234,0.017104229,0.032986727,0.031764995,35.0,0
44747477,44747453,2228234,0.0024434612,0.029321535,0.01954769,35.0,0
44848176,44848159,2228234,-0.0036651918,0.03543019,0.025656343,35.0,0
45046256,45046222,2228234,0.0073303836,0.029321535,0.025656343,35.0,0
45347969,45347945,2228234,0.0085521145,0.023212882,0.023212882,35.0,0
45447701,45447685,2228234,0.01954769,0.024434611,0.029321535,35.0,0
45547794,45547754,2228234,0.0085521145,0.026878074,0.024434611,35.0,0
45647763,45647744,2228234,0.014660767,0.024434611,0.02199115,35.0,0
45745253,45745236,2228234,0.006108653,0.023212882,0.017104229,35.0,0
45846331,45846308,2228234,0.010995575,0.01954769,0.010995575,35.0,0
46348052,46348036,2228234,0.017104229,0.03909538,0.030543266,35.0,0
46548269,46548245,2228234,0.015882498,0.03543019,0.024434611,35.0,0
46648203,46648187,2228234,0.012217306,0.028099803,0.025656343,35.0,0
46747228,46747201,2228234,0.023212882,0.025656343,0.020769421,35.0,0
46847338,46847311,2228234,0.017104229,0.026878074,0.029321535,35.0,0
46948406,46948375,2228234,0.012217306,0.04031711,0.025656343,35.0,0
47048424,47048405,2228234,0.0048869224,0.028099803,0.01954769,35.0,0
47144754,47144737,2228234,0.01954769,0.026878074,0.029321535,35.0,0
47446499,47446483,2228234,0.012217306,0.029321535,0.024434611,35.0,0
47548749,47548713,2228234,0.01954769,0.032986727,0.025656343,35.0,0
48647678,48647659,2228234,0.013439037,0.029321535,0.034208458,35.0,0
48747113,48747088,2228234,0.020769421,0.026878074,0.020769421,35.0,0
48849228,48849210,2228234,0.015882498,0.01954769,0.028099803,35.0,0
49347682,49347659,2228234,0.009773845,0.03543019,0.026878074,35.0,0
49748061,49748044,2228234,0.020769421,0.026878074,0.029321535,36.0,0
49947235,49947213,2228234,0.025656343,0.031764995,0.01954769,36.0,0
50048378,50048362,2228234,0.03543019,0.02199115,0.024434611,36.0,0
50147746,50147729,2228234,0.010995575,0.045204032,0.01954769,36.0,0
50246421,50246405,2228234,0.017104229,0.029321535,0.023212882,36.0,0
50347520,50347497,2228234,0.018325958,0.024434611,0.025656343,36.0,0
51046505,51046489,2228234,0.014660767,0.03909538,0.020769421,36.0,0
51147923,51147900,2228234,0.015882498,0.030543266,0.020769421,36.0,0
51246702,51246686,2228234,0.0048869224,0.031764995,0.030543266,36.0,0
51346802,51346786,2228234,0.018325958,0.024434611,0.024434611,36.0,0
51547010,51546994,2228234,0.02199115,0.029321535,0.02199115,36.0,0
51746487,51746471,2228234,0.012217306,0.01954769,0.026878074,36.0,0
51848149,51848133,2228234,0.014660767,0.03909538,0.023212882,36.0,0
51945754,51945729,2228234,0.0085521145,0.037873648,0.030543266,36.0,0
52046790,52046771,2228234,0.014660767,0.026878074,0.028099803,36.0,0
52148346,52148322,2228234,0.0,0.032986727,0.026878074,36.0,0
52248424,52248401,2228234,0.012217306,0.020769421,0.018325958,36.0,0
52646105,52646068,2228234,0.0012217306,0.031764995,0.025656343,36.0,0
52747487,52747471,2228234,0.018325958,0.026878074,0.020769421,36.0,0
52848627,52848611,2228234,0.020769421,0.023212882,0.025656343,36.0,0
53148854,53148830,2228234,0.015882498,0.02199115,0.02199115,36.0,0
53248897,53248873,2228234,0.026878074,0.041538842,0.023212882,36.0,0
53849103,53849087,2228234,0.0085521145,0.028099803,0.020769421,36.0,0
53949207,53949181,2228234,0.017104229,0.032986727,0.024434611,36.0,0
54046776,54046750,2228234,0.015882498,0.031764995,0.023212882,35.0,0
54149247,54149231,2228234,0.018325958,0.041538842,0.02199115,35.0,0
54249386,54249343,2228234,0.013439037,0.026878074,0.020769421,35.0,0
54348375,54348358,2228234,0.018325958,0.026878074,0.01954769,35.0,0
54745911,54745894,2228234,0.012217306,0.026878074,0.015882498,35.0,0
54947560,54947535,2228234,0.01954769,0.03543019,0.023212882,35.0,0
55549968,55549950,2228234,0.012217306,0.046425764,0.028099803,36.0,0
55649994,55649977,2228234,0.017104229,0.030543266,0.030543266,36.0,0
55950110,55950094,2228234,0.02199115,0.025656343,0.02199115,36.0,0
56146615,56146592,2228234,0.013439037,0.029321535,0.023212882,35.0,0
56748012,56747996,2228234,0.018325958,0.023212882,0.032986727,35.0,0
57948566,57948550,2228234,0.018325958,0.023212882,0.024434611,36.0,0
58048633,58048617,2228234,0.02199115,0.034208458,0.02199115,36.0,0
58146205,58146188,2228234,0.024434611,0.031764995,0.030543266,36.0,0
58248745,58248725,2228234,0.023212882,0.029321535,0.020769421,36.0,0
58348769,58348747,2228234,0.017104229,0.028099803,0.034208458,36.0,0
58947969,58947953,2228234,0.01954769,0.017104229,0.025656343,36.0,0
59148166,59148149,2228234,0.018325958,0.025656343,0.023212882,36.0,0
59347651,59347634,2228234,0.01954769,0.02199115,0.024434611,36.0,0
59647956,59647937,2228234,0.0073303836,0.02199115,0.020769421,36.0,0
59747379,59747359,2228234,0.013439037,0.030543266,0.028099803,36.0,0
60147736,60147719,2228234,0.0048869224,0.024434611,0.023212882,36.0,0
60244708,60244692,2228234,0.023212882,0.03543019,0.026878074,36.0,0
60348693,60348676,2228234,0.015882498,0.031764995,0.025656343,36.0,0
60448050,60448032,2228234,0.01954769,0.046425764,0.023212882,36.0,0
60547408,60547371,2228234,0.014660767,0.029321535,0.025656343,36.0,0
60648960,60648940,2228234,0.017104229,0.024434611,0.025656343,36.0,0
60946411,60946388,2228234,0.015882498,0.029321535,0.034208458,36.0,0
61645383,61645357,2228234,0.018325958,0.026878074,0.020769421,36.0,0
61748062,61748038,2228234,0.01954769,0.020769421,0.01954769,36.0,0
61848046,61848023,2228234,0.009773845,0.028099803,0.024434611,36.0,0
62245688,62245672,2228234,0.013439037,0.028099803,0.02199115,36.0,0
62448442,62448417,2228234,0.018325958,0.029321535,0.030543266,36.0,0
62547290,62547274,2228234,0.017104229,0.024434611,0.025656343,36.0,0
62748453,62748434,2228234,0.015882498,0.023212882,0.024434611,36.0,0
62848482,62848466,2228234,0.029321535,0.028099803,0.017104229,36.0,0
62948510,62948494,2228234,0.010995575,0.031764995,0.028099803,36.0,0
63148720,63148697,2228234,0.017104229,0.034208458,0.020769421,36.0,0
63448884,63448860,2228234,0.030543266,0.026878074,0.017104229,36.0,0
63548931,63548907,2228234,0.012217306,0.029321535,0.020769421,36.0,0
63849048,63849025,2228234,0.014660767,0.029321535,0.03543019,36.0,0
64046562,64046546,2228234,0.025656343,0.031764995,0.029321535,36.0,0
64449231,64449206,2228234,0.020769421,0.030543266,0.01954769,36.0,0
65148453,65148437,2228234,0.0024434612,0.029321535,0.025656343,36.0,0
65249808,65249782,2228234,0.015882498,0.030543266,0.02199115,36.0,0
65348701,65348678,2228234,0.017104229,0.037873648,0.030543266,36.0,0
65848488,65848462,2228234,0.013439037,0.031764995,0.01954769,36.0,0
65948546,65948529,2228234,0.015882498,0.023212882,0.02199115,36.0,0
66050021,66050005,2228234,0.0085521145,0.03543019,0.025656343,36.0,0
66547876,66547852,2228234,0.017104229,0.025656343,0.031764995,36.0,0
66645659,66645643,2228234,0.009773845,0.037873648,0.024434611,36.0,0
66745377,66745351,2228234,0.009773845,0.037873648,0.032986727,36.0,0
66848066,66848043,2228234,0.02199115,0.029321535,0.017104229,36.0,0
67248233,67248209,2228234,0.01954769,0.03543019,0.034208458,36.0,0
67748368,67748351,2228234,0.01954769,0.028099803,0.020769421,36.0,0
67845888,67845872,2228234,0.0073303836,0.037873648,0.023212882,36.0,0
67948465,67948448,2228234,0.026878074,0.024434611,0.01954769,36.0,0
68048521,68048505,2228234,0.017104229,0.032986727,0.025656343,36.0,0
68146040,68146024,2228234,0.036651917,0.028099803,0.024434611,36.0,0
68248756,68248732,2228234,0.025656343,0.02199115,0.023212882,36.0,0
68447474,68447451,2228234,0.013439037,0.041538842,0.023212882,36.0,0
68547575,68547552,2228234,0.02199115,0.030543266,0.02199115,36.0,0
68844997,68844981,2228234,0.01954769,0.030543266,0.029321535,36.0,0
68947281,68947251,2228234,0.020769421,0.036651917,0.032986727,37.0,0
69047384,69047367,2228234,0.01954769,0.031764995,0.032986727,37.0,0
69145300,69145284,2228234,0.0085521145,0.0439823,0.030543266,37.0,0
69449217,69449201,2228234,0.015882498,0.025656343,0.030543266,37.0,0
69547877,69547861,2228234,0.012217306,0.023212882,0.020769421,37.0,0
69647943,69647927,2228234,0.023212882,0.04031711,0.02199115,37.0,0
70047628,70047612,2228234,0.025656343,0.024434611,0.023212882,36.0,0
70448031,70448015,2228234,0.0073303836,0.032986727,0.025656343,36.0,0
70547249,70547232,2228234,0.012217306,0.031764995,0.024434611,36.0,0
70648234,70648215,2228234,0.034208458,0.030543266,0.02199115,36.0,0
70847466,70847443,2228234,0.0036651918,0.041538842,0.025656343,36.0,0
70948558,70948535,2228234,0.018325958,0.037873648,0.024434611,36.0,0
71245141,71245122,2228234,0.01954769,0.028099803,0.018325958,36.0,0
71347703,71347677,2228234,0.031764995,0.02199115,0.025656343,36.0,0
71747913,71747890,2228234,0.006108653,0.028099803,0.023212882,36.0,0
71847925,71847909,2228234,0.014660767,0.030543266,0.028099803,36.0,0
71945485,71945467,2228234,0.017104229,0.028099803,0.024434611,36.0,0
72348133,72348117,2228234,0.010995575,0.031764995,0.025656343,36.0,0
72448214,72448198,2228234,0.009773845,0.03543019,0.023212882,36.0,0
72545844,72545827,2228234,0.017104229,0.032986727,0.032986727,36.0,0
72848391,72848375,2228234,0.025656343,0.017104229,0.029321535,36.0,0
72946102,72946079,2228234,0.010995575,0.028099803,0.018325958,36.0,0
73048488,73048472,2228234,0.013439037,0.028099803,0.01954769,36.0,0
73148630,73148593,2228234,0.012217306,0.029321535,0.031764995,36.0,0
73248612,73248596,2228234,0.028099803,0.032986727,0.034208458,37.0,0
73447456,73447436,2228234,0.025656343,0.024434611,0.020769421,37.0,0
73548890,73548867,2228234,0.02199115,0.028099803,0.032986727,37.0,0
73647652,73647636,2228234,0.010995575,0.032986727,0.020769421,37.0,0
73848913,73848897,2228234,0.009773845,0.028099803,0.034208458,37.0,0
73949032,73949009,2228234,0.018325958,0.030543266,0.02199115,37.0,0
74048058,74048041,2228234,0.02199115,0.031764995,0.03909538,37.0,0
74149025,74149009,2228234,0.023212882,0.031764995,0.025656343,37.0,0
74249080,74249064,2228234,0.02199115,0.020769421,0.023212882,37.0,0
74345494,74345478,2228234,0.013439037,0.031764995,0.01954769,37.0,0
74749338,74749322,2228234,0.015882498,0.031764995,0.01954769,37.0,0
75047125,75047102,2228234,0.014660767,0.025656343,0.01954769,37.0,0
75149558,75149542,2228234,0.0,0.032986727,0.020769421,37.0,0
75649782,75649766,2228234,0.023212882,0.024434611,0.026878074,37.0,0
75747502,75747475,2228234,0.020769421,0.037873648,0.02199115,37.0,0
76150024,76150007,2228234,0.01954769,0.034208458,0.02199115,37.0,0
76350159,76350143,2228234,0.01954769,0.032986727,0.029321535,37.0,0
76446177,76446160,2228234,0.031764995,0.04031711,0.023212882,37.0,0
76647879,76647862,2228234,0.01954769,0.036651917,0.02199115,37.0,0
76744344,76744328,2228234,0.023212882,0.029321535,0.024434611,37.0,0
76847999,76847982,2228234,0.024434611,0.01954769,0.017104229,37.0,0
76947999,76947982,2228234,0.018325958,0.032986727,0.02199115,37.0,0
77046777,77046753,2228234,0.031764995,0.023212882,0.02199115,37.0,0
77146864,77146847,2228234,0.015882498,0.031764995,0.015882498,37.0,0
77248251,77248222,2228234,0.014660767,0.028099803,0.02199115,37.0,0
77447191,77447167,2228234,0.017104229,0.028099803,0.029321535,37.0,0
77548366,77548350,2228234,0.020769421,0.02199115,0.023212882,37.0,0
77948615,77948592,2228234,0.020769421,0.030543266,0.028099803,37.0,0
78248696,78248676,2228234,0.01954769,0.03909538,0.018325958,37.0,0
78348783,78348760,2228234,0.0085521145,0.032986727,0.031764995,37.0,0
78443689,78443670,2228234,0.017104229,0.026878074,0.032986727,37.0,0
78547564,78547548,2228234,0.0036651918,0.0439823,0.024434611,37.0,0
78846492,78846466,2228234,0.024434611,0.032986727,0.036651917,37.0,0
78947256,78947219,2228234,0.012217306,0.028099803,0.031764995,37.0,0
79048066,79048042,2228234,0.013439037,0.037873648,0.023212882,37.0,0
79347643,79347626,2228234,0.01954769,0.024434611,0.030543266,37.0,0
79449244,79449219,2228234,0.025656343,0.026878074,0.026878074,37.0,0
79547886,79547863,2228234,0.015882498,0.03543019,0.02199115,37.0,0
79749423,79749407,2228234,0.01954769,0.036651917,0.024434611,37.0,0
79847005,79846982,2228234,0.017104229,0.015882498,0.02199115,37.0,0
80347948,80347922,2228234,0.018325958,0.032986727,0.032986727,37.0,0
80748325,80748308,2228234,0.012217306,0.028099803,0.02199115,37.0,0
80846277,80846261,2228234,0.020769421,0.034208458,0.020769421,37.0,0
80948532,80948516,2228234,0.018325958,0.032986727,0.029321535,37.0,0
81048626,81048609,2228234,0.015882498,0.028099803,0.020769421,37.0,0
81146604,81146573,2228234,0.02199115,0.028099803,0.034208458,37.0,0
81348934,81348911,2228234,0.0073303836,0.032986727,0.023212882,37.0,0
81447793,81447756,2228234,0.017104229,0.01954769,0.020769421,37.0,0
81545252,81545235,2228234,0.023212882,0.017104229,0.017104229,37.0,0
81647906,81647883,2228234,0.01954769,0.03909538,0.025656343,37.0,0
81847940,81847924,2228234,0.025656343,0.036651917,0.017104229,37.0,0
82146147,82146131,2228234,0.015882498,0.023212882,0.018325958,37.0,0
82348262,82348235,2228234,0.012217306,0.037873648,0.026878074,37.0,0
82448234,82448215,2228234,0.028099803,0.028099803,0.030543266,37.0,0
82547279,82547253,2228234,0.01954769,0.025656343,0.024434611,37.0,0
82648350,82648333,2228234,0.012217306,0.034208458,0.017104229,37.0,0
82848504,82848481,2228234,0.017104229,0.01954769,0.032986727,37.0,0
82944825,82944803,2228234,0.0036651918,0.031764995,0.025656343,37.0,0
83148656,83148633,2228234,0.014660767,0.025656343,0.028099803,37.0,0
83548842,83548819,2228234,0.009773845,0.04031711,0.023212882,37.0,0
83646367,83646348,2228234,0.017104229,0.017104229,0.025656343,37.0,0
83747076,83747059,2228234,0.030543266,0.04031711,0.026878074,37.0,0
83943993,83943976,2228234,0.023212882,0.031764995,0.024434611,37.0,0
84748029,84748013,2228234,0.018325958,0.023212882,0.030543266,37.0,0
84847428,84847405,2228234,0.018325958,0.032986727,0.030543266,37.0,0
84949489,84949473,2228234,0.015882498,0.028099803,0.02199115,37.0,0
85045500,85045479,2228234,0.02199115,0.031764995,0.028099803,37.0,0
85249658,85249642,2228234,0.01954769,0.04276057,0.01954769,37.0,0
85345788,85345765,2228234,0.029321535,0.028099803,0.024434611,37.0,0
85448016,85448000,2228234,0.018325958,0.018325958,0.015882498,37.0,0
85549796,85549780,2228234,0.032986727,0.023212882,0.025656343,37.0,0
85647452,85647425,2228234,0.006108653,0.025656343,0.02199115,37.0,0
85747410,85747394,2228234,0.02199115,0.031764995,0.028099803,37.0,0
86046499,86046476,2228234,0.014660767,0.032986727,0.026878074,37.0,0
86147625,86147609,2228234,0.024434611,0.034208458,0.01954769,37.0,0
86248105,86248089,2228234,0.018325958,0.026878074,0.02199115,37.0,0
86547878,86547855,2228234,0.018325958,0.031764995,0.028099803,37.0,0
86645492,86645465,2228234,0.020769421,0.029321535,0.031764995,37.0,0
86745415,86745398,2228234,0.010995575,0.028099803,0.029321535,37.0,0
86847961,86847938,2228234,0.023212882,0.041538842,0.026878074,37.0,0
86948117,86948100,2228234,0.026878074,0.028099803,0.025656343,37.0,0
87046756,87046740,2228234,0.02199115,0.031764995,0.026878074,37.0,0
87248308,87248270,2228234,0.015882498,0.024434611,0.036651917,37.0,0
87347096,87347072,2228234,0.026878074,0.026878074,0.025656343,37.0,0
87447180,87447149,2228234,0.009773845,0.03543019,0.025656343,37.0,0
87548441,87548418,2228234,0.020769421,0.03909538,0.023212882,37.0,0
87647365,87647348,2228234,0.020769421,0.032986727,0.024434611,37.0,0
88046387,88046363,2228234,0.01954769,0.03543019,0.02199115,37.0,0
88146120,88146104,2228234,0.026878074,0.03909538,0.018325958,37.0,0
88547536,88547519,2228234,0.028099803,0.02199115,0.026878074,37.0,0
88747754,88747731,2228234,0.014660767,0.025656343,0.023212882,37.0,0
88847901,88847869,2228234,0.010995575,0.030543266,0.023212882,37.0,0
89048055,89048032,2228234,0.020769421,0.036651917,0.026878074,37.0,0
89547860,89547837,2228234,0.013439037,0.030543266,0.02199115,37.0,0
89647944,89647918,2228234,0.014660767,0.028099803,0.025656343,37.0,0
89749552,89749535,2228234,0.0036651918,0.032986727,0.030543266,37.0,0
89848140,89848117,2228234,0.024434611,0.030543266,0.026878074,37.0,0
89948268,89948229,2228234,0.023212882,0.020769421,0.024434611,37.0,0
90147209,90147186,2228234,0.024434611,0.02199115,0.028099803,37.0,0
90248540,90248517,2228234,0.014660767,0.020769421,0.020769421,37.0,0
90448012,90447993,2228234,0.02199115,0.030543266,0.020769421,37.0,0
90548840,90548817,2228234,0.020769421,0.028099803,0.020769421,37.0,0
91347737,91347720,2228234,0.04276057,0.031764995,0.02199115,38.0,0
91848005,91847988,2228234,0.023212882,0.034208458,0.031764995,38.0,0
92148228,92148201,2228234,0.026878074,0.031764995,0.024434611,38.0,0
92243215,92243199,2228234,0.023212882,0.03909538,0.023212882,38.0,0
92547250,92547233,2228234,0.020769421,0.04276057,0.026878074,37.0,0
92847549,92847532,2228234,0.023212882,0.026878074,0.031764995,37.0,0
93246238,93246213,2228234,0.012217306,0.030543266,0.020769421,37.0,0
93348826,93348807,2228234,0.02199115,0.029321535,0.029321535,37.0,0
93448924,93448901,2228234,0.020769421,0.031764995,0.026878074,37.0,0
93548968,93548945,2228234,0.023212882,0.041538842,0.028099803,37.0,0
93748988,93748967,2228234,0.018325958,0.024434611,0.026878074,37.0,0
93849034,93849017,2228234,0.01954769,0.032986727,0.026878074,37.0,0
93947936,93947920,2228234,0.0036651918,0.029321535,0.028099803,37.0,0
94049187,94049165,2228234,0.015882498,0.026878074,0.032986727,37.0,0
94149194,94149177,2228234,0.017104229,0.03909538,0.025656343,37.0,0
94249677,94249658,2228234,0.026878074,0.045204032,0.020769421,37.0,0
94449476,94449459,2228234,0.009773845,0.031764995,0.028099803,37.0,0
94549421,94549404,2228234,0.01954769,0.023212882,0.02199115,37.0,0
95049711,95049687,2228234,0.014660767,0.03543019,0.020769421,37.0,0
95149708,95149692,2228234,0.020769421,0.032986727,0.026878074,37.0,0
95249766,95249750,2228234,0.006108653,0.03909538,0.02199115,37.0,0
95347337,95347321,2228234,0.026878074,0.031764995,0.018325958,37.0,0
95449896,95449880,2228234,0.01954769,0.031764995,0.025656343,37.0,0
95750045,95750029,2228234,0.015882498,0.032986727,0.01954769,37.0,0
95850059,95850042,2228234,0.024434611,0.03543019,0.028099803,37.0,0
95950122,95950106,2228234,0.024434611,0.02199115,0.026878074,37.0,0
96045249,96045225,2228234,0.030543266,0.029321535,0.023212882,37.0,0
96147738,96147722,2228234,0.015882498,0.024434611,0.020769421,37.0,0
96247803,96247787,2228234,0.025656343,0.0439823,0.01954769,37.0,0
96948167,96948151,2228234,0.023212882,0.029321535,0.028099803,38.0,0
97148238,97148212,2228234,0.018325958,0.018325958,0.020769421,38.0,0
97248325,97248308,2228234,0.017104229,0.031764995,0.023212882,38.0,0
97348348,97348332,2228234,0.024434611,0.032986727,0.024434611,38.0,0
97548474,97548458,2228234,0.017104229,0.032986727,0.025656343,38.0,0
97746075,97746058,2228234,0.012217306,0.029321535,0.031764995,38.0,0
97846833,97846814,2228234,0.020769421,0.026878074,0.03543019,38.0,0
97948684,97948668,2228234,0.013439037,0.032986727,0.030543266,38.0,0
98147153,98147130,2228234,0.017104229,0.025656343,0.026878074,38.0,0
98248813,98248796,2228234,0.014660767,0.041538842,0.028099803,38.0,0
98646930,98646907,2228234,0.020769421,0.028099803,0.034208458,38.0,0
98745583,98745567,2228234,0.034208458,0.03543019,0.031764995,37.0,0
98847863,98847847,2228234,0.020769421,0.034208458,0.025656343,37.0,0
100248514,100248498,2228234,0.015882498,0.031764995,0.031764995,38.0,0
100648196,100648179,2228234,0.031764995,0.037873648,0.023212882,38.0,0
100748301,100748285,2228234,0.02199115,0.030543266,0.029321535,38.0,0
100846277,100846260,2228234,0.013439037,0.030543266,0.028099803,38.0,0
101047793,101047766,2228234,0.02199115,0.025656343,0.018325958,38.0,0
101146590,101146574,2228234,0.020769421,0.0439823,0.025656343,38.0,0
101446882,101446859,2228234,0.031764995,0.03543019,0.026878074,38.0,0
101545568,101545552,2228234,0.018325958,0.037873648,0.024434611,38.0,0
101946644,101946626,2228234,0.018325958,0.046425764,0.020769421,38.0,0
102048320,102048304,2228234,0.018325958,0.030543266,0.028099803,38.0,0
102148361,102148345,2228234,0.020769421,0.029321535,0.028099803,38.0,0
102348448,102348425,2228234,0.025656343,0.01954769,0.026878074,38.0,0
102748667,102748651,2228234,0.024434611,0.031764995,0.03543019,38.0,0
103047045,103047029,2228234,0.031764995,0.030543266,0.028099803,38.0,0
103147877,103147861,2228234,0.015882498,0.029321535,0.02199115,38.0,0
103946798,103946782,2228234,0.015882498,0.025656343,0.026878074,38.0,0
104048022,104048005,2228234,0.02199115,0.03543019,0.03543019,38.0,0
104248221,104248204,2228234,0.023212882,0.03543019,0.03543019,38.0,0
104347023,104347006,2228234,0.0036651918,0.029321535,0.036651917,38.0,0
104548523,104548507,2228234,0.010995575,0.025656343,0.029321535,38.0,0
104647171,104647149,2228234,0.029321535,0.034208458,0.030543266,38.0,0
105347518,105347501,2228234,0.009773845,0.029321535,0.030543266,38.0,0
105448725,105448702,2228234,0.020769421,0.034208458,0.03543019,38.0,0
105548102,105548086,2228234,0.023212882,0.03909538,0.02199115,38.0,0
105647702,105647686,2228234,0.02199115,0.023212882,0.034208458,38.0,0
106046451,106046429,2228234,0.020769421,0.048869222,0.031764995,38.0,0
106245936,106245917,2228234,0.02199115,0.030543266,0.036651917,38.0,0
106346749,106346732,2228234,0.015882498,0.03543019,0.03543019,38.0,0
106448095,106448079,2228234,0.010995575,0.03543019,0.025656343,38.0,0
106848357,106848341,2228234,0.024434611,0.03909538,0.030543266,38.0,0
107047464,107047439,2228234,0.020769421,0.029321535,0.032986727,38.0,0
107146838,107146821,2228234,0.020769421,0.04031711,0.028099803,38.0,0
107248540,107248523,2228234,0.017104229,0.028099803,0.028099803,38.0,0
107447131,107447115,2228234,0.017104229,0.026878074,0.029321535,38.0,0
107548704,107548688,2228234,0.010995575,0.026878074,0.030543266,38.0,0
107948917,107948901,2228234,0.02199115,0.023212882,0.028099803,38.0,0
108043963,108043947,2228234,0.006108653,0.024434611,0.031764995,38.0,0
108446697,108446681,2228234,0.0085521145,0.018325958,0.028099803,38.0,0
108547518,108547499,2228234,0.031764995,0.03543019,0.03543019,38.0,0
108647627,108647611,2228234,0.012217306,0.04031711,0.028099803,38.0,0
108745575,108745559,2228234,0.0024434612,0.025656343,0.029321535,38.0,0
108947919,108947903,2228234,0.01954769,0.037873648,0.034208458,38.0,0
109049544,109049525,2228234,0.014660767,0.03909538,0.030543266,38.0,0
109948207,109948187,2228234,0.0073303836,0.026878074,0.04031711,38.0,0
110248504,110248488,2228234,0.034208458,0.03909538,0.030543266,38.0,0
110746861,110746845,2228234,0.010995575,0.045204032,0.023212882,38.0,0
111048064,111048048,2228234,0.03909538,0.032986727,0.031764995,38.0,0
111246644,111246627,2228234,0.01954769,0.023212882,0.028099803,38.0,0
111348252,111348236,2228234,0.020769421,0.0439823,0.029321535,38.0,0
111648379,111648362,2228234,0.006108653,0.032986727,0.026878074,38.0,0
112248743,112248724,2228234,0.026878074,0.03543019,0.024434611,38.0,0
112348759,112348743,2228234,0.037873648,0.025656343,0.030543266,38.0,0
112543857,112543841,2228234,0.012217306,0.032986727,0.028099803,38.0,0
112648932,112648916,2228234,0.023212882,0.030543266,0.032986727,38.0,0
112749035,112749012,2228234,0.028099803,0.018325958,0.029321535,38.0,0
113449346,113449330,2228234,0.02199115,0.030543266,0.03543019,38.0,0
113546886,113546870,2228234,0.017104229,0.032986727,0.037873648,38.0,0
113749509,113749493,2228234,0.029321535,0.026878074,0.03543019,38.0,0
114549923,114549900,2228234,0.014660767,0.026878074,0.029321535,38.0,0
114648612,114648596,2228234,0.023212882,0.03909538,0.029321535,38.0,0
115247808,115247779,2228234,0.023212882,0.037873648,0.026878074,38.0,0
115347876,115347860,2228234,0.024434611,0.030543266,0.029321535,38.0,0
115548007,115547990,2228234,0.029321535,0.018325958,0.041538842,38.0,0
115748066,115748049,2228234,0.02199115,0.031764995,0.031764995,38.0,0
115848155,115848139,2228234,0.024434611,0.03909538,0.026878074,38.0,0
115945674,115945658,2228234,0.031764995,0.036651917,0.029321535,38.0,0
116048246,116048229,2228234,0.01954769,0.032986727,0.03543019,38.0,0
116247371,116247354,2228234,0.034208458,0.04031711,0.026878074,38.0,0
116448465,116448449,2228234,0.01954769,0.03909538,0.036651917,38.0,0
116646078,116646061,2228234,0.026878074,0.023212882,0.031764995,38.0,0
116747148,116747132,2228234,0.02199115,0.028099803,0.029321535,38.0,0
117047438,117047422,2228234,0.0085521145,0.025656343,0.025656343,39.0,0
117147538,117147522,2228234,0.01954769,0.04031711,0.037873648,39.0,0
117549063,117549047,2228234,0.020769421,0.048869222,0.026878074,39.0,0
117648038,117648019,2228234,0.024434611,0.03909538,0.026878074,39.0,0
117847524,117847504,2228234,0.029321535,0.03543019,0.03543019,39.0,0
117947621,117947604,2228234,0.024434611,0.034208458,0.037873648,38.0,0
118045580,118045564,2228234,0.028099803,0.02199115,0.032986727,38.0,0
118349509,118349492,2228234,0.02199115,0.048869222,0.047647495,38.0,0
118748432,118748416,2228234,0.028099803,0.037873648,0.034208458,38.0,0
119044849,119044833,2228234,0.018325958,0.030543266,0.028099803,38.0,0
119147419,119147403,2228234,0.020769421,0.0439823,0.031764995,38.0,0
119248236,119248216,2228234,0.028099803,0.051312685,0.03543019,38.0,0
119447633,119447614,2228234,0.025656343,0.048869222,0.031764995,38.0,0
119548506,119548489,2228234,0.017104229,0.04031711,0.037873648,38.0,0
119647681,119647665,2228234,0.014660767,0.036651917,0.032986727,38.0,0
120046880,120046864,2228234,0.020769421,0.024434611,0.026878074,39.0,0
120445629,120445613,2228234,0.013439037,0.029321535,0.026878074,39.0,0
120548193,120548177,2228234,0.013439037,0.041538842,0.025656343,39.0,0
120648234,120648215,2228234,0.028099803,0.023212882,0.025656343,39.0,0
120748298,120748275,2228234,0.0048869224,0.031764995,0.025656343,39.0,0
120846946,120846929,2228234,0.0036651918,0.037873648,0.029321535,39.0,0
121248558,121248541,2228234,0.018325958,0.032986727,0.037873648,38.0,0
121447573,121447550,2228234,0.015882498,0.03909538,0.031764995,38.0,0
121647069,121647052,2228234,0.034208458,0.03543019,0.04276057,38.0,0
121747903,121747871,2228234,0.024434611,0.03543019,0.032986727,38.0,0
121947391,121947374,2228234,0.017104229,0.020769421,0.031764995,38.0,0
122149065,122149049,2228234,0.02199115,0.036651917,0.029321535,38.0,0
122247649,122247626,2228234,0.0024434612,0.03543019,0.03909538,39.0,0
122347760,122347737,2228234,0.015882498,0.045204032,0.025656343,39.0,0
122447119,122447102,2228234,0.057421338,0.024434611,0.03543019,39.0,0
122547954,122547931,2228234,0.01954769,0.02199115,0.024434611,39.0,0
122648035,122648019,2228234,0.013439037,0.034208458,0.03543019,39.0,0
122749423,122749407,2228234,0.015882498,0.026878074,0.029321535,39.0,0
122848266,122848240,2228234,0.017104229,0.028099803,0.029321535,39.0,0
123047721,123047703,2228234,0.024434611,0.031764995,0.03543019,39.0,0
123148536,123148517,2228234,0.030543266,0.01954769,0.028099803,39.0,0
123247158,123247141,2228234,0.041538842,0.034208458,0.03909538,39.0,0
123348036,123348019,2228234,0.020769421,0.047647495,0.029321535,39.0,0
123947693,123947666,2228234,0.018325958,0.032986727,0.031764995,39.0,0
124048735,124048712,2228234,0.006108653,0.037873648,0.029321535,39.0,0
124150160,124150144,2228234,0.023212882,0.029321535,0.030543266,39.0,0
124247791,124247761,2228234,-0.006108653,0.030543266,0.034208458,39.0,0
124346175,124346152,2228234,0.030543266,0.023212882,0.031764995,39.0,0
124547894,124547877,2228234,0.02199115,0.032986727,0.032986727,39.0,0
124646469,124646453,2228234,0.017104229,0.034208458,0.031764995,39.0,0
124946793,124946767,2228234,0.032986727,0.026878074,0.03543019,39.0,0
125148212,125148195,2228234,0.0439823,0.034208458,0.036651917,39.0,0
125245765,125245749,2228234,-0.0024434612,0.06352999,0.034208458,39.0,0
125448453,125448437,2228234,0.045204032,0.032986727,0.031764995,39.0,0
125547388,125547365,2228234,0.0012217306,0.023212882,0.024434611,39.0,0
126248915,126248894,2228234,0.024434611,0.01954769,0.028099803,39.0,0
126346397,126346381,2228234,0.0024434612,0.025656343,0.036651917,39.0,0
126447560,126447537,2228234,0.02199115,0.0439823,0.048869222,39.0,0
127347030,127347007,2228234,0.013439037,0.026878074,0.02199115,39.0,0
127649621,127649605,2228234,0.0048869224,0.025656343,0.023212882,39.0,0
127747171,127747155,2228234,0.0085521145,0.0439823,0.030543266,39.0,0
128148526,128148509,2228234,0.013439037,0.024434611,0.03543019,39.0,0
128247941,128247918,2228234,0.030543266,0.03543019,0.03543019,39.0,0
129148038,129148015,2228234,0.19425517,0.09651672,0.09651672,39.0,0
129248114,129248090,2228234,-0.034208458,0.04031711,0.036651917,39.0,0
129348098,129348082,2228234,0.032986727,0.04031711,0.023212882,39.0,0
129546369,129546353,2228234,0.0439823,0.041538842,0.03543019,39.0,0
129848464,129848441,2228234,0.0085521145,0.028099803,0.030543266,39.0,0
130248661,130248625,2228234,0.028099803,0.028099803,0.012217306,39.0,0
130548737,130548721,2228234,0.014660767,0.026878074,0.024434611,39.0,0
131049050,131049034,2228234,0.026878074,0.051312685,0.026878074,39.0,0
131349238,131349214,2228234,0.023212882,0.030543266,0.020769421,39.0,0
131449348,131449321,2228234,0.013439037,0.034208458,0.032986727,39.0,0
131548373,131548356,2228234,-0.026878074,0.026878074,0.036651917,39.0,0
131845812,131845790,2228234,0.053756148,0.03543019,0.028099803,40.0,0
132249769,132249746,2228234,0.013439037,0.03909538,0.03543019,40.0,0
132547348,132547332,2228234,0.06597345,0.01954769,0.029321535,40.0,0
132649934,132649918,2228234,0.04031711,0.0439823,0.02199115,40.0,0
133145304,133145281,2228234,0.013439037,0.04031711,0.032986727,39.0,0
133245247,133245230,2228234,0.024434611,0.030543266,0.03543019,39.0,0
133545455,133545439,2228234,0.017104229,0.032986727,0.023212882,39.0,0
133648051,133648028,2228234,0.0024434612,0.029321535,0.029321535,39.0,0
133748105,133748081,2228234,0.057421338,0.037873648,0.031764995,39.0,0
134348460,134348437,2228234,-0.03543019,-0.012217306,0.036651917,39.0,0
134648582,134648566,2228234,0.041538842,0.031764995,0.030543266,39.0,0
135247774,135247755,2228234,0.056199607,0.045204032,0.025656343,40.0,0
135449013,135448997,2228234,0.017104229,0.032986727,0.029321535,40.0,0
135548061,135548044,2228234,-0.018325958,0.020769421,0.03909538,40.0,0
135648173,135648144,2228234,0.028099803,0.047647495,0.034208458,40.0,0
135749282,135749249,2228234,0.03543019,0.0439823,0.030543266,40.0,0
135847697,135847645,2228234,-0.025656343,0.032986727,0.03543019,40.0,0
136249467,136249451,2228234,0.018325958,0.023212882,0.028099803,39.0,0
136448254,136448237,2228234,0.020769421,0.034208458,0.018325958,39.0,0
136643441,136643424,2228234,0.029321535,0.03543019,0.03543019,39.0,0
136748567,136748544,2228234,0.0036651918,0.018325958,0.031764995,39.0,0
137349151,137349135,2228234,0.0012217306,0.028099803,0.03543019,39.0,0
137448531,137448514,2228234,0.025656343,0.032986727,0.023212882,39.0,0
137547787,137547746,2228234,0.032986727,0.030543266,0.031764995,39.0,0
137747936,137747913,2228234,0.03543019,0.028099803,0.025656343,39.0,0
137946888,137946872,2228234,0.010995575,0.04276057,0.024434611,39.0,0
138046989,138046973,2228234,0.024434611,0.025656343,0.028099803,39.0,0
138148188,138148165,2228234,0.018325958,0.034208458,0.02199115,40.0,0
138345641,138345606,2228234,0.03543019,0.028099803,0.031764995,40.0,0
138446674,138446657,2228234,-0.006108653,0.028099803,0.026878074,40.0,0
138548326,138548299,2228234,0.01954769,0.029321535,0.024434611,40.0,0
138648306,138648290,2228234,0.023212882,0.03909538,0.03909538,40.0,0
139046033,139046017,2228234,0.02199115,0.04276057,0.034208458,40.0,0
139147392,139147367,2228234,0.014660767,0.046425764,0.029321535,40.0,0
139347590,139347566,2228234,0.014660767,0.030543266,0.023212882,40.0,0
139446300,139446278,2228234,0.041538842,0.036651917,0.024434611,40.0,0
139547081,139547065,2228234,0.0036651918,0.030543266,0.023212882,40.0,0
139949101,139949076,2228234,0.034208458,0.03543019,0.01954769,40.0,0
140146666,140146649,2228234,0.03909538,0.037873648,0.036651917,40.0,0
140247761,140247742,2228234,0.01954769,0.04031711,0.029321535,40.0,0
140347161,140347138,2228234,0.026878074,0.024434611,0.028099803,39.0,0
140446888,140446863,2228234,0.020769421,0.015882498,0.025656343,39.0,0
140548074,140548048,2228234,0.017104229,0.029321535,0.031764995,39.0,0
140647462,140647439,2228234,0.034208458,0.037873648,0.028099803,39.0,0
141049668,141049651,2228234,0.02199115,0.032986727,0.028099803,39.0,0
141145808,141145791,2228234,0.025656343,0.034208458,0.020769421,39.0,0
141547459,141547443,2228234,0.024434611,0.041538842,0.025656343,40.0,0
141747892,141747876,2228234,0.017104229,0.041538842,0.031764995,40.0,0
141948764,141948740,2228234,0.014660767,0.04031711,0.030543266,40.0,0
142047765,142047748,2228234,0.029321535,0.034208458,0.023212882,40.0,0
142347917,142347900,2228234,0.023212882,0.041538842,0.03909538,40.0,0
142447952,142447936,2228234,0.020769421,0.023212882,0.024434611,39.0,0
142545564,142545545,2228234,0.025656343,0.028099803,0.034208458,39.0,0
142648061,142648045,2228234,0.013439037,0.0439823,0.030543266,39.0,0
142844666,142844650,2228234,0.012217306,0.032986727,0.024434611,39.0,0
142948230,142948210,2228234,0.02199115,0.029321535,0.031764995,39.0,0
143048341,143048324,2228234,0.0048869224,0.032986727,0.026878074,39.0,0
143348486,143348470,2228234,0.031764995,0.026878074,0.029321535,39.0,0
143448551,143448535,2228234,0.02199115,0.036651917,0.032986727,39.0,0
143547483,143547467,2228234,0.029321535,0.032986727,0.026878074,39.0,0
143847781,143847764,2228234,0.025656343,0.020769421,0.028099803,39.0,0
144245373,144245357,2228234,0.02199115,0.036651917,0.037873648,39.0,0
144347568,144347552,2228234,0.009773845,0.031764995,0.030543266,39.0,0
144647918,144647895,2228234,0.032986727,0.017104229,0.020769421,40.0,0
144747287,144747255,2228234,0.009773845,0.041538842,0.023212882,40.0,0
145244579,145244552,2228234,0.025656343,0.034208458,0.030543266,40.0,0
145348584,145348561,2228234,0.014660767,0.028099803,0.02199115,40.0,0
146148695,146148672,2228234,0.026878074,0.03909538,0.023212882,40.0,0
146247741,146247718,2228234,0.031764995,0.03543019,0.028099803,40.0,0
146547804,146547788,2228234,0.02199115,0.02199115,0.034208458,40.0,0
146644148,146644129,2228234,0.024434611,0.0439823,0.028099803,40.0,0
147048165,147048141,2228234,0.026878074,0.031764995,0.028099803,40.0,0
147148213,147148179,2228234,0.02199115,0.02199115,0.03909538,40.0,0
147248239,147248213,2228234,0.02199115,0.032986727,0.025656343,40.0,0
147343251,147343234,2228234,0.025656343,0.031764995,0.025656343,40.0,0
147548403,147548386,2228234,0.031764995,0.03909538,0.025656343,40.0,0
147647294,147647278,2228234,0.03543019,0.046425764,0.04031711,40.0,0
147748481,147748464,2228234,0.034208458,0.03543019,0.024434611,39.0,0
147947594,147947578,2228234,0.014660767,0.036651917,0.036651917,39.0,0
148046135,148046118,2228234,0.031764995,0.026878074,0.034208458,39.0,0
148147077,148147061,2228234,0.023212882,0.030543266,0.024434611,39.0,0
148747679,148747663,2228234,0.030543266,0.028099803,0.02199115,39.0,0
148849175,148849149,2228234,0.029321535,0.029321535,0.030543266,40.0,0
148949225,148949204,2228234,0.02199115,0.03543019,0.026878074,40.0,0
149044221,149044205,2228234,0.018325958,0.032986727,0.031764995,40.0,0
149547762,149547746,2228234,0.026878074,0.025656343,0.025656343,40.0,0
149648581,149648565,2228234,0.025656343,0.024434611,0.028099803,40.0,0
149748744,149748728,2228234,0.023212882,0.034208458,0.02199115,40.0,0
149949741,149949724,2228234,0.032986727,0.03543019,0.026878074,40.0,0
150147398,150147379,2228234,0.024434611,0.032986727,0.02199115,40.0,0
150249913,150249897,2228234,0.024434611,0.026878074,0.026878074,40.0,0
150447557,150447540,2228234,0.02199115,0.028099803,0.032986727,40.0,0
150548768,150548751,2228234,0.025656343,0.028099803,0.036651917,40.0,0
150648147,150648131,2228234,0.02199115,0.030543266,0.030543266,40.0,0
151047903,151047886,2228234,0.032986727,0.041538842,0.036651917,40.0,0
151145441,151145425,2228234,0.01954769,0.025656343,0.026878074,40.0,0
151248003,151247980,2228234,0.02199115,0.032986727,0.02199115,40.0,0
151348039,151348023,2228234,0.032986727,0.02199115,0.01954769,40.0,0
151546901,151546884,2228234,0.015882498,0.0439823,0.024434611,40.0,0
151648206,151648189,2228234,0.028099803,0.037873648,0.023212882,40.0,0
151748266,151748249,2228234,0.026878074,0.029321535,0.026878074,40.0,0
151948375,151948359,2228234,0.034208458,0.037873648,0.03543019,40.0,0
152048434,152048417,2228234,0.017104229,0.03909538,0.025656343,40.0,0
152147503,152147487,2228234,0.029321535,0.036651917,0.030543266,40.0,0
152246886,152246869,2228234,0.031764995,0.037873648,0.030543266,40.0,0
152348610,152348594,2228234,0.020769421,0.034208458,0.029321535,40.0,0
152648780,152648764,2228234,0.028099803,0.037873648,0.025656343,40.0,0
152748833,152748817,2228234,0.024434611,0.048869222,0.034208458,40.0,0
153245035,153245018,2228234,0.015882498,0.037873648,0.029321535,40.0,0
153347271,153347254,2228234,0.029321535,0.037873648,0.028099803,40.0,0
153449226,153449205,2228234,0.015882498,0.034208458,0.029321535,40.0,0
153546865,153546836,2228234,0.024434611,0.03909538,0.020769421,40.0,0
153747671,153747654,2228234,0.036651917,0.034208458,0.028099803,40.0,0
153948592,153948575,2228234,0.03543019,0.029321535,0.036651917,40.0,0
154047971,154047954,2228234,0.023212882,0.031764995,0.034208458,40.0,0
154246029,154246012,2228234,0.010995575,0.032986727,0.02199115,40.0,0
154348277,154348261,2228234,0.024434611,0.036651917,0.02199115,40.0,0
154447658,154447642,2228234,0.014660767,0.032986727,0.026878074,40.0,0
154648573,154648557,2228234,0.030543266,0.031764995,0.025656343,40.0,0
155347847,155347825,2228234,0.029321535,0.036651917,0.023212882,40.0,0
155545525,155545509,2228234,0.030543266,0.036651917,0.031764995,40.0,0
155648018,155648002,2228234,0.025656343,0.03543019,0.020769421,40.0,0
156048302,156048286,2228234,0.020769421,0.03543019,0.020769421,40.0,0
156448521,156448501,2228234,0.028099803,0.031764995,0.020769421,40.0,0
156548620,156548597,2228234,0.020769421,0.032986727,0.02199115,40.0,0
156644854,156644837,2228234,0.020769421,0.036651917,0.023212882,40.0,0
156946294,156946269,2228234,0.020769421,0.046425764,0.01954769,40.0,0
157047397,157047381,2228234,0.020769421,0.03543019,0.026878074,40.0,0
157149008,157148985,2228234,0.017104229,0.041538842,0.03543019,40.0,0
157646746,157646714,2228234,0.025656343,0.026878074,0.026878074,40.0,0
157748129,157748103,2228234,0.02199115,0.029321535,0.023212882,40.0,0
157849455,157849421,2228234,0.018325958,0.034208458,0.03543019,40.0,0
157948301,157948285,2228234,0.01954769,0.034208458,0.029321535,40.0,0
158649733,158649717,2228234,0.028099803,0.028099803,0.028099803,40.0,0
158747325,158747306,2228234,0.02199115,0.028099803,0.029321535,40.0,0
158947880,158947864,2228234,0.024434611,0.030543266,0.024434611,40.0,0
159847913,159847897,2228234,0.029321535,0.041538842,0.018325958,40.0,0
159948041,159948024,2228234,0.036651917,0.034208458,0.030543266,40.0,0
160146938,160146914,2228234,0.026878074,0.036651917,0.025656343,40.0,0
160648399,160648382,2228234,0.028099803,0.032986727,0.036651917,40.0,0
160748433,160748411,2228234,0.01954769,0.029321535,0.03543019,40.0,0
160846021,160846004,2228234,0.02199115,0.031764995,0.025656343,40.0,0
160948534,160948518,2228234,0.04031711,0.034208458,0.028099803,40.0,0
161048673,161048657,2228234,0.032986727,0.03543019,0.025656343,40.0,0
161248738,161248722,2228234,0.023212882,0.030543266,0.020769421,40.0,0
161348809,161348786,2228234,0.018325958,0.045204032,0.032986727,40.0,0
161446402,161446386,2228234,0.020769421,0.029321535,0.023212882,40.0,0
161547623,161547599,2228234,0.026878074,0.034208458,0.034208458,40.0,0
161646460,161646444,2228234,0.009773845,0.031764995,0.025656343,40.0,0
162144217,162144201,2228234,0.024434611,0.032986727,0.031764995,40.0,0
162248312,162248292,2228234,0.014660767,0.031764995,0.023212882,40.0,0
162347725,162347702,2228234,0.024434611,0.036651917,0.024434611,40.0,0
162447046,162447017,2228234,0.02199115,0.03909538,0.032986727,40.0,0
162545752,162545735,2228234,0.017104229,0.032986727,0.025656343,40.0,0
162648002,162647985,2228234,0.029321535,0.031764995,0.018325958,40.0,0
162747396,162747370,2228234,0.026878074,0.03543019,0.02199115,40.0,0
162847327,162847298,2228234,0.02199115,0.036651917,0.023212882,40.0,0
163047681,163047662,2228234,0.020769421,0.032986727,0.03543019,40.0,0
163348705,163348688,2228234,0.025656343,0.051312685,0.029321535,40.0,0
163448085,163448069,2228234,0.020769421,0.032986727,0.031764995,40.0,0
163648991,163648974,2228234,0.018325958,0.045204032,0.028099803,40.0,0
163747670,163747654,2228234,0.029321535,0.030543266,0.030543266,40.0,0
164047855,164047835,2228234,0.034208458,0.024434611,0.031764995,40.0,0
164147973,164147957,2228234,0.032986727,0.025656343,0.026878074,40.0,0
164547070,164547053,2228234,0.024434611,0.029321535,0.023212882,40.0,0
165244880,165244864,2228234,0.020769421,0.025656343,0.032986727,40.0,0
165647419,165647403,2228234,0.028099803,0.030543266,0.020769421,40.0,0
166648425,166648408,2228234,0.026878074,0.030543266,0.024434611,40.0,0
167149626,167149610,2228234,0.01954769,0.029321535,0.031764995,40.0,0
167249766,167249733,2228234,0.025656343,0.028099803,0.03543019,40.0,0
168049122,168049105,2228234,0.015882498,0.036651917,0.02199115,40.0,0
168346543,168346527,2228234,0.028099803,0.028099803,0.025656343,40.0,0
169148369,169148346,2228234,0.013439037,0.028099803,0.031764995,40.0,0
169445963,169445947,2228234,0.013439037,0.03543019,0.034208458,40.0,0
169548636,169548613,2228234,0.020769421,0.036651917,0.026878074,40.0,0
169648679,169648656,2228234,0.0439823,0.04031711,0.03543019,40.0,0
169948745,169948729,2228234,0.028099803,0.046425764,0.029321535,40.0,0
170046399,170046382,2228234,0.015882498,0.037873648,0.023212882,40.0,0
170144769,170144753,2228234,0.045204032,0.032986727,0.030543266,40.0,0
170247026,170247009,2228234,0.045204032,0.034208458,0.023212882,40.0,0
170348960,170348943,2228234,0.026878074,0.031764995,0.018325958,40.0,0
170446557,170446541,2228234,0.031764995,0.037873648,0.020769421,40.0,0
170649213,170649188,2228234,0.04031711,0.037873648,0.034208458,40.0,0
170746717,170746700,2228234,0.012217306,0.029321535,0.024434611,40.0,0
171447181,171447164,2228234,0.0085521145,0.032986727,0.01954769,40.0,0
171548326,171548309,2228234,0.023212882,0.048869222,0.024434611,40.0,0
171648417,171648397,2228234,0.01954769,0.03543019,0.036651917,40.0,0
171747803,171747786,2228234,0.026878074,0.036651917,0.023212882,40.0,0
171844842,171844820,2228234,0.02199115,0.025656343,0.030543266,40.0,0
171948718,171948701,2228234,0.009773845,0.047647495,0.03543019,40.0,0
172047501,172047484,2228234,0.030543266,0.031764995,0.02199115,40.0,0
172147509,172147493,2228234,0.015882498,0.020769421,0.034208458,40.0,0
172249014,172248994,2228234,0.013439037,0.036651917,0.024434611,40.0,0
172348398,172348382,2228234,0.028099803,0.036651917,0.032986727,40.0,0
172647852,172647836,2228234,0.030543266,0.036651917,0.025656343,40.0,0
173544591,173544574,2228234,0.02199115,0.031764995,0.014660767,40.0,0
173848533,173848516,2228234,0.014660767,0.037873648,0.023212882,40.0,0
173947142,173947126,2228234,0.032986727,0.034208458,0.036651917,40.0,0
174547759,174547736,2228234,0.01954769,0.028099803,0.029321535,40.0,0
174747246,174747221,2228234,0.014660767,0.032986727,0.030543266,40.0,0
174848043,174848026,2228234,0.029321535,0.034208458,0.025656343,40.0,0
174946656,174946639,2228234,0.029321535,0.034208458,0.023212882,40.0,0
175047527,175047511,2228234,0.034208458,0.031764995,0.024434611,40.0,0
175147623,175147606,2228234,0.030543266,0.028099803,0.026878074,40.0,0
175245600,175245577,2228234,0.037873648,0.041538842,0.026878074,40.0,0
175447931,175447915,2228234,0.036651917,0.037873648,0.02199115,40.0,0
175647053,175647037,2228234,0.015882498,0.04031711,0.025656343,40.0,0
175748234,175748211,2228234,0.014660767,0.024434611,0.01954769,40.0,0
175847613,175847597,2228234,0.030543266,0.03543019,0.02199115,40.0,0
176747715,176747698,2228234,0.010995575,0.048869222,0.026878074,40.0,0
176945448,176945424,2228234,0.02199115,0.024434611,0.026878074,40.0,0
177045522,177045499,2228234,0.030543266,0.04276057,0.018325958,40.0,0
177147980,177147962,2228234,0.026878074,0.024434611,0.029321535,40.0,0
177246149,177246133,2228234,0.024434611,0.051312685,0.02199115,40.0,0
177548179,177548162,2228234,0.026878074,0.028099803,0.030543266,40.0,0
177848375,177848359,2228234,0.01954769,0.03543019,0.034208458,40.0,0
177948412,177948395,2228234,0.024434611,0.036651917,0.032986727,40.0,0
178044804,178044787,2228234,0.013439037,0.029321535,0.026878074,40.0,0
178148510,178148494,2228234,0.028099803,0.037873648,0.026878074,40.0,0
178248588,178248571,2228234,0.020769421,0.034208458,0.029321535,40.0,0
178345105,178345089,2228234,0.0024434612,0.046425764,0.023212882,40.0,0
