timestamp,timestamp_sample,xyz[0],xyz[1],xyz[2]
2956237,2955381,0.0005253422,0.0044880924,-0.0013280871
2958738,2957881,0.00024702353,0.004525657,-0.0014105283
2961266,2960392,-4.3205186e-05,0.0045698257,-0.0015471483
3021257,3020406,-0.00027267993,0.004498859,-0.0018169
3023769,3022907,-0.00015952197,0.00449583,-0.0017805422
3026291,3025412,-4.2315012e-05,0.0044913148,-0.0017393492
3028776,3027908,9.04719e-05,0.0044974447,-0.0017215117
3031279,3030419,0.00023039224,0.004495453,-0.0017279107
3033762,3032908,0.00033056343,0.004472736,-0.001756911
3036265,3035412,0.00040274538,0.0044401507,-0.0018102722
3038775,3037912,0.00050285057,0.004405516,-0.0018881
3041265,3040413,0.0005735452,0.0043733614,-0.00197592
3043788,3042916,0.0005003055,0.004342758,-0.0020856378
3046300,3045417,0.00027514057,0.0042959712,-0.002213181
3048832,3047969,-1.380418e-05,0.004233625,-0.0023116013
3051280,3050419,-0.0002869219,0.0042054933,-0.002375022
3053774,3052917,-0.0005049027,0.004237543,-0.0024359692
3056268,3055418,-0.000681433,0.004309589,-0.002520388
3058784,3057921,-0.0008282998,0.0044120937,-0.0025953972
3061277,3060422,-0.0008730863,0.0045346394,-0.0026081936
3063804,3062921,-0.000790297,0.0046539316,-0.0025524925
3066295,3065425,-0.0006879726,0.00475846,-0.002445623
3068775,3067918,-0.00062043685,0.0048384797,-0.0023308636
3071405,3070450,-0.0005381729,0.0048818067,-0.0022235978
3073841,3072930,-0.00042374758,0.0048889113,-0.0020927184
3076354,3075443,-0.00030380944,0.0048732413,-0.0019281986
3078825,3077927,-0.00022573723,0.004839142,-0.0017582559
3081313,3080444,-0.00021957436,0.004789258,-0.0016198575
3083801,3082934,-0.00023647395,0.0047404175,-0.001527444
3086298,3085434,-0.00023011475,0.004681739,-0.0014750878
3088810,3087933,-0.00024812296,0.0045913775,-0.0014331698
3091319,3090434,-0.00032896432,0.0044917376,-0.0013885943
3093809,3092943,-0.00040427467,0.004420801,-0.0013693289
3096298,3095438,-0.0004148894,0.0043886364,-0.0013708877
3098837,3097935,-0.00038815927,0.004400775,-0.0013471784
3101337,3100477,-0.00038215623,0.004418631,-0.0012974597
3103810,3102937,-0.00041609394,0.0043825884,-0.0012637665
3106306,3105442,-0.00045130332,0.004306134,-0.0012595523
3108811,3107943,-0.000450968,0.0042223046,-0.0012749041
3111298,3110440,-0.00040590216,0.0041610873,-0.0012998565
3113817,3112947,-0.0003325956,0.004138986,-0.0013394901
3116300,3115445,-0.00025331444,0.0041311,-0.0013983973
3118803,3117943,-0.00019726533,0.0041327034,-0.0014496307
3121322,3120447,-0.00019458125,0.004172116,-0.0014595098
3123836,3122945,-0.00019448673,0.004253158,-0.0014241654
3126313,3125450,-0.00011727835,0.0043381136,-0.0013657864
3128806,3127947,7.8010125e-06,0.0043942514,-0.0013009683
3131309,3130451,9.837593e-05,0.0044493615,-0.0012310179
3133810,3132957,0.00016880463,0.004525646,-0.0011711874
3136310,3135453,0.00022731183,0.004583024,-0.0011513201
3148808,3147955,-0.00035319163,0.004411654,-0.0015941091
3151341,3150463,-0.00041015926,0.004441048,-0.001724726
3153847,3152991,-0.000451539,0.004476815,-0.0018336269
3156337,3155459,-0.0004706121,0.0045184847,-0.0019461657
3158810,3157957,-0.0004248125,0.0045669726,-0.0020268285
3161403,3160470,-0.00033604522,0.0046092244,-0.0020490568
3163839,3162958,-0.00025361488,0.004631322,-0.0020328127
3166333,3165466,-0.00021885979,0.004627813,-0.0019997703
3168816,3167963,-0.00023292592,0.0046138954,-0.001946684
3171326,3170465,-0.00024017482,0.004599324,-0.0018699388
3173844,3172968,-0.00024245879,0.004575854,-0.0017948186
3176326,3175467,-0.00027318392,0.004557807,-0.0017321936
3178879,3177974,-0.0003294844,0.0045736716,-0.0016708348
3181334,3180469,-0.00041031156,0.004620921,-0.0016207149
3183856,3182978,-0.0005111991,0.004679746,-0.0015942645
3186351,3185490,-0.0006138407,0.0047473162,-0.0015756288
3188865,3188002,-0.00068600976,0.0048215105,-0.0015447893
3191333,3190476,-0.0007104612,0.0048882794,-0.0014948053
3193862,3192999,-0.00069447496,0.0049222237,-0.0014325624
3196331,3195475,-0.0006555279,0.004904975,-0.0013672233
3198860,3197997,-0.0006387697,0.0048643625,-0.0013091334
3201398,3200480,-0.00066525344,0.0048385165,-0.0012852626
3203889,3203002,-0.0006944987,0.0048258207,-0.0012987226
3206340,3205483,-0.00067907583,0.004804548,-0.0013274417
3208863,3208007,-0.00063506735,0.004760491,-0.0013518436
3211338,3210481,-0.0005934064,0.0046997624,-0.0013614305
3213874,3213012,-0.0005337941,0.004651703,-0.0013548054
3216351,3215486,-0.00041662907,0.0046317237,-0.0013214255
3218919,3218017,-0.00024159843,0.004624177,-0.0012813904
3221351,3220485,-7.159947e-05,0.0046283538,-0.0012751503
3223893,3223033,5.193626e-05,0.0046414593,-0.0012979778
3226353,3225491,0.00015250273,0.004644885,-0.0013338277
3228849,3227996,0.00027232393,0.0046625603,-0.001376469
3231358,3230492,0.00044385638,0.004705209,-0.0013976907
3233851,3232997,0.0006412716,0.004729662,-0.0014101032
3236348,3235491,0.00079344364,0.004713469,-0.0014574251
3276365,3275515,-0.00019919293,0.0038641468,-0.0013702565
3278875,3278012,-0.00017436873,0.00380836,-0.0014666076
3281363,3280512,-0.0001739712,0.0037922408,-0.0016014131
3283901,3283015,-0.00017909688,0.0037851464,-0.0017410027
3286378,3285512,-0.00017255926,0.0038001712,-0.0018505604
3288874,3288013,-0.00015712234,0.0038706504,-0.0019436525
3291364,3290517,-0.0001418158,0.0039775623,-0.002023327
3293892,3293015,-0.00013328945,0.0040820227,-0.00207824
3296369,3295518,-0.00013838992,0.0041545974,-0.0021238276
3298888,3298017,-0.00015899629,0.0041929595,-0.0021661394
3301378,3300518,-0.00018812029,0.004219426,-0.0022025667
3303895,3303023,-0.00022160646,0.004244935,-0.0022328927
3306416,3305523,-0.0002522713,0.004280801,-0.0022274712
3311389,3310524,-0.0001825203,0.0043986635,-0.0020881908
3313876,3313023,-6.6166074e-05,0.0044182003,-0.0019782265
3316381,3315524,6.11906e-05,0.0043925457,-0.0018744703
3318885,3318025,0.00019933967,0.004334834,-0.0018065366
3321398,3320529,0.00035767292,0.004261603,-0.0017697836
3323916,3323038,0.00047258186,0.0041926126,-0.0017559319
3326385,3325531,0.0004799807,0.0041305614,-0.001772978
3328886,3328029,0.0004124716,0.004072749,-0.001820567
3331389,3330533,0.00031993358,0.004036276,-0.0018796041
3333889,3333031,0.00024017395,0.004042626,-0.0019179683
3336383,3335532,0.00023568177,0.0040835757,-0.0019166954
3338892,3338033,0.00032983394,0.0041315067,-0.001877827
3341395,3340534,0.0004976733,0.0041708797,-0.0018039835
3343911,3343039,0.0007218513,0.004199084,-0.0017217963
3346389,3345539,0.0009374886,0.004232863,-0.0016654248
3348896,3348037,0.0010574785,0.004303427,-0.0016550194
3351406,3350541,0.0010737798,0.0044073467,-0.0016828557
3353898,3353039,0.0009975312,0.0045057717,-0.0017158102
3356427,3355560,0.0008303341,0.004572668,-0.0017380486
3358915,3358042,0.0005772403,0.004589261,-0.001753422
3361416,3360542,0.00024978002,0.004557897,-0.0017715831
3363913,3363047,-0.00010554871,0.0045109307,-0.0017630433
3366422,3365555,-0.00043978146,0.004468821,-0.0017115249
3368904,3368045,-0.0007331572,0.004422452,-0.001661715
3371403,3370547,-0.0009613147,0.004358222,-0.0016248289
3373907,3373048,-0.0010775437,0.0042771352,-0.0015835677
3376407,3375553,-0.0010615231,0.004168089,-0.0015471824
3378908,3378050,-0.00092205696,0.0040304065,-0.0015307395
3381423,3380551,-0.0006986585,0.0039065937,-0.0015345041
3383934,3383056,-0.0004612803,0.003835981,-0.0015550777
3386421,3385568,-0.00023230998,0.003818031,-0.0015951215
3388923,3388054,1.813125e-06,0.0038275605,-0.0016458384
3391411,3390564,0.00023406764,0.0038483748,-0.0016902483
3393915,3393056,0.00044487364,0.0038837534,-0.0017407526
3396403,3395553,0.0005936698,0.0039362465,-0.0018047029
3398959,3398058,0.00064399606,0.0040044934,-0.0018440168
3401430,3400559,0.00060888065,0.0040847897,-0.0018374377
3403936,3403064,0.0005083747,0.0041545164,-0.0017956011
3406426,3405571,0.0003400817,0.004201715,-0.0017318507
3408955,3408080,0.00012218325,0.0042327885,-0.0016607015
3413939,3413064,-0.00030196525,0.0043123,-0.0015146945
3416439,3415565,-0.00043042336,0.004385402,-0.0014829912
3418924,3418066,-0.0005368259,0.004457151,-0.0014917802
3421440,3420578,-0.0006331989,0.004524493,-0.0015283072
3423937,3423072,-0.0006773486,0.004567219,-0.0015640821
3426422,3425572,-0.00066009833,0.0045879064,-0.0015925344
3428929,3428070,-0.0006105172,0.0045987726,-0.0016145458
3431422,3430571,-0.0005258537,0.0046173735,-0.0016318406
3433941,3433072,-0.0003857645,0.0046502813,-0.001655065
3436440,3435581,-0.00021990077,0.004694861,-0.0016852571
3438951,3438076,-8.693937e-05,0.0047529014,-0.0017128172
3441481,3440598,-1.4519111e-05,0.0047982056,-0.0017216924
3443945,3443080,1.194298e-05,0.0048237257,-0.0017225067
3446434,3445584,-8.393048e-06,0.00482736,-0.0017543521
3483965,3483099,-0.0011804511,0.004049996,-0.0019132751
3486444,3485594,-0.0009773739,0.0040350463,-0.0018059686
3488962,3488095,-0.0007305587,0.00402944,-0.0017226359
3491457,3490610,-0.00046589947,0.004010886,-0.001666692
3493986,3493124,-0.00020395842,0.0039708484,-0.001629813
3496472,3495607,4.096434e-05,0.00392248,-0.0016287545
3499012,3498101,0.00023681742,0.003863303,-0.0016675254
3501488,3500602,0.0003249075,0.0038383366,-0.0017105676
3503961,3503102,0.00028894312,0.0038868892,-0.0017592035
3506452,3505605,0.00018612374,0.0039707655,-0.0018178159
3508956,3508103,6.437802e-05,0.0040516024,-0.0018513948
3511463,3510604,-4.138236e-05,0.004112341,-0.0018604631
3513967,3513105,-7.605311e-05,0.0041469047,-0.0018686604
3516477,3515606,-5.5579676e-05,0.004165357,-0.0018705145
3518960,3518107,-5.0749637e-05,0.004199131,-0.0018598615
3521492,3520612,-5.345883e-05,0.0042531043,-0.0018366246
3523976,3523109,-2.1602218e-05,0.004296717,-0.0017888237
3526465,3525613,3.762718e-05,0.0043343413,-0.0017192619
3528964,3528111,0.00010719851,0.0043717595,-0.0016418664
3531469,3530619,0.00018143927,0.0043991343,-0.0015699037
3533967,3533114,0.0002387902,0.004420188,-0.001510838
3536481,3535624,0.00023500816,0.0044149235,-0.001452653
3538986,3538117,0.00016502035,0.004359684,-0.0013760414
3541476,3540620,7.6483746e-05,0.0042633666,-0.0012913911
3543975,3543120,-1.0883958e-05,0.0041529853,-0.0012280603
3546557,3545653,-0.00010754009,0.0040575415,-0.001184129
3548972,3548119,-0.00022186567,0.0039888006,-0.0011668971
3551470,3550621,-0.00034580412,0.0039391955,-0.001188856
3553975,3553122,-0.00046836105,0.003883294,-0.0012200505
3556470,3555623,-0.00059091777,0.0038052455,-0.0012298475
3558991,3558124,-0.0007267373,0.0037158036,-0.0012278064
3561496,3560628,-0.0008954661,0.0036288043,-0.001250774
3563983,3563126,-0.0010614761,0.0035629396,-0.0013054655
3571476,3570629,-0.0010264907,0.0036480734,-0.0014688058
3573989,3573130,-0.0008570814,0.0037274281,-0.0015096033
3576481,3575634,-0.0007110066,0.003791588,-0.0015388282
3579009,3578139,-0.0006281935,0.0038331538,-0.0015577422
3581487,3580637,-0.00059059716,0.0038632134,-0.0015678601
3583988,3583134,-0.00057401095,0.003882435,-0.0015669754
3586488,3585635,-0.00059013854,0.0038933074,-0.0015743267
3588989,3588136,-0.0006598126,0.003920532,-0.001598822
3591531,3590640,-0.0007366012,0.003989335,-0.0016185034
3593991,3593138,-0.0007607987,0.0041084015,-0.0016257841
3596489,3595639,-0.0007415031,0.0042529767,-0.0016356759
3599024,3598147,-0.0006906055,0.004395566,-0.0016650965
3631524,3630674,0.0007384599,0.004106592,-0.0019451249
3634023,3633166,0.0006680491,0.004166576,-0.0020025475
3636506,3635656,0.000565937,0.0042184326,-0.002058676
3639037,3638159,0.00044158316,0.004241809,-0.002087012
3641524,3640670,0.00028515497,0.0042426987,-0.002086639
3644020,3643159,9.111827e-05,0.0042367307,-0.0020698623
3646510,3645660,-0.00013707399,0.0042329803,-0.0020312995
3649014,3648161,-0.00038702704,0.004229077,-0.0019844573
3684034,3683180,-0.0010967894,0.0037964624,-0.0014273146
3686551,3685687,-0.0010388548,0.003800953,-0.001458063
3689032,3688178,-0.00091191696,0.0038396697,-0.0014909947
3691549,3690680,-0.0007628492,0.003912282,-0.0014962786
3694033,3693179,-0.0006575023,0.003991429,-0.0014765752
3696530,3695683,-0.00058729784,0.004053892,-0.0014442224
3699083,3698203,-0.0005167217,0.004075054,-0.001425544
3701533,3700682,-0.00046046008,0.0040517515,-0.001444675
3704053,3703183,-0.00041882385,0.004000882,-0.0014988651
3706542,3705694,-0.00036802678,0.003943069,-0.0015765319
3709085,3708217,-0.00030114426,0.0039006807,-0.0016605789
3711542,3710687,-0.00023133412,0.0038690064,-0.0017500897
3714047,3713187,-0.00018129926,0.0038601758,-0.0018535682
3716545,3715698,-0.00013107227,0.003887224,-0.0019553252
3719081,3718202,-6.655278e-05,0.003927984,-0.0020277135
3721537,3720687,-1.7640908e-05,0.0039714966,-0.0020655948
3724047,3723192,1.4870084e-05,0.0040184697,-0.0020757522
3726542,3725695,3.5058514e-05,0.0040721307,-0.0020622974
3729062,3728194,3.3682416e-05,0.004112554,-0.0020412742
3731544,3730695,3.845703e-05,0.0041167997,-0.0020343845
3734051,3733196,4.8370806e-05,0.0041083205,-0.002050843
3736676,3735751,2.2118484e-05,0.0041289763,-0.0020882143
3739081,3738201,-2.5799787e-05,0.0042010075,-0.0021379432
3741586,3740710,-4.9867314e-05,0.0042924527,-0.0021949958
3744071,3743206,-5.5099117e-05,0.004369248,-0.0022503827
3746551,3745701,-6.767678e-05,0.004444118,-0.0022671032
3749067,3748202,-7.517224e-05,0.0045151133,-0.0022251618
3751558,3750711,-7.1731134e-05,0.004553971,-0.0021560085
3754064,3753204,-6.59252e-05,0.004552029,-0.00208712
3756560,3755710,-5.38804e-05,0.004530653,-0.0020135937
3759081,3758210,-4.90529e-05,0.004518035,-0.0019276389
3761553,3760702,-6.01317e-05,0.004537924,-0.0018404592
3764076,3763208,-8.265675e-05,0.0045814067,-0.0017615026
3766564,3765715,-0.00011884495,0.0046080826,-0.0016853083
3769087,3768230,-0.00016247337,0.004615633,-0.0016086003
3771558,3770708,-0.00021170343,0.0046366635,-0.0015384126
3774082,3773212,-0.00026364246,0.004658018,-0.0014646025
3776565,3775719,-0.00028909708,0.004648217,-0.001372681
3779083,3778218,-0.000285562,0.00460852,-0.0012718203
3781582,3780730,-0.0002595535,0.004546539,-0.0011772478
3784077,3783216,-0.00019513415,0.004489349,-0.0011076268
3786577,3785730,-0.00011437133,0.004456095,-0.0010660695
3789079,3788218,-4.6894304e-05,0.0044231247,-0.0010351659
3791586,3790733,7.711725e-06,0.0043597487,-0.0010026859
3794076,3793221,5.941373e-05,0.0042720805,-0.0009916021
3796620,3795744,0.0001398867,0.0042112023,-0.0010191727
3799093,3798233,0.0002493358,0.004200946,-0.0010541918
3801601,3800743,0.00033527927,0.004222696,-0.0010937781
3804080,3803226,0.00037276035,0.0042631575,-0.0011534374
3806602,3805744,0.0003940721,0.004309508,-0.0012138862
3809087,3808233,0.00040694381,0.004344658,-0.0012651758
3811601,3810748,0.00035792185,0.0043700673,-0.0013190932
3814099,3813232,0.000241325,0.0044116173,-0.0013830262
3816649,3815753,0.000106235195,0.0044797687,-0.0014400543
3819120,3818246,-1.560146e-05,0.004546555,-0.0014705202
3821585,3820730,-0.00012436902,0.004582245,-0.0014954002
3824090,3823237,-0.00021319816,0.0045942087,-0.0015511517
3826613,3825763,-0.0002571476,0.004606394,-0.0016386583
3829112,3828244,-0.00027469505,0.004624429,-0.0017423404
3831653,3830791,-0.00030041387,0.0046147434,-0.0018539454
3834114,3833250,-0.0003138438,0.0045593474,-0.0019575746
3836609,3835745,-0.0002665939,0.00449434,-0.0020442829
3839118,3838248,-0.00015349379,0.0044256872,-0.0021100491
3841609,3840754,-2.7357355e-05,0.004345986,-0.0021371397
3844116,3843250,8.881633e-05,0.004269844,-0.0021251296
3846599,3845749,0.00019497097,0.0042127436,-0.0020843386
3849111,3848243,0.00025598798,0.0041879937,-0.0020193509
3851601,3850754,0.00026258678,0.0041772937,-0.0019437731
3854115,3853259,0.00021958785,0.004167885,-0.001862634
3856616,3855753,0.000104684266,0.0041668154,-0.0017953552
3859117,3858251,-8.258615e-05,0.004159274,-0.001754979
3861624,3860766,-0.00029667286,0.004135342,-0.0017214831
3864122,3863251,-0.0005079389,0.0040979814,-0.0016932602
3866607,3865750,-0.0006905926,0.004042956,-0.001655088
3869112,3868254,-0.00081617606,0.0039704605,-0.0015913981
3871612,3870752,-0.0009017009,0.003894235,-0.0015329446
3874157,3873258,-0.0009445717,0.0038354574,-0.0015005008
3876676,3875754,-0.00093471416,0.0038096998,-0.0014966906
3879126,3878259,-0.00089015206,0.0038187816,-0.0015052712
3881616,3880757,-0.0008204861,0.0038451569,-0.0014916359
3884131,3883269,-0.0007427183,0.003871937,-0.0014596224
3886615,3885759,-0.0006854079,0.0039047084,-0.001433054
3889126,3888262,-0.0006594912,0.0039638025,-0.0014055048
3891615,3890760,-0.00066092436,0.004042548,-0.0013760275
3894141,3893277,-0.00069646916,0.004109613,-0.0013680686
3896636,3895762,-0.000748075,0.0041656513,-0.0013764607
3899133,3898267,-0.0007787865,0.0042304536,-0.0013623848
3901630,3900765,-0.00081021176,0.0043101916,-0.0013256443
3904135,3903266,-0.00085323496,0.0043971203,-0.0013146787
3951672,3950795,-0.0003838363,0.004094674,-0.0014899654
3954151,3953292,-0.00040982536,0.004058659,-0.0014816894
3956663,3955801,-0.00044851034,0.0040375777,-0.0014354902
3959164,3958287,-0.00047090632,0.004010266,-0.0013564317
3961642,3960790,-0.00046097144,0.0039754123,-0.0012566835
3964173,3963304,-0.00042928726,0.003963616,-0.001143687
3966650,3965792,-0.0003913437,0.0039938325,-0.0010337965
4009165,4008311,-0.0001228505,0.0041924687,-0.0014035603
4011701,4010846,-0.00013660976,0.004177001,-0.0013337339
4016691,4015817,-0.00013814097,0.004193812,-0.0012372049
4019248,4018317,-0.00012280686,0.0041999365,-0.0012438509
4021682,4020817,-9.250814e-05,0.00419401,-0.0012513987
4024200,4023339,-6.169638e-05,0.0041833557,-0.0012607935
4026681,4025823,2.76621e-06,0.0041612177,-0.0013079908
4029183,4028324,0.00010337941,0.0041442206,-0.0014099424
4031674,4030818,0.00020314896,0.0041531697,-0.0015453959
4034196,4033322,0.0002899519,0.0041766893,-0.0016578385
4036681,4035824,0.0003636453,0.0042034225,-0.0017071449
4039177,4038324,0.00040454738,0.004238917,-0.0017153111
4041697,4040823,0.0003962446,0.004267196,-0.0017190169
4044191,4043332,0.00032482826,0.0042554215,-0.0017360293
4046685,4045828,0.00018538527,0.0042184573,-0.0017747352
4049183,4048328,2.5980808e-06,0.0042057857,-0.001821092
4051684,4050829,-0.00019570455,0.004209424,-0.0018465935
4054194,4053328,-0.00038301141,0.0041983137,-0.0018511276
4056700,4055832,-0.0005452384,0.0041767475,-0.0018476506
4059185,4058332,-0.0006865909,0.0041478276,-0.0018585597
4061688,4060833,-0.000819915,0.004109608,-0.0019047138
4064193,4063340,-0.0009489085,0.004067664,-0.0019635672
4066703,4065836,-0.0010439974,0.004030484,-0.002004141
4069187,4068334,-0.0010798381,0.004017756,-0.0020033708
4071705,4070844,-0.0010614104,0.0040293424,-0.001956551
4074215,4073338,-0.0010038877,0.004045172,-0.0018822073
4076712,4075848,-0.00090907793,0.00407142,-0.0017952977
4079193,4078341,-0.00078414596,0.004106309,-0.0017159433
4081691,4080839,-0.0006408822,0.0041281627,-0.0016451228
4099212,4098349,0.00093809044,0.0042950558,-0.0011169951
4101698,4100849,0.0010644234,0.0043320637,-0.0011019497
4104207,4103348,0.0010864858,0.0043217987,-0.001124277
4106700,4105852,0.0009950713,0.004266158,-0.0011769133
4109230,4108353,0.0008192838,0.0042138826,-0.0012234257
4111765,4110854,0.00057158305,0.004210994,-0.0012301776
4114234,4113355,0.00024661428,0.0042677205,-0.0011907921
4116754,4115857,-0.00012372129,0.0043619205,-0.0011412231
4119210,4118357,-0.0005008231,0.004459014,-0.0010988961
4121705,4120858,-0.0008721159,0.0045408,-0.001055954
4124221,4123359,-0.0012276244,0.0045998218,-0.0010322894
4126722,4125858,-0.0015439806,0.004637927,-0.0010483812
4129242,4128380,-0.0018293968,0.004683961,-0.0010914216
4131725,4130869,-0.002122295,0.0047307652,-0.0011314218
4134256,4133363,-0.0024096551,0.004730682,-0.0011615523
4136727,4135865,-0.002626343,0.004696141,-0.0011934693
4139217,4138364,-0.002706489,0.0046643172,-0.0012186735
4141713,4140863,-0.0026226337,0.004632529,-0.0012261597
4144249,4143368,-0.0024133222,0.004593757,-0.0012318137
4161764,4160872,-0.00068000244,0.0043316092,-0.0013089522
4164251,4163376,-0.00056271453,0.004343313,-0.0013629098
4166725,4165877,-0.00041121617,0.0043646814,-0.0013579038
4169235,4168378,-0.00028799573,0.0043743514,-0.001299838
4171734,4170876,-0.00023047114,0.004367463,-0.0012527199
4174277,4173388,-0.00019685454,0.004355899,-0.00124362
4176739,4175887,-0.00014903708,0.004329653,-0.0012541325
4179245,4178383,-8.060461e-05,0.0042937445,-0.0012813674
4181738,4180891,2.2098407e-05,0.004264121,-0.0013194305
4184255,4183384,0.00017641445,0.004220055,-0.0013538607
4186733,4185882,0.0003661148,0.004142879,-0.0013713656
4189251,4188383,0.0005647335,0.0040502204,-0.001366242
4191731,4190884,0.0007408201,0.003981173,-0.0013525106
4194296,4193404,0.0008757018,0.0039499532,-0.0013607927
4196752,4195890,0.0009946999,0.003925171,-0.0014098412
4199269,4198389,0.0010616025,0.0038908278,-0.0014797839
4201735,4200889,0.0010197303,0.003882333,-0.0015434168
4204273,4203392,0.00092459645,0.003915068,-0.0015976769
4206740,4205892,0.00082560227,0.003960398,-0.0016391072
4209304,4208394,0.000695993,0.00399739,-0.0016517186
4211796,4210893,0.0005334652,0.004029717,-0.0016377587
4214318,4213440,0.00037401853,0.004052289,-0.0016329389
4216748,4215896,0.00026039674,0.004066552,-0.0016485768
4219267,4218406,0.00019885824,0.0040740315,-0.0016538706
4221755,4220908,0.00013736256,0.0040515466,-0.0016294911
4224272,4223401,6.385888e-05,0.0040135747,-0.0015858738
4229288,4228403,2.3398012e-05,0.003984712,-0.00153963
4231748,4230901,2.9035411e-05,0.003975603,-0.0015316642
4234295,4233415,5.56972e-05,0.0039820354,-0.0015164388
4236759,4235907,6.98936e-05,0.0040123444,-0.0015042922
4239265,4238407,4.9495295e-05,0.0040212744,-0.0014991096
4241757,4240905,1.1481906e-05,0.003974566,-0.0015197655
4244278,4243408,-5.2674324e-05,0.0038881968,-0.0015835483
4246764,4245908,-0.000121518045,0.0038041912,-0.001677801
4249268,4248411,-0.00017070345,0.0037382026,-0.0017768355
4251756,4250909,-0.00022548431,0.0036759344,-0.001852704
4254296,4253414,-0.00029732712,0.0036285918,-0.0018854747
4309309,4308435,0.0006207867,0.0043790475,-0.0007948143
4311827,4310942,0.0007274592,0.004337645,-0.0007525785
4314352,4313488,0.00076574454,0.00428786,-0.0007206616
4316841,4315947,0.00074482354,0.004227158,-0.00069778936
4319342,4318469,0.0006538644,0.004159682,-0.0006649392
4321787,4320941,0.0005222908,0.0041164826,-0.00062936416
4324316,4323442,0.0003673107,0.004107767,-0.00063408277
4326807,4325940,0.00018708117,0.004096856,-0.0006922376
4329310,4328441,9.657655e-06,0.00406437,-0.0007749678
4331813,4330942,-0.00014561668,0.0040091015,-0.0008534679
4334326,4333451,-0.00025199715,0.0039518257,-0.0009273669
4336841,4335946,-0.00030072738,0.0039233635,-0.0009954367
4339320,4338454,-0.0003072976,0.003920742,-0.0010528495
4341803,4340946,-0.0002737338,0.003938264,-0.0011188957
4344324,4343450,-0.00021676798,0.003972081,-0.0012005715
4346823,4345952,-0.00015318354,0.0040281345,-0.0012773302
4349360,4348455,-0.00011566826,0.004118118,-0.0013455615
4351849,4350980,-0.00013493314,0.0042304015,-0.0014110473
4354342,4353466,-0.0001568651,0.0043340586,-0.0014649411
4356844,4355953,-0.00012159107,0.004409339,-0.0014979261
4359345,4358459,-5.6974706e-05,0.0044827554,-0.0015255786
4361801,4360954,-1.2355645e-05,0.0045527522,-0.0015608523
4364356,4363459,3.4810262e-06,0.004582201,-0.0015980711
4366811,4365960,-5.3440467e-06,0.004568761,-0.0016468577
4369315,4368452,-5.486636e-05,0.004532216,-0.0017083506
4371842,4370956,-0.00014250554,0.0045024576,-0.0017673708
4389344,4388473,-0.0005039729,0.0042701145,-0.0016086986
4391845,4390977,-0.00048544325,0.0042201676,-0.0015935563
4394373,4393495,-0.00047201803,0.0041645183,-0.0015815186
4396829,4395978,-0.0004643455,0.004129341,-0.0015631886
4399353,4398478,-0.00046982692,0.00412108,-0.0015324557
4401820,4400973,-0.00048797586,0.0041370597,-0.0015074881
4404376,4403511,-0.0005137727,0.0041531394,-0.0015336655
4406828,4405977,-0.0005337717,0.0041256426,-0.0015932957
4409354,4408489,-0.00053661107,0.0040657073,-0.0016197902
4411914,4410998,-0.0005153767,0.004042944,-0.0016173952
4414379,4413506,-0.00048443297,0.004075652,-0.001632366
4416874,4415981,-0.0004876532,0.004114555,-0.0016660447
4419362,4418498,-0.0005479033,0.004144162,-0.0016954608
4421826,4420979,-0.0006443392,0.0041714497,-0.0017232453
4424380,4423509,-0.00076555344,0.0041819485,-0.001768539
4429395,4428512,-0.0010032585,0.004192036,-0.0018915858
4431874,4431001,-0.0010665434,0.004218513,-0.0019249087
4434385,4433520,-0.0011146452,0.0042288466,-0.0019234275
4436893,4435996,-0.001160438,0.0041885935,-0.0018943339
4439387,4438528,-0.0011933148,0.004109227,-0.0018639376
4441834,4440987,-0.0012188636,0.004046409,-0.001847408
4444362,4443498,-0.0012688992,0.0040305043,-0.0018078088
4446854,4445993,-0.0013458078,0.0040386887,-0.0017230854
4449386,4448498,-0.001415995,0.0040425174,-0.0016279106
4451870,4451010,-0.0014499666,0.0040508644,-0.0015467062
4454378,4453512,-0.0014482411,0.0040699295,-0.001473456
4484379,4483505,-0.00018865662,0.0045613362,-0.0014325039
4486859,4486010,-3.6832076e-05,0.0045647873,-0.0014190631
4489418,4488530,0.000115649105,0.004517406,-0.0014069115
4491874,4491012,0.00023169037,0.004435923,-0.0014207701
4494383,4493512,0.0003155699,0.004377624,-0.0014525249
4496911,4496014,0.00037965731,0.0043558357,-0.0014510383
4499391,4498526,0.00040460215,0.0043525016,-0.0013986106
4501868,4501022,0.00037157658,0.004356773,-0.0013428131
4504402,4503516,0.00030960876,0.0043861982,-0.0013243601
4506869,4506018,0.000280288,0.004430095,-0.0013386483
4509398,4508516,0.00030634113,0.0044362284,-0.0013522969
4511902,4511035,0.0003665993,0.0044017048,-0.0013371821
4514402,4513532,0.000452992,0.004369447,-0.001314996
4516919,4516021,0.00056469056,0.004343504,-0.0013224526
4519375,4518520,0.0006537074,0.004331914,-0.0013634353
4521878,4521021,0.00069089246,0.0043661,-0.0014330494
4524388,4523522,0.00068864494,0.0044359034,-0.001528536
4526873,4526025,0.0006423821,0.004495954,-0.0016218359
4529401,4528526,0.00053604424,0.004525857,-0.0016843437
4531879,4531029,0.00038547773,0.004562145,-0.0017417503
4534392,4533526,0.00022166941,0.0046272874,-0.0018214526
4536926,4536033,2.9196868e-05,0.0046971333,-0.0018894135
4539398,4538528,-0.00020780435,0.0047382186,-0.0019055759
4541877,4541030,-0.0004362489,0.0047451863,-0.0018660688
4544398,4543540,-0.00059894176,0.004739821,-0.0017890683
4546883,4546035,-0.0007023184,0.004729354,-0.0017105425
4549431,4548533,-0.00075921434,0.004719787,-0.0016607896
4551898,4551045,-0.0008082863,0.0046959235,-0.0016311703
4574463,4573582,-0.0006802662,0.0039912895,-0.0015057721
4576904,4576054,-0.00058580516,0.0039686905,-0.0015252372
4579406,4578545,-0.00048157485,0.003955488,-0.001535228
4581892,4581046,-0.00038356462,0.0039615924,-0.0015467549
4584411,4583549,-0.00026128985,0.0039983774,-0.0015534315
4586903,4586047,-0.00010504368,0.0040534576,-0.0015435825
4589444,4588549,2.8553917e-05,0.0041032187,-0.0015336103
4591904,4591053,0.000113548,0.0041456665,-0.0015240972
4594424,4593561,0.00018247636,0.0041970704,-0.0014943102
4596909,4596055,0.00026003507,0.004258832,-0.001453168
4599436,4598561,0.0003141804,0.0043449327,-0.0014259525
4601921,4601067,0.00032907198,0.004466629,-0.0014195688
4604427,4603558,0.0003396538,0.004598269,-0.0014336734
4606914,4606059,0.00031725626,0.0047119223,-0.0014582684
4614441,4613565,-0.00015341345,0.0048475587,-0.0014245175
4616920,4616069,-0.00029825396,0.0048553506,-0.0014092159
4619453,4618575,-0.00039034564,0.0048285075,-0.001408112
4621920,4621062,-0.0004954014,0.004777955,-0.0014249455
4624423,4623563,-0.0006385351,0.004718478,-0.0014512294
4626982,4626121,-0.00075141364,0.004639051,-0.0014933154
4629456,4628579,-0.0008289141,0.004534341,-0.0015657127
4631921,4631070,-0.0008865309,0.004415809,-0.0016745467
4634432,4633570,-0.00088215736,0.0043132347,-0.0018152681
4636959,4636071,-0.0008297283,0.004236142,-0.001954924
4639441,4638569,-0.0007632372,0.0041644755,-0.00205519
4641927,4641070,-0.0006890745,0.0040835827,-0.0021168627
4704449,4703596,0.00034314065,0.0040092557,-0.0020239044
4706978,4706103,0.000100035446,0.0040199286,-0.0020096018
4709499,4708619,-9.987279e-05,0.0040306933,-0.0019505313
4712021,4711157,-0.00024412789,0.0040344517,-0.0018956932
4714460,4713603,-0.00032993068,0.004020325,-0.0018832765
4717002,4716101,-0.00035039603,0.0040259464,-0.0019120688
4719458,4718603,-0.00032365005,0.004053448,-0.0019553355
4721950,4721103,-0.0002575122,0.004049435,-0.0019807336
4724461,4723604,-0.00014300374,0.004003538,-0.001975349
4726957,4726108,-6.028331e-06,0.0039467104,-0.0019384071
4729489,4728610,7.799996e-05,0.0039127744,-0.0018955477
4731977,4731111,6.6468514e-05,0.0039148764,-0.0018756972
4734468,4733611,-2.3716013e-05,0.0039346954,-0.0018696996
4737009,4736121,-0.00016918193,0.003963565,-0.0018580874
4739478,4738611,-0.00031778836,0.0040077,-0.0018211706
4741958,4741112,-0.0004362607,0.004046342,-0.001770268
4744474,4743613,-0.00055594585,0.004057916,-0.0017344541
4746982,4746118,-0.0006834096,0.0040747346,-0.0017043848
4749488,4748619,-0.00079819746,0.004114927,-0.0016626831
4751969,4751120,-0.0009051127,0.0041405526,-0.0016169831
4754475,4753619,-0.0009847644,0.0041356385,-0.0015754054
4757010,4756118,-0.0009937455,0.004108526,-0.0015335105
4759476,4758619,-0.000936677,0.0040739174,-0.0014999689
4761967,4761120,-0.000845618,0.004064734,-0.0014821608
4764482,4763629,-0.0007429894,0.0040830835,-0.0014655679
4777019,4776126,-0.000542089,0.0042489422,-0.0014116
4779483,4778627,-0.0005417463,0.004344947,-0.0013939582
4781977,4781128,-0.0005089325,0.004447003,-0.0013751371
4784484,4783629,-0.00042037203,0.00452483,-0.0013469247
4787001,4786132,-0.0002966096,0.0045604645,-0.0012960534
4789496,4788635,-0.0001810384,0.0045708152,-0.0012391867
4791992,4791136,-8.7687295e-05,0.00457127,-0.0011896458
4794503,4793636,4.8882066e-06,0.0045481347,-0.0011460474
4797037,4796136,5.5216537e-05,0.004493051,-0.0011134414
4799511,4798640,1.4968787e-05,0.00443927,-0.0010881415
4801983,4801137,-0.00011629592,0.004421055,-0.0010653022
4804504,4803638,-0.00033301304,0.004433618,-0.0010588664
4807014,4806142,-0.0005915992,0.0044474965,-0.0010840673
4809500,4808643,-0.00086105906,0.004442319,-0.0011421978
4812038,4811144,-0.0011237396,0.0044291653,-0.0012231113
4814532,4813647,-0.0013281954,0.0044238567,-0.0013092627
4817038,4816146,-0.0014499186,0.004403884,-0.0013891105
4819496,4818644,-0.0015022655,0.004351738,-0.0014586649
4821996,4821145,-0.001534324,0.0042949175,-0.001510457
4824523,4823649,-0.0015686105,0.00424871,-0.0015541388
4827022,4826151,-0.001568167,0.004219272,-0.0016024385
4829531,4828665,-0.0015425629,0.0042214794,-0.0016482583
4831999,4831153,-0.0015172042,0.0042351307,-0.0016856415
4834516,4833657,-0.0014760591,0.0042235134,-0.00174157
4837058,4836157,-0.0013998451,0.004188454,-0.0018367532
4839505,4838652,-0.0012771857,0.0041338485,-0.001933571
4842000,4841153,-0.001123306,0.004040213,-0.002001687
4844528,4843657,-0.00097159273,0.0039253826,-0.0020520985
4854513,4853660,-0.0006193957,0.0039014788,-0.0022499682
4857048,4856168,-0.000570817,0.0039847405,-0.0022330892
4859516,4858660,-0.0005119731,0.004096544,-0.00218702
4862008,4861162,-0.00047171538,0.0042150943,-0.0021286227
4864515,4863663,-0.00042511232,0.004314608,-0.0020693424
4867043,4866166,-0.00035973638,0.0044035036,-0.0020215453
4869531,4868671,-0.00030117924,0.0044951374,-0.0019815068
4872038,4871175,-0.00023862315,0.004568681,-0.0019441769
4874526,4873669,-0.00016580698,0.0046172068,-0.0019126732
4877070,4876170,-9.005811e-05,0.0046683894,-0.0018717402
4879537,4878669,-9.196545e-06,0.004720714,-0.0018178273
4882021,4881170,5.717156e-05,0.004746481,-0.0017693199
4892032,4891181,0.0012550113,0.004520769,-0.0017178935
4894534,4893678,0.0014783717,0.0044785906,-0.0016076178
4897086,4896182,0.0012667823,0.00444646,-0.0014979094
4899546,4898677,0.00076555484,0.004370469,-0.0013896436
4902064,4901204,0.00016095868,0.0043226643,-0.0012816386
4904535,4903679,-0.000466293,0.0043488173,-0.001220997
4907061,4906194,-0.0011369194,0.0043847635,-0.001186989
4909556,4908691,-0.0016819949,0.0044675935,-0.0011884412
4912070,4911194,-0.0019231061,0.00457878,-0.001200808
4914539,4913686,-0.0019850829,0.0046653193,-0.0010309366
4917076,4916184,-0.001980829,0.004670167,-0.00073582924
4919550,4918685,-0.0017757236,0.0046005966,-0.0006037982
4922034,4921187,-0.0011928638,0.004536076,-0.00071303884
4927076,4926205,0.00042740372,0.004384353,-0.0014142122
4929572,4928706,0.001025881,0.004415755,-0.0017658154
4932037,4931191,0.0012432777,0.0045393202,-0.0020622297
4934638,4933768,0.0011547736,0.004711707,-0.0024162126
4937092,4936196,0.0010750539,0.0048193973,-0.0028399657
4939590,4938693,0.0009378978,0.0047517656,-0.003043504
4942046,4941197,0.0007311269,0.0045686876,-0.002841491
4944584,4943696,0.00063010206,0.004384434,-0.0025606651
4947076,4946210,0.0005543757,0.004278094,-0.0024515057
4949555,4948698,0.00024712383,0.0042946236,-0.002386485
4952059,4951202,-0.00023780928,0.0044461736,-0.0022277236
4954570,4953711,-0.0006787629,0.0047303718,-0.001988188
4957109,4956209,-0.0009651009,0.005037309,-0.0017898558
5024595,5023729,-0.0007881207,0.0045220065,-0.00078892667
5027117,5026255,-0.00061837095,0.004285061,-0.0009885099
5029598,5028732,-0.00059980847,0.003965791,-0.0011889483
5032124,5031268,-0.000774216,0.0036539189,-0.0013759725
5034589,5033733,-0.00082538824,0.0034434407,-0.0015025865
5037161,5036265,-0.00065611594,0.0033463761,-0.0014953448
5039611,5038755,-0.0004971784,0.0033801522,-0.0013840712
5042127,5041265,-0.00043917325,0.003533484,-0.0012476064
5044613,5043737,-0.00025893407,0.0037875117,-0.0011032331
5047120,5046260,-1.6146903e-05,0.0040944903,-0.0010256697
5049604,5048745,0.00010278679,0.004347722,-0.0011134753
5052106,5051256,0.00012077213,0.004529595,-0.0012914131
5054606,5053747,0.000121021774,0.004628606,-0.0015572768
5057137,5056252,0.00016889973,0.004648045,-0.0019237752
5072135,5071276,-0.00020315302,0.0051203663,-0.0012634402
5074615,5073749,-0.00021636228,0.004801154,-0.00091066596
5077149,5076260,-3.5907146e-05,0.004313438,-0.0007155729
5079619,5078752,0.00026555065,0.0038525187,-0.00071689556
5082109,5081255,0.00051442836,0.0035257556,-0.00083876686
5084630,5083753,0.0006706356,0.0034268764,-0.0010969766
5087120,5086258,0.0006733903,0.0035959203,-0.0013240832
5089628,5088769,0.0006333282,0.0039332593,-0.0014408682
5092125,5091261,0.00060024264,0.004178117,-0.0016669924
5094623,5093767,0.00028906608,0.004305494,-0.0019591302
5097163,5096261,-0.00019534973,0.0044752336,-0.0020395492
5109636,5108764,-0.0014331639,0.0045242,-0.001192285
5112121,5111268,-0.0016943438,0.0042397203,-0.001077435
5114650,5113766,-0.0019300459,0.0039770966,-0.001079437
5117200,5116283,-0.0021488315,0.0039064297,-0.0011192384
5119673,5118771,-0.002285412,0.004031933,-0.0011712168
5122125,5121279,-0.0023339577,0.004141213,-0.0011817259
5124681,5123815,-0.0022345746,0.0042144563,-0.0011372436
5127139,5126285,-0.0018461521,0.004201062,-0.0011493413
5129645,5128772,-0.0012485781,0.0040423297,-0.0013106642
5132134,5131282,-0.00073816633,0.0039577913,-0.0015881056
5134627,5133774,-0.00038724212,0.004040456,-0.0017839491
5137156,5136293,-0.000112902766,0.004150635,-0.0017388405
5139653,5138776,-9.147106e-06,0.004191074,-0.0016216121
5142142,5141293,-2.8088907e-06,0.004230599,-0.0015709791
5147145,5146290,0.00020037184,0.0043530436,-0.0013949992
5149637,5148781,0.00024789773,0.004326132,-0.0010695733
5152140,5151288,0.00042501284,0.004293553,-0.0006312805
5154639,5153786,0.0008942393,0.004360378,-0.00028503058
5157189,5156292,0.001526989,0.004452546,-0.00013212561
5159644,5158785,0.0019894198,0.0044652047,-0.00018914284
5162165,5161309,0.0022353549,0.004416796,-0.0003040359
5164685,5163801,0.0022756085,0.004237672,-0.0004173034
5167148,5166293,0.0021440578,0.0039288965,-0.00052809424
5169646,5168790,0.0019752437,0.003727522,-0.0007031532
5172188,5171307,0.0016352755,0.0036714955,-0.0010470941
5174647,5173791,0.0010723977,0.0036167952,-0.0013695096
5177231,5176328,0.00065761025,0.0035394568,-0.0015333969
5179646,5178793,0.00062254455,0.0034451748,-0.0016274347
5184686,5183801,0.0011258775,0.0033209748,-0.001674084
5187157,5186300,0.0016648797,0.0033485547,-0.0014482168
5189674,5188807,0.001936387,0.0035024986,-0.0011978229
5192167,5191305,0.0017179374,0.0036778785,-0.0011965429
5194652,5193799,0.0011857849,0.0036805593,-0.0013661574
5197203,5196303,0.0005631554,0.0034886568,-0.0014843696
5199657,5198801,-0.00016105939,0.0034055975,-0.001451188
5202163,5201304,-0.0009189534,0.0035591538,-0.0013258611
5204699,5203807,-0.0013789756,0.0036914859,-0.0012203351
5207170,5206308,-0.0013787474,0.0037023686,-0.0010534191
5209704,5208836,-0.0010143602,0.0037323178,-0.0008384667
5212164,5211309,-0.00061594107,0.0038579209,-0.00077825435
5214663,5213807,-0.000537987,0.0039460585,-0.0009610485
5217225,5216313,-0.0008645814,0.003912166,-0.001249414
5219662,5218809,-0.0013672821,0.003975427,-0.0013428801
5224682,5223815,-0.0015509275,0.004522141,-0.0012315171
5227185,5226326,-0.0013226103,0.0046853647,-0.0013689918
5229681,5228822,-0.0011839183,0.0047375704,-0.0014539075
5232169,5231315,-0.0010020027,0.0047366647,-0.001487389
5234670,5233816,-0.0006236227,0.0047548874,-0.0015411549
5237229,5236333,-0.00018592477,0.004787206,-0.0016067538
5239674,5238818,0.00016493554,0.00474701,-0.0016577163
5242177,5241319,0.00044230794,0.0044965507,-0.0015676137
5244681,5243824,0.0005374559,0.0041638073,-0.0013451433
5247209,5246337,0.00043829053,0.004087277,-0.0011609643
5249678,5248822,0.00037933237,0.004249976,-0.0011507854
5252176,5251323,0.00041861975,0.0044639288,-0.0013030273
5264689,5263832,0.001768758,0.0037310254,-0.0013500977
5267194,5266333,0.0020291787,0.0038857565,-0.001228441
5269740,5268831,0.002138461,0.0040445216,-0.0012576581
5272209,5271340,0.0018868301,0.00413902,-0.0014223454
5274688,5273833,0.0013946351,0.004290349,-0.0016070643
5277242,5276336,0.0008965606,0.0045632925,-0.0017270971
5279687,5278834,0.00042724982,0.004780013,-0.0017654903
5282215,5281343,0.000106560336,0.0048117316,-0.0016858662
5284697,5283840,0.00012562746,0.0047104787,-0.0014459598
5287195,5286341,0.00041516864,0.0046544527,-0.0011372224
5289714,5288839,0.0005987463,0.0047320714,-0.0009240787
5292193,5291340,0.0005366355,0.0048403447,-0.0008973105
5362245,5361379,0.0021682754,0.0041358136,-0.0005039415
5364730,5363874,0.0017232577,0.0042870794,-0.00033773103
5367246,5366374,0.00097220513,0.004333505,-0.00011811749
5369766,5368872,0.00044268963,0.004361365,1.3960893e-05
5372220,5371373,0.00026132248,0.0044428622,-3.7491336e-05
5374735,5373877,0.0002591608,0.0044817533,-0.00016236682
5377284,5376383,0.0004695118,0.0044662612,-0.00024247888
5379736,5378876,0.0007751523,0.0045370003,-0.00029845219
5382252,5381388,0.00091854867,0.0046732416,-0.00038672143
5384738,5383882,0.00087570463,0.0046882294,-0.00048548018
5387237,5386383,0.0007061796,0.004563748,-0.00046441605
5389745,5388886,0.00028089527,0.0043400098,-0.0003515904
5392236,5391384,-0.00045006454,0.0041319127,-0.00031507423
5394780,5393882,-0.0010932181,0.004114053,-0.00034145603
5402286,5401401,-0.0008374391,0.0041673984,-0.000668451
5404747,5403890,-0.0010170963,0.004014943,-0.00076932536
5407246,5406390,-0.0013289751,0.003943775,-0.0006593751
5409745,5408889,-0.00161916,0.003959808,-0.00054883724
5412351,5411398,-0.0018869328,0.0040547024,-0.0005522755
5414745,5413892,-0.002295442,0.004232995,-0.0005284608
5417295,5416393,-0.002806031,0.004339155,-0.00048071297
5419746,5418893,-0.0031631612,0.004277059,-0.00055520795
5422283,5421407,-0.0030092313,0.0041522617,-0.00069432124
5424755,5423898,-0.0023935032,0.0039896793,-0.0007598144
5427257,5426399,-0.0016531196,0.0037588135,-0.0007701587
5429753,5428897,-0.0008620813,0.0035264303,-0.0007517891
5432298,5431430,-0.00016576274,0.0032927704,-0.000728917
5439754,5438901,-0.0005747195,0.0032895827,-0.00084289425
5442289,5441409,-0.0007111087,0.0034279882,-0.0007342416
5444763,5443907,-0.0005357935,0.0036258788,-0.0005787341
5447260,5446407,-0.00025575276,0.0040153093,-0.00045151752
5449775,5448905,5.9354912e-05,0.004543529,-0.00035661884
5452257,5451406,0.00046221234,0.0050430177,-0.00036436072
5454762,5453910,0.0009130572,0.005308319,-0.00038290533
5457323,5456416,0.0012223588,0.0052552973,-0.00024822666
5459768,5458909,0.0013837662,0.0049704555,-2.9908508e-05
5462285,5461414,0.0016180375,0.0046070814,9.295097e-05
5464792,5463913,0.0016497083,0.004294663,0.00010633205
5467278,5466415,0.0012078498,0.00409219,-1.0206739e-05
5469769,5468914,0.0006910824,0.0040390524,-0.00022772847
5509786,5508930,-0.00064409774,0.003932805,-0.0004143786
5512339,5511434,-0.0006125637,0.00409869,-0.0005376954
5514829,5513932,-0.00088972924,0.0041589295,-0.00055218657
5517306,5516443,-0.0013683641,0.0042718877,-0.00039516014
5519829,5518934,-0.0018282027,0.004288958,-0.0003555126
5522309,5521439,-0.0019699214,0.0041324534,-0.0005260123
5524820,5523940,-0.001670857,0.003913151,-0.00079055264
5527310,5526441,-0.0010430716,0.003804493,-0.0010875531
5529804,5528938,-0.00020936111,0.0037976995,-0.0013631117
5532296,5531439,0.00073599134,0.0038164703,-0.0014337584
5534794,5533941,0.0014919495,0.003878152,-0.0012322098
5537336,5536454,0.0017893731,0.0038767443,-0.0009255342
5539820,5538943,0.0017514019,0.003763868,-0.00064168696
5542315,5541447,0.0015572214,0.0036471128,-0.00042673462
5544810,5543948,0.0012472842,0.0035423709,-0.00040874348
5547310,5546449,0.00082855485,0.003488352,-0.00060527836
5549819,5548952,0.00053257437,0.0035305806,-0.00070232747
5552309,5551448,0.00062953547,0.0037190937,-0.0005655511
5554805,5553952,0.0009968681,0.0039716875,-0.00037859357
5557329,5556453,0.0014788201,0.00405338,-0.0001790938
5559826,5558951,0.0020031866,0.003946033,0.00010626396
5562327,5561456,0.0024816915,0.0037046773,0.00045134488
5564812,5563953,0.0027253327,0.003452574,0.0006807484
5567336,5566464,0.0024127471,0.003421429,0.0006557584
5569825,5568967,0.0016766412,0.0037112115,0.0004466837
5572322,5571458,0.0010336423,0.004125414,0.00019507483
5574815,5573960,0.0006877049,0.004287672,-8.358991e-06
5577400,5576460,0.00047465402,0.0042549106,-0.00013282162
5579843,5578966,0.0003243903,0.0043012323,-0.00019555048
5582321,5581464,0.00036211417,0.0043406757,-0.00019633681
5584829,5583971,0.00054196856,0.004255511,-0.00014187668
5587330,5586466,0.00064516714,0.0041152854,-0.000106994186
5589860,5589004,0.00057764613,0.003972329,-7.555634e-05
5592330,5591464,0.00038651127,0.003844018,8.804029e-06
5594843,5593962,0.00010973177,0.003776097,0.00015373148
5624845,5623989,-0.0013282091,0.0034411375,-0.00062869926
5627351,5626484,-0.0008562426,0.003551263,-0.00050412724
5629855,5628994,-0.0001272835,0.003633896,-0.00020508954
5632336,5631481,0.0005274053,0.0036404713,8.5047286e-05
5634860,5633998,0.0005458839,0.003563155,0.00014706
5637415,5636486,-0.000162528,0.00330534,7.291668e-05
5639892,5639010,-0.0009851891,0.0028687266,5.2612922e-05
5642356,5641489,-0.0014415253,0.00254678,6.8698275e-05
5644875,5644019,-0.001596888,0.0026032557,0.000101667494
5647357,5646496,-0.0015573939,0.002843188,0.00020302532
5649879,5649017,-0.0011613958,0.0030049433,0.000355261
5652345,5651489,-0.00039081345,0.0031672954,0.0003838628
5654911,5654055,0.00036005955,0.00335074,0.0002721303
5657417,5656508,0.0008276862,0.0035597326,0.00020997468
5659904,5659037,0.0009935144,0.003892852,0.00021629804
5719902,5719028,-0.0017094355,0.0032713441,-0.0001133948
5722376,5721518,-0.0023556794,0.003081898,-0.00025946036
5724890,5724019,-0.0025896968,0.0029632985,-0.00029448915
5727371,5726523,-0.0021779616,0.0029829938,-0.000115390685
5729887,5729021,-0.0014115218,0.003146836,4.8186637e-05
5732379,5731522,-0.0007105872,0.0033317343,0.000109004875
5734892,5734023,-0.000105123894,0.0033963632,0.00012307076
5737437,5736528,0.00029290057,0.0034135198,7.674051e-05
5739896,5739029,0.00034264702,0.0035118107,-7.159183e-06
5742392,5741527,0.00029089535,0.003587375,-0.000118159776
5767397,5766540,0.00019111745,0.004108065,-0.0009644857
5769894,5769038,-0.00034028626,0.004011637,-0.00081840006
5772428,5771554,-0.0006867515,0.0038787192,-0.0006851379
5774915,5774040,-0.0007600018,0.0037933975,-0.0005717896
5777463,5776551,-0.0005925847,0.0038051908,-0.00042943878
5779910,5779046,-0.00032141805,0.0038366995,-0.0002875059
5782394,5781545,-0.0001376775,0.0037575832,-0.00024854345
5784903,5784044,-0.00017700673,0.003520573,-0.00039233576
5787404,5786548,-0.000274007,0.003173186,-0.000636644
5789911,5789046,-0.00022277838,0.0028927282,-0.0008340307
5792432,5791580,-0.00014898114,0.0028320693,-0.000990247
5794907,5794048,-0.0003762115,0.0029891538,-0.0011738283
5797482,5796552,-0.0007908947,0.003232913,-0.0013234776
5799920,5799054,-0.0008900439,0.003425344,-0.0013411996
5802439,5801558,-0.00064643007,0.0034994402,-0.0011753608
5804911,5804053,-0.00027215778,0.0033811312,-0.00087596086
5807405,5806557,0.00019817692,0.0031448533,-0.00069256243
5809960,5809055,0.0005868341,0.0029641786,-0.0007528269
5812417,5811558,0.0006770303,0.0028197595,-0.00090466463
5814929,5814067,0.00055399194,0.0026935618,-0.001053087
5817476,5816560,0.00044275468,0.0026706364,-0.0010968847
5819933,5819063,0.00033598597,0.0027738537,-0.0009177991
5822417,5821563,0.00013773656,0.002947698,-0.000644005
5824939,5824061,-0.00010683237,0.0030525038,-0.00040965277
5827419,5826565,-9.6159565e-05,0.0030074518,-0.000214636
5834933,5834065,0.000861844,0.0028227787,-0.00018532053
5837485,5836579,0.00061673013,0.0029451086,-0.00015500495
5839939,5839071,0.0002483691,0.003125845,-5.838459e-05
5842428,5841568,0.000105535226,0.0031830585,-0.00011407504
5844942,5844075,0.0002160746,0.0030580908,-0.0003524574
5847423,5846573,0.00031547088,0.0030334785,-0.0006311981
5849929,5849071,0.00015486879,0.0031836275,-0.0009822288
5852425,5851573,-0.00029408484,0.003298957,-0.0012778555
5854942,5854073,-0.0007784467,0.0032586455,-0.0011766745
5857496,5856588,-0.00096932513,0.0031449557,-0.00067953777
5859957,5859079,-0.0008529951,0.0031472405,-0.00017711865
5862433,5861577,-0.0006360776,0.0033158916,7.07486e-05
5864936,5864078,-0.00021214275,0.0034888526,0.00010765453
5867430,5866582,0.0005494285,0.0035916865,3.622711e-05
5869955,5869080,0.0012838619,0.0036149975,-0.00010408118
5879957,5879092,0.00014213665,0.0026685698,-0.0011486134
5882437,5881588,9.5464e-05,0.002468268,-0.0011120269
5884945,5884086,5.736241e-05,0.00241995,-0.0010324515
5887460,5886587,-0.0002357302,0.0025112652,-0.00084609527
5889947,5889088,-0.0005133052,0.0025589748,-0.0005603137
5892459,5891605,-0.000692191,0.002663405,-0.00032175903
5894949,5894090,-0.0008023068,0.0028801463,-0.00027205618
5897526,5896615,-0.0006646828,0.0030013716,-0.0004268133
5899958,5899093,-0.00034208747,0.0029768755,-0.00062612153
5902443,5901593,0.00014060983,0.0028922434,-0.00063907256
5904953,5904094,0.0009102787,0.0028681906,-0.0003592926
5907446,5906598,0.0017256438,0.0029171826,3.732653e-05
5910013,5909099,0.0021776604,0.0028976153,0.00032241616
5912446,5911598,0.002053719,0.0028133674,0.00045948813
5914967,5914099,0.001533353,0.0028363052,0.00049745775
5917521,5916615,0.000978669,0.0029655078,0.0004514072
5919983,5919109,0.00037803128,0.003058879,0.00035113085
5922451,5921602,-0.0001666568,0.0030211688,0.0002833007
5924969,5924102,-0.0004554644,0.0028195719,0.00017997579
5927458,5926607,-0.00075277546,0.0026665754,-0.0001232643
5929998,5929130,-0.0010824365,0.0027639403,-0.00050919876
5932496,5931606,-0.0011965459,0.002902472,-0.00068727706
5934960,5934107,-0.0011018252,0.0028529502,-0.00071176986
5937537,5936625,-0.00090951484,0.0027440744,-0.0008262005
5939980,5939109,-0.0008348706,0.002745578,-0.00089662266
5942475,5941624,-0.0008564501,0.0028567498,-0.00073905976
5944983,5944111,-0.00067881425,0.0030105826,-0.00051132124
5947466,5946615,-0.00037020084,0.0031937682,-0.00036904015
5952472,5951615,-0.00013251766,0.0034644017,-0.0002973688
5954981,5954115,-0.00032787764,0.0034944923,-0.0003162991
5957530,5956628,-0.00051474484,0.0035264357,-0.00022870582
5959983,5959117,-0.00039873796,0.0034019705,2.4412708e-05
5962474,5961618,3.2691343e-05,0.0031466945,0.00025372987
5964972,5964119,0.00058288436,0.0029561464,0.00026403178
5967471,5966623,0.0007445866,0.0028870902,9.8113545e-05
5970024,5969121,0.00040188798,0.0028663129,-0.000108861976
5972476,5971626,-3.793832e-05,0.002970821,-0.00032420253
5974996,5974123,-0.0003705145,0.0032773323,-0.0005414846
5977529,5976628,-0.00046740327,0.0035689385,-0.00064009865
5979979,5979126,-0.00035417726,0.0036884164,-0.000544637
5982492,5981630,-0.00015181986,0.0036773006,-0.00039949096
6062520,6061669,0.0002519271,0.0031017144,3.764774e-05
6065014,6064161,0.000866543,0.003147667,0.00027997393
6067534,6066683,0.0013905381,0.0030121645,0.0006070891
6070058,6069163,0.0012839357,0.0029406208,0.0007811427
6072517,6071666,0.0006252313,0.0028962127,0.00071841036
6075048,6074165,-0.00014703789,0.0027717415,0.000488937
6077522,6076670,-0.00088412745,0.002657353,0.00023473968
6080025,6079169,-0.0014775887,0.0025573876,0.00014775302
6082527,6081671,-0.001728631,0.0026155887,0.00021310581
6085058,6084182,-0.0014955524,0.002907928,0.00023028775
6087519,6086667,-0.0009150257,0.0030937965,0.00016416266
6115096,6114202,0.0013409908,0.0020460873,-0.0007679656
6117584,6116680,0.0022777533,0.002039668,-0.00075429614
6120049,6119191,0.0030716879,0.0020233446,-0.00064005476
6122534,6121688,0.0033443943,0.0020861232,-0.00051683234
6125039,6124186,0.0028620171,0.0021148685,-0.00047206692
6127547,6126690,0.0017208576,0.0021562157,-0.00040357566
6130041,6129188,0.00042678724,0.002400165,-0.00021721766
6132538,6131691,-0.00038609514,0.0027007903,-6.813824e-05
6135081,6134201,-0.0006616036,0.0028386365,-2.3523256e-05
6137539,6136687,-0.0006573166,0.0028135579,-4.802605e-05
6140062,6139192,-0.00045780692,0.002611187,-0.00025445857
6142563,6141709,-4.7430185e-05,0.0023290706,-0.0006526601
6145072,6144194,0.0004993634,0.0022019623,-0.0010374327
6147563,6146695,0.00092215557,0.0021955986,-0.0011860414
6152593,6151733,0.00042440067,0.0021340433,-0.00067618873
6155119,6154202,-0.00018866148,0.0022507473,-0.00045257166
6157555,6156703,-0.0003171858,0.0022681453,-0.0003041742
6160076,6159201,7.767017e-05,0.0022239934,-0.00013972039
6162558,6161702,0.00061788963,0.0022501966,-1.9033505e-05
6165075,6164202,0.001049777,0.0024066234,-3.4741766e-05
6167559,6166707,0.0013170328,0.0026133733,-0.00018640627
6170077,6169215,0.001373229,0.0026998431,-0.00035038113
6172632,6171747,0.0012602035,0.0026362673,-0.00044630055
6175128,6174210,0.0009349736,0.0025413816,-0.0004626143
6177566,6176714,0.0002698357,0.002503011,-0.0003890794
6180085,6179209,-0.00049434364,0.002464435,-0.00031800644
6182557,6181710,-0.0009836934,0.0023941163,-0.00040747307
6185086,6184211,-0.0011658629,0.0023698465,-0.0007200628
6192557,6191710,-0.00042827034,0.0022369726,-0.0012198859
6195138,6194219,0.00030694445,0.0022729964,-0.0010181541
6197563,6196711,0.0008440706,0.0024851668,-0.0008279909
6200076,6199217,0.0009751986,0.0026942058,-0.0006807774
6202586,6201722,0.00072137767,0.0028146838,-0.0004908136
6205096,6204232,0.00026751778,0.002938321,-0.00035475823
6207580,6206732,-0.00019697478,0.0031116758,-0.00036753243
6210144,6209221,-0.00047595956,0.0032294516,-0.00047383178
6212593,6211721,-0.00045819388,0.0032346444,-0.000523811
6215118,6214245,-0.00017201315,0.0032639306,-0.0005042016
6217584,6216725,0.00014812802,0.0032997732,-0.00058518955
6220081,6219228,0.00015743313,0.0031791015,-0.00078878994
6222576,6221729,6.8343143e-06,0.0029822702,-0.00092671777
6225101,6224245,7.517488e-05,0.0028005089,-0.000937475
6227597,6226744,0.00023019829,0.0025504977,-0.0009426535
6230089,6229236,-6.0583043e-06,0.0023393796,-0.0009768943
6232618,6231742,-0.00077830337,0.0023334618,-0.0010549497
6235116,6234257,-0.0016378518,0.0025001473,-0.0011126151
6237651,6236752,-0.0020580273,0.002619748,-0.0010555815
6240102,6239239,-0.0017728247,0.002558259,-0.0009137335
6242602,6241753,-0.0009947942,0.0024903992,-0.0006321904
6245122,6244259,-0.00021506686,0.002431297,-0.00030510774
6247611,6246760,0.0003425993,0.0023418544,-0.00017807048
6250113,6249250,0.0005069078,0.0023126784,-0.00020853225
6252647,6251776,0.00017171956,0.0023387382,-0.00024092609
6255114,6254254,-0.0003438021,0.0023953328,-0.00024620575
6272651,6271781,-0.00019090972,0.0025508534,-0.00075988355
6275122,6274263,2.736559e-05,0.002555983,-0.0006627494
6277693,6276786,2.7607202e-05,0.0025675572,-0.00060005323
6280112,6279254,-0.0002709695,0.0026526414,-0.000525182
6282608,6281761,-0.000591045,0.002736975,-0.00038439513
6285137,6284271,-0.00057940616,0.0027405773,-0.0003226732
6287612,6286761,-0.00026771313,0.0026911562,-0.00041636318
6290144,6289280,-2.2576785e-05,0.0026495662,-0.00056170137
6292640,6291780,0.0001449748,0.002563678,-0.0006082272
6295167,6294268,0.00049356866,0.0023999165,-0.00057015975
6297623,6296769,0.0009936146,0.0022539613,-0.00062633347
6300134,6299262,0.0013621368,0.0022110213,-0.0007864783
6302620,6301760,0.0013836494,0.002203288,-0.0009066338
6305134,6304279,0.0011509656,0.0021909429,-0.0009278967
6385172,6384297,3.9094382e-05,0.0027169825,-0.0007523306
6387669,6386798,-0.00018986416,0.0029923716,-0.0007687161
6390153,6389299,-0.0006074207,0.003143929,-0.0008232844
6392674,6391801,-0.0009175297,0.003016124,-0.00084467145
6395200,6394294,-0.0008839249,0.0027559162,-0.00061049557
6397661,6396804,-0.0005995576,0.0025490574,-0.0001453011
6400170,6399303,-0.0003876258,0.0023685647,0.00025711057
6402660,6401801,-0.00040114438,0.002165371,0.0004552224
6405163,6404310,-0.00046602203,0.0019257015,0.00040889625
6407677,6406806,-0.00044019532,0.0016241643,0.00019032162
6410161,6409308,-0.0005113486,0.0013888525,2.6572096e-05
6412737,6411820,-0.0006907281,0.0013491979,-1.1004355e-05
6425172,6424319,0.00048461292,0.0020461371,-0.0010382438
6427684,6426827,0.00080097857,0.0022334123,-0.00079485856
6430189,6429323,0.00089897757,0.002313458,-0.00043031102
6432680,6431818,0.0011163686,0.0022704357,-0.00024267408
6435219,6434318,0.0013555565,0.0020926406,-0.00026826427
6437673,6436819,0.0013084307,0.0017950914,-0.00030792638
6440187,6439323,0.0010254399,0.0015051499,-0.00029040888
6442674,6441818,0.00045810145,0.0012769765,-0.00021739442
6445186,6444327,-0.00028114786,0.0010647683,-3.7192935e-05
6447677,6446823,-0.0007943907,0.0010330043,0.00013262276
6450191,6449324,-0.0008610566,0.001222782,0.00011755079
6452683,6451826,-0.00045115635,0.0014875275,-6.6086664e-05
6455246,6454332,0.00017006979,0.0017663467,-0.00029264693
6457686,6456827,0.0006134067,0.0019580338,-0.000551735
6460195,6459335,0.0007717767,0.0019927188,-0.00086564815
6462692,6461827,0.00070478744,0.0019033966,-0.0011321097
6465207,6464339,0.0003774764,0.0018170639,-0.0011920005
6467688,6466832,-0.00021024194,0.0019060478,-0.00095140317
6470202,6469333,-0.0007704533,0.0021208718,-0.0004685591
6472717,6471841,-0.0010551556,0.0023578722,-5.6836794e-05
6475238,6474333,-0.0010607608,0.0026098208,6.004854e-05
6477692,6476839,-0.00093268685,0.0026752083,9.28751e-05
6480188,6479332,-0.00091084046,0.0025101313,0.0001169649
6482693,6481835,-0.00091571047,0.0022946203,2.7326649e-05
6497702,6496844,-0.000106887965,0.0020351205,-0.0011780278
6500198,6499345,0.00014104202,0.0019521613,-0.0011913078
6502708,6501843,0.0006288626,0.0019425986,-0.0012434209
6505212,6504346,0.0012215155,0.0021125344,-0.0011644212
6507718,6506849,0.0017342513,0.0022394215,-0.00093694334
6510240,6509352,0.0019869932,0.0022789522,-0.0007027694
6512745,6511870,0.0020084437,0.0024025163,-0.00047474384
6515258,6514350,0.001744733,0.002549358,-0.00030122657
6517724,6516853,0.0011317516,0.0025248835,-0.0001690725
6520210,6519353,0.00025242628,0.0022748983,-6.565148e-05
6522711,6521855,-0.0006309295,0.0019831979,-4.821497e-05
6525207,6524354,-0.0010096626,0.0017479868,-2.5462483e-05
6527724,6526863,-0.0006628935,0.001536295,3.9464405e-05
6530253,6529357,5.2006857e-05,0.0015304661,7.1093076e-05
6545234,6544366,0.00055258546,0.0028310763,0.00028112828
6547717,6546865,0.00064864714,0.00297528,0.00020235675
6550255,6549366,0.0007499589,0.0029837638,0.00015475205
6552722,6551868,0.0007291691,0.0028713956,4.768618e-05
6555280,6554367,0.00068494823,0.0027606518,-0.00017661558
6557723,6556870,0.00076162186,0.0026326186,-0.00034774863
6560245,6559370,0.00076038006,0.0025119812,-0.00042086962
6562718,6561869,0.00047504157,0.0024669354,-0.00047957804
6565247,6564384,3.129439e-05,0.0024321456,-0.0005667685
6567722,6566873,-0.00034171107,0.0023229248,-0.0007235617
6570277,6569386,-0.0005333898,0.0021173547,-0.0009203837
6572755,6571882,-0.00076508464,0.0020502547,-0.0010780494
6605247,6604388,0.002660496,0.0016421583,-0.0008369979
6607752,6606889,0.002975776,0.0016252671,-0.0010601629
6610344,6609404,0.0028126691,0.0016655115,-0.0010621452
6612757,6611900,0.0022188746,0.0017865127,-0.0008505108
6615258,6614391,0.001508204,0.0019871525,-0.0006215304
6617782,6616883,0.0008678421,0.0022146532,-0.00047869654
6620257,6619392,0.00038258563,0.002360788,-0.0004129262
6622789,6621917,9.1379276e-05,0.002432689,-0.0003723725
6625269,6624400,-0.00027394027,0.0024652402,-0.00030594025
6627756,6626907,-0.0007707773,0.0022913595,-0.00019272172
6630295,6629408,-0.0010088922,0.0019080701,-2.2276778e-05
6632752,6631898,-0.0009992042,0.0015431688,6.9488866e-05
6635330,6634401,-0.00085692643,0.0013302979,-0.000110169036
6637759,6636903,-0.00048650368,0.0011727994,-0.00044123342
6640269,6639402,-0.00014637262,0.0009999301,-0.0006983302
6642749,6641902,-0.00026134495,0.0009550491,-0.0008046236
6645277,6644405,-0.0008107585,0.0010725115,-0.0007351144
6647758,6646907,-0.0012056944,0.0011542161,-0.00057929585
6650318,6649444,-0.0009812484,0.0010239888,-0.00044980354
6652756,6651906,-0.0004689392,0.00081808434,-0.00033813034
6655332,6654422,-0.000117295625,0.0008009098,-0.00017543507
6657763,6656912,0.00019832644,0.0010264686,3.4900815e-05
6660269,6659411,0.000553769,0.0013724025,9.821404e-05
6662757,6661910,0.0006678994,0.0016831146,-0.00011714887
6665284,6664412,0.00047934923,0.0018285682,-0.00054776337
6667764,6666912,0.00018623573,0.00177199,-0.0010074629
6670341,6669432,-0.00015232935,0.0016301994,-0.0012633738
6945408,6944531,-0.0007153906,0.0008194188,0.0006066897
6947885,6947033,-0.0010409973,0.0008023709,0.0004988252
6950419,6949533,-0.00088089966,0.00071583636,0.00030638877
6952888,6952032,-0.00046462467,0.0005833992,0.0001218743
6955436,6954535,-0.00013408056,0.0005571219,-7.93437e-05
6957902,6957048,9.53876e-05,0.000558174,-0.0003257164
6960411,6959537,0.00023418949,0.00049598597,-0.0005021671
6962882,6962035,0.00014098898,0.00044551914,-0.00056331867
6965432,6964539,-0.00010338403,0.00042510667,-0.0005743051
6967893,6967041,-0.00039693827,0.00041064972,-0.00049659476
6970399,6969539,-0.0007074568,0.00052156544,-0.00025453971
6972891,6972045,-0.0010487267,0.0008089002,0.00012257187
6975453,6974544,-0.0014161714,0.0011430602,0.00059384736
6977918,6977067,-0.0014419766,0.0014165434,0.0009605479
6980404,6979542,-0.0009698408,0.001621394,0.0010037257
6982901,6982054,-0.0005056,0.0017302538,0.00086397363
6985442,6984547,-0.00034579413,0.0016953878,0.00080041384
6987915,6987060,-0.00023998035,0.0016572396,0.0008361151
6990422,6989550,7.5622374e-05,0.0017495682,0.0008996786
6992902,6992048,0.0005436808,0.0018257243,0.0009728259
6995421,6994551,0.0008220532,0.0018323762,0.00090293726
6997948,6997054,0.000803581,0.0018461149,0.00061202946
7000412,6999551,0.00080728636,0.0017629468,0.00027569942
7002899,7002052,0.0008704576,0.0014452345,4.19206e-05
7005435,7004556,0.00078689825,0.00093900645,-3.325985e-05
7007910,7007058,0.00058596063,0.00060199946,6.0597587e-05
7010573,7009654,0.00036468092,0.0007133945,0.0002757457
7025454,7024578,0.0010371439,0.0019130043,-0.00021079606
7027918,7027066,0.0013738913,0.001687783,-0.00015878782
7030443,7029566,0.0015748646,0.0014721986,-1.8505496e-05
7032911,7032065,0.0017909855,0.0014242796,0.00026255185
7035446,7034568,0.0018244397,0.0015106184,0.00063668157
7037927,7037070,0.0015474075,0.0015729426,0.0009840842
7040429,7039568,0.0012683452,0.0015404094,0.0011400806
