timestamp,timestamp_sample,accel_device_id,gyro_device_id,delta_angle[0],delta_angle[1],delta_angle[2],delta_velocity[0],delta_velocity[1],delta_velocity[2],delta_angle_dt,delta_velocity_dt,delta_velocity_clipping
3088054,3086388,1114122,2228234,-0.00010511216,7.495745e-05,3.3053835e-05,0.00014907097,-0.00074192585,-0.0493734,4974,4974,0
3093065,3091378,1114122,2228234,-9.073784e-05,3.135765e-05,2.503182e-05,-1.9361165e-05,-0.0015714245,-0.050655026,4990,5052,0
3589343,3589048,1114122,2228234,-0.000116891766,6.0351424e-05,-2.0426191e-06,-0.00044126078,-0.0008166879,-0.049971893,4995,5001,0
4592145,4591997,1114122,2228234,-0.00010281248,7.133218e-05,1.9879804e-05,-0.0005298942,-0.0008977352,-0.049622178,4965,5001,0
5090009,5089716,1114122,2228234,-0.00014634567,4.1290445e-05,1.17753225e-05,-6.592796e-05,-0.0012793504,-0.050535154,4998,4999,0
5587608,5587383,1114122,2228234,-0.0001758222,7.196406e-05,5.8272944e-06,4.7017737e-05,-0.0009299403,-0.050744433,4975,5044,0
7588387,7585739,1114122,2228234,-0.00015747543,3.8825354e-05,3.081873e-05,0.00087148295,-0.0013157158,-0.04984811,4996,4932,0
8088654,8088419,1114122,2228234,-8.3509134e-05,9.444889e-05,2.1038937e-05,-8.364019e-05,-0.0008323724,-0.051635664,4972,5041,0
8591450,8591146,1114122,2228234,-0.00010019357,7.724053e-05,1.3475681e-05,-0.00075867283,-0.00061634433,-0.04958652,5006,4996,0
9591831,9591564,1114122,2228234,-5.386831e-05,7.276573e-05,6.6318804e-05,0.00018383269,-0.0006102042,-0.05137908,5007,5009,0
10089472,10089291,1114122,2228234,-0.00012845537,4.4962682e-05,2.812767e-06,-0.00039370215,-0.0004914968,-0.049805366,5018,5011,0
10589781,10589494,1114122,2228234,-0.00013144419,3.758109e-05,2.0626607e-05,-0.00021880456,-0.00057715684,-0.04958634,4993,5061,0
11087516,11087210,1114122,2228234,-0.00010264048,5.2860283e-05,4.762018e-05,-0.00013814752,-0.00071885,-0.05055644,4975,5044,0
11590086,11589894,1114122,2228234,-0.00012174823,6.5679225e-05,-3.2084045e-06,0.00054378586,-0.0006710557,-0.050680324,4999,5001,0
12087993,12087688,1114122,2228234,-0.00013888396,0.00010925495,-5.5085543e-06,-0.00036716065,-0.0010695971,-0.04993089,5073,5091,0
12588128,12587861,1114122,2228234,-0.00012567452,8.357788e-05,3.4596404e-05,-0.0003348718,-0.0014875827,-0.049004886,5019,4877,0
13588561,13588269,1114122,2228234,-0.00015180388,3.4809163e-05,1.9569581e-05,0.00030461006,-0.00073011365,-0.050649036,4930,5010,0
14591384,14591258,1114122,2228234,-7.505709e-05,7.3466996e-05,2.383243e-06,-0.0016160486,-0.0007116785,-0.048171304,4934,4922,0
15089475,15088944,1114122,2228234,-0.00011376966,7.0261354e-05,3.3182507e-05,-0.0009022291,-0.0003749126,-0.0494091,4904,4928,0
15591850,15591614,1114122,2228234,-2.3915134e-05,7.768e-05,-5.665681e-06,0.0002068786,-0.0006549455,-0.05002917,4884,4966,0
16587226,16587052,1114122,2228234,-0.0001444157,5.3981537e-05,1.2650023e-05,-0.00035320362,-0.000730325,-0.04958723,5012,5013,0
17087414,17087286,1114122,2228234,-0.00011609404,8.6667635e-05,2.2367227e-05,0.0004563047,-0.000331887,-0.05046022,4982,4911,0
17590313,17590004,1114122,2228234,-0.00011317522,6.197231e-05,2.3516372e-05,-0.0009908008,-0.0013337635,-0.049803585,4939,4967,0
19088364,19088133,1114122,2228234,-0.00013659729,9.9327015e-05,2.6599153e-07,-0.0003599675,-0.00040059758,-0.04979924,4998,5004,0
20091414,20091114,1114122,2228234,-7.453406e-05,7.12636e-05,2.1063322e-05,-5.4308304e-05,-0.00043815674,-0.049442444,4986,4986,0
20591561,20588905,1114122,2228234,-0.00014842935,0.00012116224,1.112961e-05,-0.00017099557,-0.0016734139,-0.050490767,5070,5046,0
21091816,21091518,1114122,2228234,-9.3403934e-05,1.3250738e-05,3.2457014e-05,-0.00034850018,-0.00073809765,-0.050172374,5019,5018,0
21589430,21589243,1114122,2228234,-0.00013436111,6.429403e-05,3.5147415e-05,-0.0005787425,-8.597827e-05,-0.05072037,4981,4985,0
22089876,22089652,1114122,2228234,-0.00015960242,7.761213e-05,3.575567e-06,-0.0002962918,0.00022239595,-0.05140766,5197,5068,0
22587568,22587239,1114122,2228234,-7.959894e-05,2.2176875e-05,5.4550515e-06,-0.0007093122,-0.0011877242,-0.06089837,5047,6113,0
23587924,23587607,1114122,2228234,-0.0001249958,4.533215e-05,1.1677139e-05,-0.00027539325,-0.0009862761,-0.04997429,4925,4996,0
24091849,24090343,1114122,2228234,-9.24347e-05,5.229542e-05,7.0990354e-06,-0.0016833397,-0.00010903385,-0.04919818,4995,4978,0
27589763,27589443,1114122,2228234,-0.00010988677,8.1935e-05,1.0721845e-05,-4.899943e-05,-0.0012880624,-0.05016481,5027,4964,0
28088039,28087169,1114122,2228234,-8.120734e-05,0.0001116982,2.9206945e-05,0.00017764115,-0.0007556198,-0.050366472,5057,4995,0
28590258,28589844,1114122,2228234,-8.2718056e-05,5.9848902e-05,5.7410427e-05,0.0011687137,-0.0017824036,-0.050024953,4985,4923,0
30588635,30585767,1114122,2228234,-0.00011745677,0.00010037211,1.4868667e-05,-0.00093392294,-0.00034981026,-0.05029323,4994,4994,0
32589608,32589481,1114122,2228234,-0.00011836412,7.088705e-05,4.8849153e-05,-0.0012020629,-0.0011908875,-0.049344003,5013,5015,0
33092230,33091890,1114122,2228234,-0.0001366531,0.00010149046,1.5194528e-05,-0.00065475976,0.00039025722,-0.04902625,4979,5042,0
33589887,33589617,1114122,2228234,-8.8287146e-05,8.561884e-05,3.0309417e-05,-0.00053659664,-0.0012703204,-0.04964198,4977,5045,0
34087634,34087348,1114122,2228234,-6.8779045e-05,4.5554443e-05,4.349831e-05,0.00012329457,-0.0008676331,-0.050308783,4988,4985,0
34589079,34587680,1114122,2228234,-0.000124179,3.780957e-05,6.7278047e-06,-0.0003127936,-0.0011101814,-0.05071458,4772,5034,0
35588346,35588049,1114122,2228234,-0.00013164533,0.00011762546,3.507241e-05,-0.00041202304,-0.00065771485,-0.04967007,4955,4983,0
38592085,38591926,1114122,2228234,-0.00013003084,7.6296e-05,3.6471607e-05,-0.0004488384,-0.0014053218,-0.048663694,5014,5011,0
39087551,39087405,1114122,2228234,-9.233881e-05,0.000112299625,2.8498993e-05,-0.0006367692,-0.00061458733,-0.049415685,5013,5025,0
39590281,39589901,1114122,2228234,-8.419096e-05,9.196858e-05,1.7217784e-05,7.888048e-05,-0.00049671286,-0.05084945,5031,5097,0
41090878,41090559,1114122,2228234,-0.00010742816,5.8111604e-05,4.2113294e-05,-0.0013741805,-0.0005447493,-0.049264573,5003,5004,0
41591053,41588323,1114122,2228234,-7.372316e-05,3.7805366e-05,7.1123253e-07,0.00025986784,-0.00088800094,-0.0497345,5004,5004,0
42590322,42588877,1114122,2228234,-2.5908063e-05,9.988609e-05,2.8510374e-05,-0.00077584264,-0.0015626675,-0.052038282,5123,5126,0
43089140,43088972,1114122,2228234,-0.00011615947,3.360421e-05,2.0841819e-05,0.00027155355,-0.00073113496,-0.049109858,4954,5023,0
43592146,43591800,1114122,2228234,-8.220384e-05,5.513126e-05,3.6252528e-05,-0.00053758133,-0.00012772164,-0.05056735,5080,5083,0
44089670,44089475,1114122,2228234,-9.799367e-05,4.8843813e-05,2.1120493e-05,-0.001257821,-0.00085080747,-0.049117032,4976,4973,0
44588156,44587263,1114122,2228234,-0.00011219814,7.701635e-05,2.0151158e-05,-0.00028177298,-0.0013463303,-0.05060038,5065,5046,0
45590407,45590158,1114122,2228234,-8.711871e-05,8.496556e-05,1.1444303e-05,2.6070351e-05,-0.0018986608,-0.04911382,4928,5014,0
46088204,46087908,1114122,2228234,-7.6215976e-05,8.115955e-05,3.4980665e-05,-0.0005039285,-0.0019736239,-0.05065878,4986,5055,0
47088678,47085875,1114122,2228234,-9.165322e-05,7.4638054e-05,5.9236622e-06,-0.0011240873,-0.0017850084,-0.049786612,4941,4971,0
48088039,48086387,1114122,2228234,-0.00012407471,5.5185265e-05,1.8516117e-05,-0.0017388859,-0.0019657991,-0.058978006,5014,5999,0
48591748,48591561,1114122,2228234,-9.142588e-05,0.00010048142,3.7432897e-06,-0.00079117855,-0.0004369895,-0.05016714,4987,5045,0
49089778,49089369,1114122,2228234,-0.00013192683,3.1968426e-05,1.1246597e-05,-0.00034232956,-0.0011433171,-0.04986558,4843,5058,0
49587343,49587063,1114122,2228234,-4.0105308e-05,9.719345e-05,5.637565e-05,-0.000554713,-0.0012004676,-0.050337102,5007,5007,0
50590318,50590016,1114122,2228234,-6.1167564e-05,9.0429596e-05,3.7370985e-05,-0.0011748569,-0.00033696165,-0.04932604,4950,5013,0
51088034,51087800,1114122,2228234,-0.0001292235,7.8456724e-05,6.894066e-06,0.00010829265,-0.0007428637,-0.04942253,5028,5030,0
51590841,51590504,1114122,2228234,-0.00012773761,6.589793e-05,1.3200959e-05,-0.0011999835,-0.00067590707,-0.04891883,4986,4986,0
53590664,53588945,1114122,2228234,-4.503595e-05,6.925043e-05,4.4980876e-05,-0.000792497,-0.00032795573,-0.050101627,4994,4991,0
55089889,55089695,1114122,2228234,-0.000103956874,2.9093422e-05,3.332265e-05,0.00016858609,-0.0011815502,-0.049033992,4984,4984,0
55587715,55587418,1114122,2228234,-0.00010739055,0.00011204597,3.4028344e-05,-0.00075431465,-0.00069937506,-0.04950852,4927,5002,0
56090405,56090178,1114122,2228234,-0.0001069925,6.384289e-05,4.568184e-05,-0.0015470013,-0.001229311,-0.04974102,5017,5018,0
56590669,56590437,1114122,2228234,-8.466668e-05,8.45785e-05,1.187509e-05,-0.0015108496,-0.00095619593,-0.048219986,5030,4960,0
60587564,60587335,1114122,2228234,-7.8320336e-05,0.00011481169,2.3993322e-05,0.00023226597,-0.00087903615,-0.04990152,4929,5026,0
61587991,61587823,1114122,2228234,-0.00011104936,3.7101727e-05,-3.0223277e-06,0.0006069333,-0.0011976642,-0.049762364,4977,4974,0
62088591,62088201,1114122,2228234,-8.281518e-05,6.0032984e-05,6.977007e-05,-0.00012179003,-0.00045347714,-0.049990248,5099,4976,0
64590156,64589317,1114122,2228234,-7.311165e-05,5.5878652e-05,3.3992295e-05,-0.0005869619,-0.0007889854,-0.04852142,4932,4852,0
65089695,65089536,1114122,2228234,-6.047292e-05,4.8968446e-05,3.8989692e-05,0.00051500706,-0.00086820294,-0.04980372,4894,4982,0
65589977,65587297,1114122,2228234,-8.913594e-05,0.00012694123,7.401535e-05,-0.0007927598,-0.00028100493,-0.049889315,4962,5029,0
66588092,66587835,1114122,2228234,-0.00010654534,7.543106e-05,4.8444366e-05,-0.0004430084,-0.0011103825,-0.0510789,5065,5064,0
67088344,67088051,1114122,2228234,-8.1511265e-05,8.055236e-05,2.6713251e-05,-0.0009718849,-0.0006137728,-0.048736576,4969,4972,0
67591005,67590767,1114122,2228234,-6.1811756e-05,4.220193e-05,6.111809e-05,9.714831e-05,-0.0008812138,-0.048946556,4901,4994,0
68088879,68088525,1114122,2228234,-2.5258549e-05,0.00010326556,2.3145574e-05,-0.0005472082,-0.00010388615,-0.04986332,5024,5023,0
71090346,71090019,1114122,2228234,-6.620904e-05,9.192833e-05,2.1794203e-05,-0.00075018563,-0.0011512807,-0.04846134,4977,4954,0
72591096,72590726,1114122,2228234,-9.3093004e-05,0.00010384668,4.374228e-05,-0.001034327,-0.0010002551,-0.049452856,4988,4988,0
74091798,74091509,1114122,2228234,-4.789268e-05,8.957673e-05,5.9462407e-05,2.0818088e-05,-0.001599884,-0.04846197,5001,5001,0
74590950,74589247,1114122,2228234,-9.062496e-05,9.405817e-05,3.3801785e-05,-0.00016272308,-0.0011223416,-0.049915455,4935,5042,0
75090737,75090564,1114122,2228234,-5.3674295e-05,6.479329e-05,4.1722513e-05,-0.00068172923,-0.0012591663,-0.051798787,5056,5245,0
75589985,75587247,1114122,2228234,-5.9957936e-05,8.334942e-05,2.5645097e-05,-0.0007047557,-0.00030524906,-0.048888404,5005,5005,0
77088339,77088011,1114122,2228234,-2.5160112e-05,7.134098e-05,1.7938188e-05,-0.0011239824,-0.0013393213,-0.05008501,4985,5049,0
79091707,79091479,1114122,2228234,-9.650973e-05,8.1795486e-05,2.3104585e-05,-0.0009515927,-0.0006775158,-0.04984275,4875,4955,0
80587567,80587340,1114122,2228234,-5.4373413e-05,3.883752e-05,2.944787e-05,-0.0004622751,-0.00088231283,-0.040013418,5087,3928,0
81091456,81090033,1114122,2228234,-0.00010648424,3.9427676e-05,3.7212063e-05,-0.00040597355,-0.0010710034,-0.04781648,4943,4867,0
84092812,84091512,1114122,2228234,-8.6925735e-05,0.000103297825,3.298217e-05,0.00062358467,-0.0010340988,-0.04938727,4950,5012,0
84590827,84589265,1114122,2228234,-0.000110946625,4.2059946e-05,5.9755308e-05,-0.00059399643,-0.0015062307,-0.049680285,4945,5015,0
85089816,85089544,1114122,2228234,-5.9777158e-05,0.000104576226,5.1969026e-05,-0.00037235025,-0.0011224245,-0.05028773,5022,5094,0
85587679,85587415,1114122,2228234,-8.930207e-05,7.930793e-05,1.4535478e-05,3.210271e-05,-0.0013307943,-0.049912844,5096,5093,0
87088368,87088037,1114122,2228234,-6.436609e-05,7.4710675e-05,2.0579237e-05,-0.00088222534,-0.0002943174,-0.05003745,4985,4984,0
89589689,89589335,1114122,2228234,-8.30559e-05,9.440283e-05,4.4423414e-06,0.00040382927,-0.0015620199,-0.04961889,4993,5003,0
90087266,90084687,1114122,2228234,-8.534811e-05,6.3882784e-05,3.1787386e-05,0.00055881083,-0.0015791293,-0.050974526,5119,5131,0
90587611,90587353,1114122,2228234,-5.1861527e-05,6.9161615e-05,7.5402136e-06,-0.0012625805,-0.0016406293,-0.051160462,5005,5090,0
91590680,91590360,1114122,2228234,1.9183177e-05,5.714711e-05,2.4297246e-05,-0.0018638455,-0.0015833036,-0.04945979,4998,4987,0
92088334,92088098,1114122,2228234,-2.9715564e-05,8.6450294e-05,5.5369695e-05,7.9913305e-05,-0.0013278167,-0.04954275,4970,4971,0
94091876,94091639,1114122,2228234,-6.1952465e-05,0.00011721287,1.3629984e-05,0.00090679136,-0.000793081,-0.04917907,4995,4995,0
94589671,94586891,1114122,2228234,-6.467273e-05,8.994554e-05,2.0607067e-05,-0.00056542474,-0.0009801738,-0.049201988,4998,5007,0
95589049,95587453,1114122,2228234,-0.00010817647,2.6505963e-05,5.14913e-05,-0.00061065186,-5.0459188e-05,-0.063924745,5032,6200,0
96087957,96087662,1114122,2228234,-0.00012372082,7.0830996e-05,1.8169732e-05,-0.001200097,-0.00057537283,-0.050306514,4974,5040,0
96590734,96590441,1114122,2228234,-8.917282e-05,8.4577965e-05,3.2186395e-05,-0.0002214136,0.00019680253,-0.049996663,4988,4988,0
97088480,97088193,1114122,2228234,-0.00011992362,4.669555e-05,2.6943986e-05,-0.00090762373,-0.0009916695,-0.04921562,4998,5001,0
98091486,98091212,1114122,2228234,-6.3104446e-05,9.6520314e-05,4.865509e-05,0.00015120978,-0.000748177,-0.04994207,4963,5041,0
98590295,98588971,1114122,2228234,-7.0061826e-05,7.781841e-05,3.0362144e-05,-0.001094358,-0.0006164499,-0.049738098,4946,5033,0
99089597,99089232,1114122,2228234,-5.1801195e-05,7.381457e-05,7.366952e-05,0.0004323781,-0.0023888985,-0.04995408,5016,5085,0
99587291,99586998,1114122,2228234,-6.92138e-05,4.4149783e-05,5.887043e-05,-0.00059243187,-0.00022332057,-0.050152637,4984,5016,0
100090082,100089831,1114122,2228234,-6.87927e-05,0.00014625349,2.7451135e-05,-0.0011883917,-0.0021029569,-0.07549385,6475,7541,0
103591938,103591619,1114122,2228234,9.3117815e-06,0.00010022045,3.100485e-05,-0.00071091595,-0.00018985923,-0.040400464,5029,4028,0
104089636,104089351,1114122,2228234,-4.8300662e-05,6.530588e-05,5.9973187e-05,0.00048457077,-0.0010339099,-0.04995141,4981,5046,0
105087659,105087376,1114122,2228234,-5.3251122e-05,8.7033106e-05,5.876007e-05,-0.00030488908,-0.0008545942,-0.04972486,4960,5025,0
105590417,105590141,1114122,2228234,-6.676076e-05,9.883943e-05,4.4979137e-05,-0.0003314741,-0.00088174356,-0.049476184,4993,5004,0
106088170,106087915,1114122,2228234,-6.2990715e-05,9.2033246e-05,8.963577e-05,-0.0007156169,-0.000105498315,-0.04941522,5015,5015,0
106590843,106588249,1114122,2228234,-5.2785446e-05,0.000112327616,7.576673e-05,0.0007524925,-0.0011435713,-0.04022217,5079,3982,0
107091181,107090951,1114122,2228234,-6.719711e-05,0.000107443935,5.436161e-05,0.00057984306,-0.0009539976,-0.047350053,4858,4888,0
107589575,107588718,1114122,2228234,-3.0906554e-05,8.966734e-05,6.751536e-05,-7.38649e-05,-0.000970025,-0.04929296,4984,4944,0
109089744,109089509,1114122,2228234,-3.8392955e-05,0.000118903205,7.047192e-05,-9.0069254e-05,-0.0018641376,-0.048827372,4997,4998,0
109587456,109587254,1114122,2228234,-1.8878975e-05,0.00010995981,1.146197e-05,-0.0011033516,0.00036464073,-0.049255747,4973,4976,0
110590544,110590314,1114122,2228234,-0.000100514255,8.215567e-05,5.2063293e-05,0.00023127033,-0.00057299604,-0.050470546,5033,5026,0
111588639,111588369,1114122,2228234,-0.00012006686,7.903821e-05,3.8528073e-05,-0.0008905036,-0.0006805974,-0.04989048,5027,4959,0
113089391,113089133,1114122,2228234,-4.7835296e-05,8.3508065e-05,8.543651e-05,-0.0007443858,-0.0013413839,-0.04894288,5013,5016,0
113589600,113589436,1114122,2228234,-7.04565e-05,5.738029e-05,5.010045e-05,-0.0006695985,0.00022210779,-0.049650423,5000,4999,0
114590158,114589922,1114122,2228234,-6.2668005e-05,0.00011766705,4.038103e-05,-0.00019429234,-0.00050657894,-0.049506746,4924,5029,0
115590685,115590520,1114122,2228234,-5.1459472e-05,0.00016776382,5.2017473e-05,-0.00059765147,-0.0008053952,-0.04855989,4995,4995,0
116090995,116090775,1114122,2228234,-5.0630195e-05,0.00013871078,5.3924854e-05,-0.0006826248,-0.001239666,-0.049481012,5037,4972,0
118092159,118091933,1114122,2228234,1.2399242e-06,0.00011991602,7.145037e-05,-0.00045656643,-0.0016410723,-0.0483563,5088,4921,0
118589873,118589620,1114122,2228234,-9.889657e-05,7.772289e-05,4.5328856e-05,-0.0007183713,-0.0007658947,-0.05892798,5028,5987,0
119090097,119089865,1114122,2228234,-6.735574e-05,0.00010135291,3.4534645e-05,-0.0009503018,-0.0016537344,-0.049336623,4983,5049,0
120090681,120090419,1114122,2228234,-1.3371694e-05,0.00013299848,5.76164e-05,-0.0011733513,0.00044914067,-0.04973644,5003,5003,0
122089190,122086502,1114122,2228234,-6.6388966e-05,0.00011329514,7.150229e-05,-0.00068206794,-0.00022780869,-0.048422243,4915,4915,0
122589584,122589294,1114122,2228234,-3.0072326e-05,0.00010236794,8.36714e-05,-0.0010193267,-0.00074067916,-0.05021716,5008,5033,0
123088591,123087167,1114122,2228234,-7.848612e-05,8.383e-05,6.491772e-05,-0.0005207117,-0.001100938,-0.050768442,5106,5111,0
123590133,123589903,1114122,2228234,0.000104824525,0.00011218561,8.497917e-05,0.0005360682,-0.0017310511,-0.049395844,5049,4981,0
126091520,126091221,1114122,2228234,0.00039638655,0.0001353761,7.6577926e-05,-0.0011134899,-0.0017585467,-0.04991639,5002,4998,0
127091998,127091795,1114122,2228234,-2.280509e-05,0.00014933897,4.8797152e-05,-0.00041524757,-0.0012976683,-0.05012406,5023,5022,0
128590517,128590381,1114122,2228234,3.4373377e-06,0.00012832368,4.851456e-05,-0.00051226007,-0.0017731439,-0.049583167,5005,4998,0
130088689,130088482,1114122,2228234,8.098392e-05,8.8111374e-05,8.842404e-05,-0.00039976748,-0.00084307673,-0.05017668,5035,5035,0
131086726,131086508,1114122,2228234,-1.6244684e-06,6.1553605e-05,5.0170886e-05,-0.0008413847,-0.00035544558,-0.05002889,4913,5007,0
131592142,131591841,1114122,2228234,-0.00013578648,5.6636345e-05,5.424837e-05,-0.0004568122,0.00014626452,-0.049310483,5034,4968,0
132590060,132589856,1114122,2228234,2.0176594e-05,0.000109742,6.0308434e-05,0.00065885007,-0.0005537649,-0.051074136,4966,5031,0
134090966,134090740,1114122,2228234,-0.00019214061,4.5768353e-05,2.6571093e-05,-0.00078651955,-0.0012406165,-0.049666233,5043,4908,0
134588719,134588513,1114122,2228234,-1.700942e-05,6.431199e-05,4.7439757e-05,-0.00074087555,-0.0011380049,-0.048885614,5040,4963,0
135090179,135088831,1114122,2228234,-0.0004767397,0.00013252588,6.660912e-05,-0.0009394991,-0.000827276,-0.050088473,4817,5080,0
135591837,135591589,1114122,2228234,-0.00021047783,6.4411564e-05,6.6722205e-05,-0.0005555828,0.0003909031,-0.049479038,5007,5009,0
136089733,136089445,1114122,2228234,-6.619841e-05,8.909729e-05,4.597885e-05,-3.181836e-05,-0.0004895619,-0.05063953,5087,5106,0
137087874,137087524,1114122,2228234,-0.00010204941,6.393956e-05,2.491526e-05,-0.00022056323,-0.00031398883,-0.04925562,5104,4966,0
139591598,139591337,1114122,2228234,-3.4125045e-05,0.00012264437,4.9591148e-05,-0.00032883653,-0.0005849077,-0.048998676,4974,4980,0
141087444,141087173,1114122,2228234,-3.4840077e-06,7.429263e-05,4.8078033e-05,-0.00049125595,-0.00024593074,-0.04900797,4936,4935,0
142590715,142590544,1114122,2228234,3.0397294e-05,0.00012257566,1.9178617e-05,-0.0012562482,-0.0021001,-0.06017559,4999,6007,0
143591341,143591147,1114122,2228234,-3.6469497e-05,8.6723245e-05,2.7475035e-05,-0.000600054,-0.0013430581,-0.04731711,5042,4924,0
144091625,144091377,1114122,2228234,-3.3365417e-05,0.00012150346,2.793591e-05,-6.2496997e-07,-0.0007892966,-0.049133923,4984,4988,0
145588950,145587350,1114122,2228234,-4.9328515e-05,9.207009e-05,4.519029e-05,-0.00040563417,-0.0012891287,-0.050709207,5131,5034,0
146588309,146585342,1114122,2228234,-4.6275283e-05,8.8899724e-05,5.329271e-05,-0.0010710581,-0.001283926,-0.04966537,5007,5082,0
147591100,147588528,1114122,2228234,-2.4340356e-05,8.552618e-05,7.457931e-05,0.00011885268,-0.0007261782,-0.050229304,5110,5061,0
148589794,148588941,1114122,2228234,-6.0184095e-05,6.688594e-05,8.021556e-05,-0.0009510034,-0.0005854534,-0.049298126,4970,5032,0
151088190,151087935,1114122,2228234,-9.295174e-05,9.754028e-05,2.549345e-05,-0.000586901,-0.0009826907,-0.050693825,5070,5070,0
151588495,151588202,1114122,2228234,-9.7424556e-05,7.6201504e-05,3.8648235e-05,0.00025765857,-0.0010687271,-0.05078329,5056,5069,0
152591444,152591233,1114122,2228234,-4.7151498e-05,7.231213e-05,4.680372e-05,-0.00041197496,-0.0017692491,-0.048871987,4971,5038,0
153089414,153089034,1114122,2228234,-5.581491e-05,0.00010930122,4.2061565e-05,-0.00012268175,-0.0010546409,-0.04981549,4993,4983,0
153592192,153591885,1114122,2228234,-1.16981555e-05,0.00012480083,4.6679634e-05,8.9612215e-05,-0.0009821837,-0.049958628,5091,5108,0
155087873,155087657,1114122,2228234,1.2568977e-06,0.00011944069,2.9935192e-05,-0.0010747199,-0.0013442932,-0.048522186,4963,4964,0
155588210,155587937,1114122,2228234,-3.0883446e-05,8.7698805e-05,6.35603e-05,-0.0013948627,-0.00060155377,-0.049491897,5005,5005,0
157089392,157088904,1114122,2228234,-1.4793924e-05,6.301003e-05,2.742893e-05,-0.0002905614,-0.0014721754,-0.051150158,5054,5144,0
158092176,158091917,1114122,2228234,-6.2886174e-05,9.155697e-05,5.0830156e-05,0.0007275015,-0.001462086,-0.049873322,5001,5007,0
159090208,159089941,1114122,2228234,-5.075689e-05,9.408559e-05,4.3535543e-05,-0.00086181995,-0.001183122,-0.048854243,4965,5030,0
160088391,160088027,1114122,2228234,-6.669183e-05,9.3310795e-05,3.815641e-05,-0.0006912311,-0.0005170581,-0.038393483,5006,3896,0
160591136,160590843,1114122,2228234,-7.364712e-05,0.00010529111,4.465318e-05,-0.0014915933,-0.000100226156,-0.050350435,5024,5138,0
161088923,161088621,1114122,2228234,-4.1036354e-05,6.9111906e-05,5.3389496e-05,8.343127e-05,-0.00064634247,-0.039794028,5005,3952,0
163090103,163089775,1114122,2228234,-4.528118e-05,9.469527e-05,4.3523232e-05,-9.8490156e-05,-0.0015902135,-0.049171124,5011,4949,0
165588999,165588775,1114122,2228234,-1.637347e-05,0.00011749855,2.1873293e-05,-0.0011923454,-0.0010189653,-0.04990563,5076,5002,0
166091712,166091485,1114122,2228234,-6.2684434e-05,0.0001036622,4.6497138e-05,-0.0009304418,-0.00032501775,-0.049038384,4957,5023,0
168591178,168590437,1114122,2228234,0.00022517025,0.00013953912,5.239768e-05,-0.00065625494,-0.0018606957,-0.051245157,4913,4978,0
170591835,170591587,1114122,2228234,-5.336711e-05,0.00010445093,9.546796e-06,-0.00082708866,-0.0005969075,-0.0493728,4966,5042,0
171087092,171086879,1114122,2228234,-0.00013857555,0.00010149371,5.7728503e-05,-0.0011849677,-0.00027318523,-0.048568636,4982,4982,0
171590128,171589738,1114122,2228234,-7.823148e-05,6.721876e-05,2.0651225e-05,-0.0005750378,-0.00096820353,-0.05093006,5060,5088,0
172087703,172084980,1114122,2228234,-4.7411973e-05,0.00013001556,4.651214e-05,0.0003305226,-0.001917217,-0.04745808,4986,4890,0
172588013,172587751,1114122,2228234,3.0989013e-05,7.020785e-05,5.3204607e-05,-0.0005418344,-0.00078683154,-0.04914145,4953,5029,0
173591398,173590956,1114122,2228234,-5.1287905e-05,9.701568e-05,1.7467253e-05,-0.0008258422,-0.0005317722,-0.05021823,5118,5039,0
174089551,174088630,1114122,2228234,-1.6731694e-05,5.3686384e-05,2.7477936e-05,-0.00039582397,-0.0013955676,-0.050589293,4918,4969,0
175092005,175091694,1114122,2228234,-4.421977e-05,7.564891e-05,2.8277846e-05,7.4885764e-05,-0.00048703313,-0.049964327,4988,4988,0
175592289,175592031,1114122,2228234,-7.138775e-05,0.00012557919,2.628586e-05,-0.00071768794,-0.0013174665,-0.048438977,5039,4944,0
176090071,176089809,1114122,2228234,-6.471635e-05,0.00011003397,3.8934282e-05,-0.0016215064,-0.0015309686,-0.04716771,4945,4865,0
177088265,177087890,1114122,2228234,-9.420259e-05,8.676489e-05,1.86319e-05,-0.0010060425,-0.0003735805,-0.04884345,4890,4984,0
177590904,177590662,1114122,2228234,-3.6336234e-05,0.00010978136,4.510442e-05,-0.0013965138,-0.0010541045,-0.04866001,5011,5007,0
178589156,178588772,1114122,2228234,-4.1772684e-05,9.061518e-05,5.2439154e-05,-0.00027378305,-0.00082335237,-0.04974897,5003,4928,0
179592169,179591841,1114122,2228234,-4.160553e-05,6.593817e-05,4.8281363e-05,-0.0013173135,-0.00069107197,-0.049531363,5015,5015,0
180591052,180590902,1114122,2228234,-3.3262277e-05,0.000115545954,1.9166653e-05,-0.000112783906,-0.0013995568,-0.05160373,5006,5297,0
181088115,181087754,1114122,2228234,-4.2321248e-05,0.00011454678,7.054054e-05,-0.0015082171,-0.0015875917,-0.049522083,5046,4979,0
182088501,182085778,1114122,2228234,1.7214794e-05,0.00011454872,5.3126896e-05,-0.0010995852,-0.0010754967,-0.049099114,4953,4951,0
183091600,183088977,1114122,2228234,-5.8019214e-05,8.418794e-05,5.5349086e-05,-0.0005854813,-0.00081523333,-0.05041731,5065,5048,0
183592006,183591680,1114122,2228234,-1.1231446e-05,0.00011747892,5.7635694e-05,0.00014745581,-0.0009814149,-0.050590217,4998,5064,0
184590020,184589762,1114122,2228234,-2.7143178e-05,9.8558965e-05,7.1620525e-05,-0.0002912883,-0.000945773,-0.048926495,5023,5023,0
185588147,185587895,1114122,2228234,-3.0904805e-05,8.797619e-05,4.5489138e-05,-0.00089895364,-0.0010610592,-0.047016606,4958,4946,0
186090897,186090635,1114122,2228234,-4.3780867e-05,8.1490616e-05,2.5648818e-05,-0.0011931632,-0.0007089806,-0.04999388,4975,5053,0
186586103,186585912,1114122,2228234,-2.1370957e-05,0.00011091953,5.344154e-05,-0.00086725404,-0.0005199542,-0.048088305,4987,4986,0
187588057,187586515,1114122,2228234,5.4234668e-05,0.00010171062,5.1901778e-05,-0.00059833576,-0.0009261713,-0.049214624,4972,4969,0
188089573,188089305,1114122,2228234,-0.0001273732,5.517012e-05,2.8697921e-05,-0.0006232992,-0.0016287309,-0.050733518,4998,5109,0
188589848,188589591,1114122,2228234,-2.6831118e-05,8.972603e-05,5.142455e-05,-0.00016351153,-0.0011132542,-0.049503393,4990,4989,0
189587966,189587747,1114122,2228234,-6.0507416e-05,7.20482e-05,5.4441527e-05,-0.0012583674,-0.0013096405,-0.048995305,4999,5012,0
190090750,190090498,1114122,2228234,-5.7105823e-05,7.053677e-05,3.2876032e-05,0.00037454913,-0.001169538,-0.04904921,4980,4912,0
192589652,192589458,1114122,2228234,-0.00017937599,5.832401e-05,3.511151e-05,-5.4849883e-05,-0.0012435565,-0.04951418,5013,5013,0
193090708,193089738,1114122,2228234,-0.0002326335,8.0415506e-05,3.4760236e-05,-0.00056252617,-0.0012615251,-0.0481367,4914,4900,0
194590849,194590618,1114122,2228234,-0.00012317789,7.279725e-05,6.281473e-05,0.00013836974,-0.0024566639,-0.048750717,4945,5011,0
195588960,195588739,1114122,2228234,-7.936647e-06,9.182274e-05,2.6673193e-05,-0.00025509312,-0.00054583646,-0.050303277,5037,5034,0
196091708,196091514,1114122,2228234,-2.4430077e-05,5.2442505e-05,2.4770383e-05,-0.0010717594,-0.0011043414,-0.049172606,5015,5015,0
196587162,196586914,1114122,2228234,-5.945859e-05,0.00013030684,5.7396355e-05,-0.0005398904,-0.0006143044,-0.049863555,5106,5026,0
197088361,197088107,1114122,2228234,-6.177116e-05,0.00010059738,4.842019e-05,-0.00061988295,-0.00042054296,-0.050964203,5014,5261,0
198087889,198087674,1114122,2228234,-7.688607e-05,7.1585666e-05,3.9570547e-05,-0.0018385957,-4.31448e-05,-0.050105143,4981,4981,0
198588310,198587997,1114122,2228234,-2.6993237e-05,0.000107482774,2.9229235e-05,-0.0006898258,-0.00092118414,-0.04803594,4984,4850,0
199091188,199090826,1114122,2228234,-2.7085965e-05,0.000101200065,1.1604537e-05,-0.0003611042,-0.0005643204,-0.0507731,5007,5094,0
199591477,199591104,1114122,2228234,-3.3358225e-05,9.203186e-05,6.6551256e-05,-0.0020971354,-0.0012919905,-0.04981943,5043,5045,0
200089114,200088862,1114122,2228234,-5.8514916e-06,5.5797067e-05,4.4888584e-05,-0.0008373097,-0.0016108654,-0.049405966,4985,4984,0
202087789,202085056,1114122,2228234,-2.774191e-05,7.209937e-05,2.0431637e-05,-0.0005731871,-0.000349961,-0.04893467,5008,5008,0
203088534,203088379,1114122,2228234,3.4913999e-06,9.371823e-05,3.6982266e-05,-0.001061145,-0.00073095,-0.04945027,5214,5002,0
203591258,203590956,1114122,2228234,6.8352783e-06,0.00010962379,4.9667047e-05,-0.00048844086,-0.0017018507,-0.048250414,5036,5049,0
204091639,204091287,1114122,2228234,1.761777e-05,0.00010747508,2.046867e-05,-0.0012042234,-0.0006334233,-0.050225362,4769,4984,0
204589335,204589008,1114122,2228234,-5.5384313e-05,0.00011642802,6.474268e-05,0.0005607092,-0.0013808713,-0.050029624,4995,5059,0
206090150,206089897,1114122,2228234,2.5407842e-05,0.00011636787,2.5379097e-05,-0.0006526283,-0.00042747316,-0.048771955,4988,4989,0
206589143,206587796,1114122,2228234,-8.165665e-06,7.933072e-05,1.741903e-05,-0.00041326336,-0.0012867119,-0.049864452,5074,5089,0
207591184,207588393,1114122,2228234,-2.4846657e-05,8.265197e-05,4.6824076e-05,-0.00092069956,-0.0011512465,-0.051072124,5050,5126,0
208091398,208091105,1114122,2228234,-3.9214396e-05,0.000105982945,5.5940433e-05,-0.0007804463,-9.69876e-05,-0.049402885,5024,5024,0
209592251,209591984,1114122,2228234,-0.00010457042,6.346275e-05,6.959198e-05,0.00026363228,-0.0010081687,-0.047684867,4986,4897,0
211085614,211085401,1114122,2228234,-6.497869e-05,0.0001226913,6.7710665e-05,-0.00046470243,-0.00045209329,-0.04962545,5012,5024,0
211588525,211588198,1114122,2228234,-4.0076364e-05,8.322311e-05,4.7456586e-05,-0.0007828858,-0.0016968228,-0.059061754,5018,6065,0
212591540,212591293,1114122,2228234,-2.7257023e-05,9.137947e-05,4.10365e-05,-0.0014801079,-0.0010242984,-0.047777057,4914,4890,0
213589663,213589411,1114122,2228234,-3.2671946e-05,9.657383e-05,2.0469488e-05,-0.00088712614,-0.0014023173,-0.059661806,5023,5975,0
214087462,214087204,1114122,2228234,-1.6939734e-05,0.00010574825,4.5475917e-05,-0.0005575185,-0.0010818504,-0.050077744,5034,4956,0
214587783,214587494,1114122,2228234,-1.1980225e-05,9.765083e-05,3.0448058e-05,0.0005787429,0.0001811262,-0.05022127,5002,5070,0
215588291,215588077,1114122,2228234,-3.5497877e-05,9.2327784e-05,3.3768883e-05,-7.896622e-05,-0.0020174133,-0.04885295,4909,4895,0
216088651,216088421,1114122,2228234,-3.9533872e-05,0.000100168094,5.8164766e-05,-0.0011409882,-0.0008533536,-0.050016485,5063,4937,0
218587627,218587391,1114122,2228234,-3.3656957e-05,6.420683e-05,4.156836e-05,-0.00022056786,-0.0008890084,-0.048065472,5013,4871,0
219090426,219090226,1114122,2228234,-4.714546e-05,7.0611226e-05,7.083249e-05,-0.00065767264,-0.0013163729,-0.049928773,5040,5106,0
220588821,220588566,1114122,2228234,-3.390879e-05,0.00011412922,5.0593488e-05,-0.0009464947,-0.00048968225,-0.048482224,4926,4941,0
221086651,221086357,1114122,2228234,-4.2851425e-05,8.290811e-05,4.58013e-05,0.00034907155,-0.0013394338,-0.0490327,4994,4931,0
222091131,222089516,1114122,2228234,-2.9024375e-05,0.000112811365,2.9561532e-05,0.00033528297,-0.001691747,-0.04975808,5080,5071,0
224588648,224588437,1114122,2228234,-1.1896906e-05,0.000107587504,2.8014101e-05,-0.00085731625,-0.0024603892,-0.04884041,4982,4989,0
225088999,225088742,1114122,2228234,-4.311309e-06,5.5275243e-05,7.5153024e-05,-0.0003451118,-0.0015876563,-0.05039735,4976,5042,0
226092209,226091899,1114122,2228234,-4.751439e-05,4.9543643e-05,6.412987e-05,-0.0005265423,-0.0007337593,-0.04820763,5066,4975,0
227090138,227089935,1114122,2228234,-3.766034e-05,4.18715e-05,3.6192556e-05,0.00033129982,-0.0018443845,-0.05006961,4938,5004,0
228591328,228591020,1114122,2228234,-0.00016131063,4.902871e-05,-2.1408609e-05,-0.0013318105,-0.0012353784,-0.04984079,5172,5076,0
229088911,229088658,1114122,2228234,-8.779978e-05,9.8554876e-05,4.8766407e-05,-0.00035385825,-0.00063792575,-0.039687727,5020,4030,0
229591849,229591539,1114122,2228234,0.00016811385,0.0001158734,8.901271e-05,-0.0017711824,-0.00091221556,-0.05108608,5078,5092,0
230092160,230091854,1114122,2228234,-5.6711324e-05,8.172385e-05,4.707157e-05,-0.00074257364,-0.00046484236,-0.051323995,5094,5112,0
231090153,231089877,1114122,2228234,-0.0002717335,5.1046703e-05,2.9589655e-05,-0.0006842033,-0.0018214623,-0.04875855,5029,4963,0
233091511,233091119,1114122,2228234,0.00016083612,8.4508894e-05,9.309845e-06,-0.0009470218,-0.0014881451,-0.04911104,5009,4915,0
233589131,233588928,1114122,2228234,-6.404549e-06,8.256048e-05,8.58055e-05,-0.0020418493,-0.0018334343,-0.05980025,5034,6129,0
234089402,234089156,1114122,2228234,-4.8817277e-05,8.640982e-05,8.7243694e-05,-0.0009804362,-0.00049015705,-0.04978871,4972,5040,0
234592269,234591964,1114122,2228234,-0.00013113406,8.45342e-05,-2.2726554e-06,-0.0010842211,-0.0009891734,-0.047074378,4920,4917,0
235590464,235590214,1114122,2228234,-5.0634273e-05,5.5157743e-05,9.311052e-05,-0.0007200584,-0.0017071579,-0.06080659,5169,6096,0
236588727,236588256,1114122,2228234,-1.0934147e-05,0.00011100573,1.8670122e-05,-0.0013890446,-0.0010907168,-0.050555658,5086,5116,0
237091150,237090982,1114122,2228234,-4.6837096e-05,2.6447013e-05,4.036719e-05,-0.00081068726,-0.0013166597,-0.048626624,4922,4907,0
237588029,237586313,1114122,2228234,-5.1857387e-06,6.8665264e-05,7.678589e-05,0.00042550117,-0.0011579228,-0.04901392,4965,4993,0
239087376,239087197,1114122,2228234,0.00016443955,4.379447e-05,4.684218e-05,-0.00025382754,-0.0004274415,-0.047885977,4933,4912,0
241589124,241588879,1114122,2228234,1.2752326e-05,0.00015749373,1.4968431e-05,-7.9630336e-05,-0.0019015985,-0.048840232,5036,4966,0
242093190,242091700,1114122,2228234,-2.4076284e-05,9.4792515e-05,3.4385946e-05,-0.0006196792,-0.0008104962,-0.048205085,5034,4967,0
242592303,242591974,1114122,2228234,-5.0763443e-05,0.00012557543,6.755145e-05,-0.00027987215,-0.0008079737,-0.049977552,5010,5003,0
243089959,243089750,1114122,2228234,-5.3897234e-05,8.8911685e-05,2.677974e-05,-5.8976828e-05,-0.0015024957,-0.049150214,5018,5012,0
243590240,243590086,1114122,2228234,6.2604336e-06,6.975688e-05,5.147485e-05,0.00050213345,-0.0011703488,-0.05002829,5066,4982,0
244089607,244087995,1114122,2228234,-3.863963e-05,8.592667e-05,3.6564925e-05,-0.000849124,-0.0010847267,-0.049289104,5108,5127,0
