timestamp,ref_timestamp,ref_lat,ref_lon,x,y,z,delta_xy[0],delta_xy[1],delta_z,vx,vy,vz,z_deriv,delta_vxy[0],delta_vxy[1],delta_vz,ax,ay,az,heading,delta_heading,ref_alt,dist_bottom,eph,epv,evh,evv,vxy_max,vz_max,hagl_min,hagl_max,xy_valid,z_valid,v_xy_valid,v_z_valid,xy_reset_counter,z_reset_counter,vxy_reset_counter,vz_reset_counter,heading_reset_counter,xy_global,z_global,dist_bottom_valid
10125875,0,0.0,0.0,0.0,0.0,-1.2155514,3.2243716e-07,3.31982e-07,0.0,-0.00026194117,0.0013544472,-0.238519,-0.27903867,6.448743e-05,6.63964e-05,0.0,-0.04125547,0.00014372253,0.03310932,-0.12427584,0.0002478313,0.0,0.1949445,0.50425583,0.783518,0.6434876,0.42183372,inf,inf,inf,inf,0,1,0,1,1,0,1,0,2,0,0,1
10526066,0,0.0,0.0,0.0,0.0,-1.2702531,3.2243716e-07,3.31982e-07,0.0,0.00055048283,-0.00021705953,-0.23053345,-0.22918622,6.448743e-05,6.63964e-05,0.0,0.00813913,0.026713828,-0.018725835,-0.124388576,0.0002478313,0.0,0.17328763,0.47029656,0.7825393,0.51963395,0.4090008,inf,inf,inf,inf,0,1,0,1,1,0,1,0,2,0,0,1
10626076,0,0.0,0.0,0.0,0.0,-1.2884407,3.2243716e-07,3.31982e-07,0.0,0.0012803052,-0.0012550458,-0.23026435,-0.22612986,6.448743e-05,6.63964e-05,0.0,-0.24058382,-0.07630456,-0.12873252,-0.124359205,0.0002478313,0.0,0.16464186,0.4171837,0.77744454,0.48082992,0.40412027,inf,inf,inf,inf,0,1,0,1,1,0,1,0,2,0,0,1
11426417,0,0.0,0.0,0.0,0.0,-1.4725611,3.2243716e-07,3.31982e-07,0.0,-0.0010467368,0.00019096705,-0.24048176,-0.24306862,6.448743e-05,6.63964e-05,0.0,-0.02526555,-0.034156594,-0.020706099,-0.12471497,0.0002478313,0.0,0.14675832,0.40504783,0.7568178,0.5538418,0.3737611,inf,inf,inf,inf,0,1,0,1,1,0,1,0,2,0,0,1
11526460,0,0.0,0.0,0.0,0.0,-1.4981014,3.2243716e-07,3.31982e-07,0.0,-0.0009874897,0.0006728909,-0.2420185,-0.24652444,6.448743e-05,6.63964e-05,0.0,0.026853768,0.006029256,0.013152119,-0.124760725,0.0002478313,0.0,0.15077078,0.449166,0.7521104,0.5948312,0.36937785,inf,inf,inf,inf,0,1,0,1,1,0,1,0,2,0,0,1
11626506,0,0.0,0.0,0.0,0.0,-1.5230286,3.2243716e-07,3.31982e-07,0.0,-0.0015530845,0.00040787616,-0.24416034,-0.2495246,6.448743e-05,6.63964e-05,0.0,-0.004703458,-0.020345908,0.0071495473,-0.124805085,0.0002478313,0.0,0.15001798,0.4090348,0.76519614,0.56138724,0.37114012,inf,inf,inf,inf,0,1,0,1,1,0,1,0,2,0,0,1
11926635,0,0.0,0.0,0.0,0.0,-1.5935159,3.2243716e-07,3.31982e-07,0.0,-0.0027123273,1.8811172e-05,-0.24659012,-0.24857602,6.448743e-05,6.63964e-05,0.0,-0.004293021,-0.0041732895,0.010379114,-0.124860264,0.0002478313,0.0,0.15583098,0.45951548,0.75103545,0.5933567,0.3582367,inf,inf,inf,inf,0,1,0,1,1,0,1,0,2,0,0,1
12026679,0,0.0,0.0,0.0,0.0,-1.615176,3.2243716e-07,3.31982e-07,0.0,-0.002928161,-0.000106902495,-0.247428,-0.24687958,6.448743e-05,6.63964e-05,0.0,-0.010142322,-0.047927525,-0.025820319,-0.124841146,0.0002478313,0.0,0.15675437,0.41567546,0.74639446,0.5451484,0.3540273,inf,inf,inf,inf,0,1,0,1,1,0,1,0,2,0,0,1
12126712,0,0.0,0.0,0.0,0.0,-1.6368309,3.2243716e-07,3.31982e-07,0.0,-0.0036745109,0.000723021,-0.24797525,-0.24518086,6.448743e-05,6.63964e-05,0.0,0.0038998155,0.034866154,-0.010318137,-0.12482731,0.0002478313,0.0,0.15493786,0.461927,0.741885,0.5768223,0.34990823,inf,inf,inf,inf,0,1,0,1,1,0,1,0,2,0,0,1
12326798,0,0.0,0.0,0.0,0.0,-1.6797992,3.2243716e-07,3.31982e-07,0.0,-0.0037011849,0.0012177323,-0.24797727,-0.2407146,6.448743e-05,6.63964e-05,0.0,-0.007400727,0.023917712,0.009725946,-0.12476039,0.0002478313,0.0,0.1595329,0.4616424,0.7495973,0.552903,0.34726822,inf,inf,inf,inf,0,1,0,1,1,0,1,0,2,0,0,1
12526888,0,0.0,0.0,0.0,0.0,-1.7115365,3.2243716e-07,3.31982e-07,0.0,-0.0027972942,0.0019470792,-0.24409834,-0.22280678,6.448743e-05,6.63964e-05,0.0,0.0055961045,0.0041075954,-0.008181452,-0.12472059,0.0002478313,0.0,0.17892992,0.45882633,0.7404549,0.52446985,0.33917218,inf,inf,inf,inf,0,1,0,1,1,0,1,0,2,0,0,1
12626926,0,0.0,0.0,0.0,0.0,-1.7233651,3.2243716e-07,3.31982e-07,0.0,-0.0024462733,0.0019105007,-0.24109176,-0.21072708,6.448743e-05,6.63964e-05,0.0,-0.015208461,0.009895107,-0.010103685,-0.12470923,0.0002478313,0.0,0.17194164,0.41267118,0.735883,0.4722134,0.33516636,inf,inf,inf,inf,0,1,0,1,1,0,1,0,2,0,0,1
12726979,0,0.0,0.0,0.0,0.0,-1.7363172,3.2243716e-07,3.31982e-07,0.0,-0.0025608733,0.0013989663,-0.23797299,-0.20101266,6.448743e-05,6.63964e-05,0.0,-0.0074446974,-0.0138095785,-0.020232715,-0.12470643,0.0002478313,0.0,0.17426145,0.4539504,0.7314358,0.49412334,0.33124593,inf,inf,inf,inf,0,1,0,1,1,0,1,0,2,0,0,1
13327234,0,0.0,0.0,0.0,0.0,-1.82159,3.2243716e-07,3.31982e-07,0.0,-0.0017882001,0.0011065225,-0.22684082,-0.17090994,6.448743e-05,6.63964e-05,0.0,0.012469953,-0.0022613837,-0.01718673,-0.124717034,0.0002478313,0.0,0.17490709,0.4324793,0.7203169,0.40963933,0.31324896,inf,inf,inf,inf,0,1,0,1,1,0,1,0,2,0,0,1
13527313,0,0.0,0.0,0.0,0.0,-1.8446058,3.2243716e-07,3.31982e-07,0.0,-0.0013962983,0.0011052166,-0.22092725,-0.15789665,6.448743e-05,6.63964e-05,0.0,-0.032671917,-0.009522238,-0.0029611392,-0.12463374,0.0002478313,0.0,0.15257561,0.4245855,0.7266563,0.38759345,0.31053856,inf,inf,inf,inf,0,1,0,1,1,0,1,0,2,0,0,1
13627356,0,0.0,0.0,0.0,0.0,-1.8581368,3.2243716e-07,3.31982e-07,0.0,-0.0013538643,0.0004499829,-0.21862972,-0.15487316,6.448743e-05,6.63964e-05,0.0,-0.0051028393,0.005443861,0.043872815,-0.12457791,0.0002478313,0.0,0.15077376,0.3860097,0.7220986,0.35454938,0.30684978,inf,inf,inf,inf,0,1,0,1,1,0,1,0,2,0,0,1
13727398,0,0.0,0.0,0.0,0.0,-1.872536,3.2243716e-07,3.31982e-07,0.0,-0.001015493,0.0005424925,-0.2168546,-0.15349452,6.448743e-05,6.63964e-05,0.0,-0.02379034,-0.008708662,0.0010375328,-0.124542,0.0002478313,0.0,0.14349055,0.41691947,0.71766907,0.36985725,0.30324656,inf,inf,inf,inf,0,1,0,1,1,0,1,0,2,0,0,1
13927484,0,0.0,0.0,0.0,0.0,-1.9030913,3.2243716e-07,3.31982e-07,0.0,-0.00049794244,0.001362778,-0.21480794,-0.15395984,6.448743e-05,6.63964e-05,0.0,-0.0044011446,0.0059553306,-0.022404794,-0.124534704,0.0002478313,0.0,0.14003444,0.40976423,0.70897055,0.35695878,0.29620054,inf,inf,inf,inf,0,1,0,1,1,0,1,0,2,0,0,1
14027524,0,0.0,0.0,0.0,0.0,-1.9195266,3.2243716e-07,3.31982e-07,0.0,-8.883956e-05,0.00090303726,-0.213551,-0.15481885,6.448743e-05,6.63964e-05,0.0,0.013083552,0.02130283,-0.008491529,-0.12452945,0.0002478313,0.0,0.1424371,0.3750095,0.7046986,0.3326618,0.29275608,inf,inf,inf,inf,0,1,0,1,1,0,1,0,2,0,0,1
14127573,0,0.0,0.0,0.0,0.0,-1.9355723,3.2243716e-07,3.31982e-07,0.0,0.001100041,0.0007084908,-0.21206032,-0.15490936,6.448743e-05,6.63964e-05,0.0,0.009412698,-0.018069025,0.011081144,-0.12453164,0.0002478313,0.0,0.14494681,0.40338185,0.7005407,0.34919947,0.28938922,inf,inf,inf,inf,0,1,0,1,1,0,1,0,2,0,0,1
14227606,0,0.0,0.0,0.0,0.0,-1.9511063,3.2243716e-07,3.31982e-07,0.0,0.0008515372,0.00062012987,-0.21057412,-0.15445726,6.448743e-05,6.63964e-05,0.0,-0.015349391,-0.0071325907,-0.046171043,-0.124558486,0.0002478313,0.0,0.1406802,0.37038204,0.69649184,0.32885817,0.28609732,inf,inf,inf,inf,0,1,0,1,1,0,1,0,2,0,0,1
14527746,0,0.0,0.0,0.0,0.0,-2.0045125,3.2243716e-07,3.31982e-07,0.0,0.0011619234,0.00070565566,-0.2105709,-0.1630141,6.448743e-05,6.63964e-05,0.0,0.021259606,-8.6401036e-05,0.00088027556,-0.124619685,0.0002478313,0.0,0.12953186,0.39389187,0.69816697,0.34893978,0.28040427,inf,inf,inf,inf,0,1,0,1,1,0,1,0,2,0,0,1
14727829,0,0.0,0.0,0.0,0.0,-2.0458064,3.2243716e-07,3.31982e-07,0.0,0.0018084164,0.0010703887,-0.21180402,-0.1732864,6.448743e-05,6.63964e-05,0.0,0.011776926,-0.035054326,-0.028643224,-0.12463554,0.0002478313,0.0,0.12759316,0.391201,0.6900684,0.35569578,0.27408683,inf,inf,inf,inf,0,1,0,1,1,0,1,0,2,0,0,1
14827883,0,0.0,0.0,0.0,0.0,-2.0674088,3.2243716e-07,3.31982e-07,0.0,0.0014068607,0.0009768041,-0.21246395,-0.17849116,6.448743e-05,6.63964e-05,0.0,-0.021627212,-0.049026627,-0.02463565,-0.12464144,0.0002478313,0.0,0.12976468,0.36231434,0.68612796,0.34369433,0.27101538,inf,inf,inf,inf,0,1,0,1,1,0,1,0,2,0,0,1
15128010,0,0.0,0.0,0.0,0.0,-2.1357782,3.2243716e-07,3.31982e-07,0.0,0.0023621146,0.0007669631,-0.21587378,-0.19531487,6.448743e-05,6.63964e-05,0.0,0.007406472,-0.010457158,-0.014441086,-0.12464615,0.0002478313,0.0,0.12528396,0.39055437,0.68761504,0.378874,0.26570547,inf,inf,inf,inf,0,1,0,1,1,0,1,0,2,0,0,1
15428126,0,0.0,0.0,0.0,0.0,-2.2182977,3.2243716e-07,3.31982e-07,0.0,0.0036403427,0.0019194017,-0.22363587,-0.22323917,6.448743e-05,6.63964e-05,0.0,-0.010500222,0.01387048,-0.013292085,-0.12467383,0.0002478313,0.0,0.11968827,0.36508185,0.6759873,0.3814467,0.25699633,inf,inf,inf,inf,0,1,0,1,1,0,1,0,2,0,0,1
15728269,0,0.0,0.0,0.0,0.0,-2.2985096,3.2243716e-07,3.31982e-07,0.0,0.0042814524,0.002889219,-0.22788857,-0.23739599,6.448743e-05,6.63964e-05,0.0,0.02038161,-0.04474663,-0.018212155,-0.12473112,0.0002478313,0.0,0.1290667,0.4001332,0.6768502,0.4207999,0.25190058,inf,inf,inf,inf,0,1,0,1,1,0,1,0,2,0,0,1
15828301,0,0.0,0.0,0.0,0.0,-2.3251364,3.2243716e-07,3.31982e-07,0.0,0.004532548,0.0023159431,-0.2297938,-0.24162674,6.448743e-05,6.63964e-05,0.0,-0.011151871,0.00035876138,0.022751346,-0.12476991,0.0002478313,0.0,0.12579751,0.37164983,0.67289853,0.40512162,0.24911341,inf,inf,inf,inf,0,1,0,1,1,0,1,0,2,0,0,1
15928345,0,0.0,0.0,0.0,0.0,-2.3512545,3.2243716e-07,3.31982e-07,0.0,0.0051107863,0.0029635616,-0.23210284,-0.24526754,6.448743e-05,6.63964e-05,0.0,-0.0011879886,0.033133682,-0.047215965,-0.12481745,0.0002478313,0.0,0.1354053,0.4049189,0.66905165,0.43220654,0.24639338,inf,inf,inf,inf,0,1,0,1,1,0,1,0,2,0,0,1
16428561,0,0.0,0.0,0.0,0.0,-2.469924,3.2243716e-07,3.31982e-07,0.0,0.007895872,0.0045465594,-0.23683055,-0.24480954,6.448743e-05,6.63964e-05,0.0,-0.01127226,-0.0148036955,-0.0029152057,-0.12513953,0.0002478313,0.0,0.13813424,0.38231245,0.6623136,0.4228519,0.23650105,inf,inf,inf,inf,0,1,0,1,1,0,1,0,2,0,0,1
17629078,0,0.0,0.0,0.0,0.0,-2.7834928,3.2243716e-07,3.31982e-07,0.0,0.008009508,0.0037459666,-0.24790372,-0.25903186,6.448743e-05,6.63964e-05,0.0,0.018934099,-0.0010392881,0.010201146,-0.12538975,0.0002478313,0.0,0.14108062,0.38684556,0.64022475,0.3946616,0.21365252,inf,inf,inf,inf,0,1,0,1,1,0,1,0,2,0,0,1
17829165,0,0.0,0.0,0.0,0.0,-2.8314726,3.2243716e-07,3.31982e-07,0.0,0.007877728,0.002842985,-0.24943173,-0.25640488,6.448743e-05,6.63964e-05,0.0,0.018523233,-0.0039921026,-0.013504204,-0.12550701,0.0002478313,0.0,0.14733028,0.38543868,0.6439872,0.3857559,0.21195246,inf,inf,inf,inf,0,1,0,1,1,0,1,0,2,0,0,1
17929208,0,0.0,0.0,0.0,0.0,-2.854601,3.2243716e-07,3.31982e-07,0.0,0.007964141,0.0023710683,-0.24875903,-0.2531885,6.448743e-05,6.63964e-05,0.0,0.029633747,-0.008163824,0.008344063,-0.12552842,0.0002478313,0.0,0.14750934,0.41901812,0.6404011,0.40611416,0.20983241,inf,inf,inf,inf,0,1,0,1,1,0,1,0,2,0,0,1
18529473,0,0.0,0.0,0.0,0.0,-2.977671,3.2243716e-07,3.31982e-07,0.0,0.009279962,0.0022028105,-0.24562816,-0.22582029,6.448743e-05,6.63964e-05,0.0,0.009848079,-0.00013966826,-0.039304946,-0.12551941,0.0002478313,0.0,0.16241646,0.4104655,0.6301377,0.3754191,0.20023678,inf,inf,inf,inf,0,1,0,1,1,0,1,0,2,0,0,1
18729556,0,0.0,0.0,0.0,0.0,-3.0045667,3.2243716e-07,3.31982e-07,0.0,0.010636886,0.0023448004,-0.24190183,-0.20603552,6.448743e-05,6.63964e-05,0.0,0.04347624,0.032831475,-0.008810743,-0.12553239,0.0002478313,0.0,0.16638398,0.40719175,0.6236114,0.3653869,0.1965173,inf,inf,inf,inf,0,1,0,1,1,0,1,0,2,0,0,1
19129730,0,0.0,0.0,0.0,0.0,-3.0461352,3.2243716e-07,3.31982e-07,0.0,0.00900994,0.0027897574,-0.22920714,-0.16319409,6.448743e-05,6.63964e-05,0.0,-0.009621569,0.04129147,0.017917711,-0.12550579,0.0002478313,0.0,0.1598556,0.4004009,0.62054676,0.34616068,0.19153464,inf,inf,inf,inf,0,1,0,1,1,0,1,0,2,0,0,1
19329823,0,0.0,0.0,0.0,0.0,-3.0657246,3.2243716e-07,3.31982e-07,0.0,0.00801386,0.0031709783,-0.22350736,-0.14746864,6.448743e-05,6.63964e-05,0.0,0.013845591,-0.031177916,0.026340296,-0.12549719,0.0002478313,0.0,0.16108179,0.39696386,0.614246,0.33705878,0.18810777,inf,inf,inf,inf,0,1,0,1,1,0,1,0,2,0,0,1
19429862,0,0.0,0.0,0.0,0.0,-3.073586,3.2243716e-07,3.31982e-07,0.0,0.0073199994,0.0035425292,-0.22055653,-0.13890833,6.448743e-05,6.63964e-05,0.0,0.009441747,-0.0012292519,-0.013635298,-0.12549587,0.0002478313,0.0,0.16294146,0.36616844,0.6111661,0.31429595,0.1864422,inf,inf,inf,inf,0,1,0,1,1,0,1,0,2,0,0,1
19729996,0,0.0,0.0,0.0,0.0,-3.0956073,3.2243716e-07,3.31982e-07,0.0,0.006495701,0.0048566707,-0.21094617,-0.1164218,6.448743e-05,6.63964e-05,0.0,-0.02154658,0.013219212,-0.014270933,-0.12541445,0.0002478313,0.0,0.14973354,0.39016128,0.6113576,0.32002822,0.18357606,inf,inf,inf,inf,0,1,0,1,1,0,1,0,2,0,0,1
20030124,0,0.0,0.0,0.0,0.0,-3.1197233,3.2243716e-07,3.31982e-07,0.0,0.0052086078,0.0046044765,-0.20251389,-0.10244626,6.448743e-05,6.63964e-05,0.0,0.02121923,0.009212283,0.004209899,-0.12519762,0.0002478313,0.0,0.14354968,0.35819736,0.6025476,0.29213026,0.17895547,inf,inf,inf,inf,0,1,0,1,1,0,1,0,2,0,0,1
20130178,0,0.0,0.0,0.0,0.0,-3.129634,3.2243716e-07,3.31982e-07,0.0,0.004732706,0.005443195,-0.1998634,-0.10068966,6.448743e-05,6.63964e-05,0.0,0.008439895,-0.009363904,-0.005349034,-0.12515873,0.0002478313,0.0,0.14101338,0.3835766,0.5996616,0.30455607,0.17746161,inf,inf,inf,inf,0,1,0,1,1,0,1,0,2,0,0,1
20230234,0,0.0,0.0,0.0,0.0,-3.1398127,3.2243716e-07,3.31982e-07,0.0,0.0048069153,0.0045160437,-0.19778062,-0.099849954,6.448743e-05,6.63964e-05,0.0,0.02671334,0.044281457,0.0040292065,-0.1251516,0.0002478313,0.0,0.1465559,0.3556229,0.5967601,0.28542626,0.17597942,inf,inf,inf,inf,0,1,0,1,1,0,1,0,2,0,0,1
20320255,0,0.0,0.0,0.0,0.0,-3.14837,3.2243716e-07,3.31982e-07,0.0,0.0046712942,0.004447025,-0.19496992,-0.09765518,6.448743e-05,6.63964e-05,0.0,0.022521075,-0.015951019,0.006667608,-0.1251201,0.0002478313,0.0,0.13762784,0.37784964,0.60119283,0.29616445,0.17611587,inf,inf,inf,inf,0,1,0,1,1,0,1,0,2,0,0,1
20420298,0,0.0,0.0,0.0,0.0,-3.1589584,3.2243716e-07,3.31982e-07,0.0,0.004378081,0.004441104,-0.19268672,-0.097232305,6.448743e-05,6.63964e-05,0.0,0.0259888,-0.018950514,0.028050743,-0.12508228,0.0002478313,0.0,0.13763809,0.3507619,0.59832275,0.2779309,0.17467564,inf,inf,inf,inf,0,1,0,1,1,0,1,0,2,0,0,1
20520341,0,0.0,0.0,0.0,0.0,-3.1675382,3.2243716e-07,3.31982e-07,0.0,0.0042318534,0.0047314544,-0.19018804,-0.09462205,6.448743e-05,6.63964e-05,0.0,0.011531618,-0.0074121705,-0.04938909,-0.12502308,0.0002478313,0.0,0.14254045,0.37481028,0.5954804,0.2894067,0.17326096,inf,inf,inf,inf,0,1,0,1,1,0,1,0,2,0,0,1
20720427,0,0.0,0.0,0.0,0.0,-3.181072,3.2243716e-07,3.31982e-07,0.0,0.004912448,0.0055548893,-0.18489207,-0.08641807,6.448743e-05,6.63964e-05,0.0,0.011015356,-0.0037433973,-0.03450488,-0.124930985,0.0002478313,0.0,0.14572883,0.3718551,0.58991903,0.2830121,0.17052124,inf,inf,inf,inf,0,1,0,1,1,0,1,0,2,0,0,1
20920518,0,0.0,0.0,0.0,0.0,-3.191712,3.2243716e-07,3.31982e-07,0.0,0.0045948387,0.0063885124,-0.17736408,-0.075058505,6.448743e-05,6.63964e-05,0.0,0.01291951,0.086580776,0.05846224,-0.12475769,0.0002478313,0.0,0.13974309,0.36898902,0.59294844,0.2769525,0.16959243,inf,inf,inf,inf,0,1,0,1,1,0,1,0,2,0,0,1
21020558,0,0.0,0.0,0.0,0.0,-3.1990428,3.2243716e-07,3.31982e-07,0.0,0.0057189204,0.006462634,-0.17500244,-0.07350786,6.448743e-05,6.63964e-05,0.0,-0.011727837,0.05328854,0.032221954,-0.124673404,0.0002478313,0.0,0.1331675,0.34372005,0.5902394,0.2608537,0.16830835,inf,inf,inf,inf,0,1,0,1,1,0,1,0,2,0,0,1
21220650,0,0.0,0.0,0.0,0.0,-3.220615,3.2243716e-07,3.31982e-07,0.0,0.0064401566,0.006178576,-0.17348945,-0.08024564,6.448743e-05,6.63964e-05,0.0,0.005485225,0.016581204,0.024235755,-0.12457164,0.0002478313,0.0,0.121782064,0.34150094,0.5849712,0.25575408,0.16584018,inf,inf,inf,inf,0,1,0,1,1,0,1,0,2,0,0,1
21320701,0,0.0,0.0,0.0,0.0,-3.2341127,3.2243716e-07,3.31982e-07,0.0,0.007464961,0.0066378443,-0.17269677,-0.085549176,6.448743e-05,6.63964e-05,0.0,0.024048677,0.010613858,-0.02120175,-0.1245361,0.0002478313,0.0,0.116939545,0.36352542,0.5823336,0.2657893,0.16463405,inf,inf,inf,inf,0,1,0,1,1,0,1,0,2,0,0,1
21420734,0,0.0,0.0,0.0,0.0,-3.2502077,3.2243716e-07,3.31982e-07,0.0,0.007606943,0.0073504774,-0.17183645,-0.09268737,6.448743e-05,6.63964e-05,0.0,-0.010469598,-0.0042741527,-0.061699886,-0.12449555,0.0002478313,0.0,0.11131334,0.33934996,0.58788055,0.25094813,0.16504806,inf,inf,inf,inf,0,1,0,1,1,0,1,0,2,0,0,1
21520778,0,0.0,0.0,0.0,0.0,-3.268297,3.2243716e-07,3.31982e-07,0.0,0.008097241,0.0077525373,-0.17252025,-0.10238995,6.448743e-05,6.63964e-05,0.0,-0.013287346,0.002686397,0.0056507923,-0.12443562,0.0002478313,0.0,0.10922623,0.36093184,0.5852229,0.26067165,0.16387647,inf,inf,inf,inf,0,1,0,1,1,0,1,0,2,0,0,1
21720866,0,0.0,0.0,0.0,0.0,-3.3044226,3.2243716e-07,3.31982e-07,0.0,0.0072881356,0.008398862,-0.17252737,-0.11744914,6.448743e-05,6.63964e-05,0.0,-0.025902811,0.03509908,-0.018786106,-0.12437154,0.0002478313,0.0,0.1070385,0.3584285,0.5800258,0.25582442,0.16162643,inf,inf,inf,inf,0,1,0,1,1,0,1,0,2,0,0,1
21820912,0,0.0,0.0,0.0,0.0,-3.3230443,3.2243716e-07,3.31982e-07,0.0,0.0074361656,0.008910022,-0.1730016,-0.12468568,6.448743e-05,6.63964e-05,0.0,0.0016322673,0.038127065,0.034033533,-0.12431197,0.0002478313,0.0,0.11388779,0.33525214,0.57748455,0.24207234,0.16054726,inf,inf,inf,inf,0,1,0,1,1,0,1,0,2,0,0,1
21920987,0,0.0,0.0,0.0,0.0,-3.3410237,3.2243716e-07,3.31982e-07,0.0,0.008089391,0.009109417,-0.17331278,-0.13038988,6.448743e-05,6.63964e-05,0.0,0.01201352,0.034683138,-0.041825794,-0.12428988,0.0002478313,0.0,0.1135788,0.35601434,0.57500464,0.25124496,0.15950505,inf,inf,inf,inf,0,1,0,1,1,0,1,0,2,0,0,1
22221086,0,0.0,0.0,0.0,0.0,-3.3944561,3.2243716e-07,3.31982e-07,0.0,0.008673778,0.010630102,-0.17394641,-0.14294212,6.448743e-05,6.63964e-05,0.0,-0.03736179,0.04728008,0.02162363,-0.1240961,0.0002478313,0.0,0.11957884,0.331424,0.5754351,0.23415191,0.15799321,inf,inf,inf,inf,0,1,0,1,1,0,1,0,2,0,0,1
22521238,0,0.0,0.0,0.0,0.0,-3.4577293,3.2243716e-07,3.31982e-07,0.0,0.009360463,0.01077909,-0.17663242,-0.16289979,6.448743e-05,6.63964e-05,0.0,0.02185733,0.03547255,-0.001041643,-0.12400132,0.0002478313,0.0,0.10765147,0.3492977,0.5682712,0.23900099,0.155238,inf,inf,inf,inf,0,1,0,1,1,0,1,0,2,0,0,1
22721312,0,0.0,0.0,0.0,0.0,-3.505793,3.2243716e-07,3.31982e-07,0.0,0.010038781,0.011211584,-0.17966324,-0.1793094,6.448743e-05,6.63964e-05,0.0,-0.0015771668,0.03143379,0.0053029554,-0.12392495,0.0002478313,0.0,0.10710478,0.34722683,0.5710751,0.23536457,0.15489782,inf,inf,inf,inf,0,1,0,1,1,0,1,0,2,0,0,1
22821354,0,0.0,0.0,0.0,0.0,-3.5289438,3.2243716e-07,3.31982e-07,0.0,0.01053788,0.011185055,-0.1816171,-0.18575366,6.448743e-05,6.63964e-05,0.0,0.024323156,0.00888957,-0.0055353595,-0.12386693,0.0002478313,0.0,0.111493826,0.32617635,0.5687311,0.22383176,0.1540683,inf,inf,inf,inf,0,1,0,1,1,0,1,0,2,0,0,1
22921404,0,0.0,0.0,0.0,0.0,-3.5525937,3.2243716e-07,3.31982e-07,0.0,0.010553934,0.011694356,-0.18262723,-0.19109578,6.448743e-05,6.63964e-05,0.0,0.017031342,0.00940866,0.017434472,-0.12381601,0.0002478313,0.0,0.11250734,0.34523746,0.5664466,0.2319356,0.15327315,inf,inf,inf,inf,0,1,0,1,1,0,1,0,2,0,0,1
23021443,0,0.0,0.0,0.0,0.0,-3.5755782,3.2243716e-07,3.31982e-07,0.0,0.010632161,0.012247041,-0.18279752,-0.19444503,6.448743e-05,6.63964e-05,0.0,0.0025786713,0.011067415,0.01709668,-0.12379631,0.0002478313,0.0,0.11332536,0.32455468,0.5641871,0.22077854,0.15250257,inf,inf,inf,inf,0,1,0,1,1,0,1,0,2,0,0,1
23121484,0,0.0,0.0,0.0,0.0,-3.6010923,3.2243716e-07,3.31982e-07,0.0,0.010238558,0.012225208,-0.18451434,-0.2014532,6.448743e-05,6.63964e-05,0.0,-0.01484204,-0.005517768,-0.014654688,-0.12373792,0.0002478313,0.0,0.103937864,0.343328,0.5619529,0.22870809,0.15175642,inf,inf,inf,inf,0,1,0,1,1,0,1,0,2,0,0,1
23221540,0,0.0,0.0,0.0,0.0,-3.6296616,3.2243716e-07,3.31982e-07,0.0,0.010393918,0.0122314375,-0.18677886,-0.2112007,6.448743e-05,6.63964e-05,0.0,0.0031542182,0.011930119,-0.007179262,-0.123686485,0.0002478313,0.0,0.1,0.32299483,0.55977523,0.21788555,0.15104266,inf,inf,inf,inf,0,1,0,1,1,0,1,0,2,0,0,1
23321575,0,0.0,0.0,0.0,0.0,-3.6597214,3.2243716e-07,3.31982e-07,0.0,0.010257872,0.012066616,-0.18920556,-0.22148246,6.448743e-05,6.63964e-05,0.0,0.002115975,0.017133038,-0.022925448,-0.12362056,0.0002478313,0.0,0.10487604,0.34149495,0.56486875,0.22565094,0.15165204,inf,inf,inf,inf,0,1,0,1,1,0,1,0,2,0,0,1
23421625,0,0.0,0.0,0.0,0.0,-3.6884005,3.2243716e-07,3.31982e-07,0.0,0.010411095,0.012016003,-0.1911868,-0.2288772,6.448743e-05,6.63964e-05,0.0,-0.0114856465,0.018093864,0.011940472,-0.12356309,0.0002478313,0.0,0.11095953,0.32149532,0.5626878,0.21516377,0.15097223,inf,inf,inf,inf,0,1,0,1,1,0,1,0,2,0,0,1
23521664,0,0.0,0.0,0.0,0.0,-3.7161984,3.2243716e-07,3.31982e-07,0.0,0.010099121,0.011500897,-0.19288762,-0.2344418,6.448743e-05,6.63964e-05,0.0,0.020058256,7.890658e-05,0.009645158,-0.12351393,0.0002478313,0.0,0.110898495,0.33973762,0.56056285,0.22278112,0.15032342,inf,inf,inf,inf,0,1,0,1,1,0,1,0,2,0,0,1
23821803,0,0.0,0.0,0.0,0.0,-3.799427,3.2243716e-07,3.31982e-07,0.0,0.011120278,0.011738636,-0.19792058,-0.2472271,6.448743e-05,6.63964e-05,0.0,-0.013237524,0.019287279,-0.04604792,-0.12341388,0.0002478313,0.0,0.11833453,0.3186735,0.5544503,0.2101822,0.14853871,inf,inf,inf,inf,0,1,0,1,1,0,1,0,2,0,0,1
23921847,0,0.0,0.0,0.0,0.0,-3.8257709,3.2243716e-07,3.31982e-07,0.0,0.010610987,0.011358991,-0.19930713,-0.24924916,6.448743e-05,6.63964e-05,0.0,0.0075012306,-0.015488353,0.009290965,-0.12336907,0.0002478313,0.0,0.11507654,0.33644137,0.55247694,0.2175275,0.14798991,inf,inf,inf,inf,0,1,0,1,1,0,1,0,2,0,0,1
24121930,0,0.0,0.0,0.0,0.0,-3.883439,3.2243716e-07,3.31982e-07,0.0,0.009986519,0.010240685,-0.20355296,-0.25878358,6.448743e-05,6.63964e-05,0.0,-0.00044828068,0.0093063675,-0.00450305,-0.12333098,0.0002478313,0.0,0.118129015,0.33489797,0.5555521,0.21512416,0.14816853,inf,inf,inf,inf,0,1,0,1,1,0,1,0,2,0,0,1
24221975,0,0.0,0.0,0.0,0.0,-3.9109619,3.2243716e-07,3.31982e-07,0.0,0.010158964,0.010006491,-0.20594586,-0.26180038,6.448743e-05,6.63964e-05,0.0,0.010168444,0.010148993,-0.0068867565,-0.12328064,0.0002478313,0.0,0.12415624,0.3160783,0.5536304,0.20575419,0.14767534,inf,inf,inf,inf,0,1,0,1,1,0,1,0,2,0,0,1
24422053,0,0.0,0.0,0.0,0.0,-3.965144,3.2243716e-07,3.31982e-07,0.0,0.009730515,0.009947386,-0.20908763,-0.26473093,6.448743e-05,6.63964e-05,0.0,-0.018961746,0.0052312873,0.0157488,-0.12319271,0.0002478313,0.0,0.13049603,0.31486273,0.5499099,0.20374788,0.1467582,inf,inf,inf,inf,0,1,0,1,1,0,1,0,2,0,0,1
24522104,0,0.0,0.0,0.0,0.0,-3.990679,3.2243716e-07,3.31982e-07,0.0,0.009650632,0.009400559,-0.20956545,-0.26352376,6.448743e-05,6.63964e-05,0.0,0.003292216,0.0060386597,0.008587182,-0.123146825,0.0002478313,0.0,0.12972784,0.33201265,0.54808086,0.2107509,0.14632519,inf,inf,inf,inf,0,1,0,1,1,0,1,0,2,0,0,1
24622149,0,0.0,0.0,0.0,0.0,-4.0171328,3.2243716e-07,3.31982e-07,0.0,0.009506758,0.009441068,-0.21103688,-0.26427153,6.448743e-05,6.63964e-05,0.0,0.002791251,-0.014158705,-0.014032256,-0.12310141,0.0002478313,0.0,0.13009858,0.3137003,0.54630107,0.20185094,0.14591615,inf,inf,inf,inf,0,1,0,1,1,0,1,0,2,0,0,1
24722201,0,0.0,0.0,0.0,0.0,-4.0419025,3.2243716e-07,3.31982e-07,0.0,0.008908239,0.009313842,-0.21207345,-0.26294664,6.448743e-05,6.63964e-05,0.0,0.011341468,-0.010117808,-0.033855177,-0.12305357,0.0002478313,0.0,0.13353872,0.3306667,0.5445693,0.20875487,0.14553028,inf,inf,inf,inf,0,1,0,1,1,0,1,0,2,0,0,1
24822247,0,0.0,0.0,0.0,0.0,-4.066646,3.2243716e-07,3.31982e-07,0.0,0.008846291,0.009588608,-0.21337269,-0.26202682,6.448743e-05,6.63964e-05,0.0,-0.0107096145,0.0004757794,-0.040789023,-0.12303348,0.0002478313,0.0,0.13332033,0.31258887,0.54953504,0.20006755,0.14630175,inf,inf,inf,inf,0,1,0,1,1,0,1,0,2,0,0,1
25222416,0,0.0,0.0,0.0,0.0,-4.1677346,3.2243716e-07,3.31982e-07,0.0,0.008556971,0.011037468,-0.21670341,-0.2590396,6.448743e-05,6.63964e-05,0.0,0.001677275,0.017615885,-0.0028445404,-0.12290446,0.0002478313,0.0,0.13675165,0.31051403,0.54287225,0.1968177,0.14496663,inf,inf,inf,inf,0,1,0,1,1,0,1,0,2,0,0,1
25322467,0,0.0,0.0,0.0,0.0,-4.1916323,3.2243716e-07,3.31982e-07,0.0,0.007963875,0.010911784,-0.2173832,-0.25727263,6.448743e-05,6.63964e-05,0.0,0.016037723,-0.010913993,-0.015680935,-0.12287914,0.0002478313,0.0,0.1397028,0.32699037,0.54127234,0.20345949,0.14467004,inf,inf,inf,inf,0,1,0,1,1,0,1,0,2,0,0,1
25422508,0,0.0,0.0,0.0,0.0,-4.2129292,3.2243716e-07,3.31982e-07,0.0,0.0077046948,0.011316934,-0.21672226,-0.25187293,6.448743e-05,6.63964e-05,0.0,0.016348302,-0.0021380102,-0.0023665528,-0.12285681,0.0002478313,0.0,0.14849424,0.30954742,0.5397173,0.19533636,0.1443924,inf,inf,inf,inf,0,1,0,1,1,0,1,0,2,0,0,1
25522552,0,0.0,0.0,0.0,0.0,-4.2324986,3.2243716e-07,3.31982e-07,0.0,0.0076340833,0.011119655,-0.21607973,-0.24543786,6.448743e-05,6.63964e-05,0.0,-0.0037208693,0.0028044689,0.032704532,-0.12285851,0.0002478313,0.0,0.14718485,0.32587862,0.5446842,0.20190115,0.14522372,inf,inf,inf,inf,0,1,0,1,1,0,1,0,2,0,0,1
25622594,0,0.0,0.0,0.0,0.0,-4.2521863,3.2243716e-07,3.31982e-07,0.0,0.007773185,0.011276397,-0.21605645,-0.24044566,6.448743e-05,6.63964e-05,0.0,0.0011213315,0.00647012,-0.037370723,-0.12285458,0.0002478313,0.0,0.14691687,0.30862588,0.54313433,0.1939409,0.14496297,inf,inf,inf,inf,0,1,0,1,1,0,1,0,2,0,0,1
25722643,0,0.0,0.0,0.0,0.0,-4.270005,3.2243716e-07,3.31982e-07,0.0,0.0076315454,0.011662883,-0.21633746,-0.23441924,6.448743e-05,6.63964e-05,0.0,0.009830583,0.010659673,0.014799643,-0.12281548,0.0002478313,0.0,0.15072012,0.32482004,0.5416289,0.20043492,0.14471963,inf,inf,inf,inf,0,1,0,1,1,0,1,0,2,0,0,1
26523013,0,0.0,0.0,0.0,0.0,-4.441366,3.2243716e-07,3.31982e-07,0.0,0.010805017,0.012161479,-0.21597686,-0.22415744,6.448743e-05,6.63964e-05,0.0,0.00495947,0.0067030997,-0.00826056,-0.12262278,0.0002478313,0.0,0.12891388,0.32108504,0.5364826,0.1954366,0.14414243,inf,inf,inf,inf,0,1,0,1,1,0,1,0,2,0,0,1
27023246,0,0.0,0.0,0.0,0.0,-4.5785785,3.2243716e-07,3.31982e-07,0.0,0.012859937,0.013924314,-0.22557893,-0.25264964,6.448743e-05,6.63964e-05,0.0,-0.018067382,-0.001664067,-0.050835345,-0.12247646,0.0002478313,0.0,0.126688,0.30331978,0.53621733,0.18635446,0.14443317,inf,inf,inf,inf,0,1,0,1,1,0,1,0,2,0,0,1
27123267,0,0.0,0.0,0.0,0.0,-4.6081805,3.2243716e-07,3.31982e-07,0.0,0.013191932,0.013900991,-0.22690447,-0.25797606,6.448743e-05,6.63964e-05,0.0,0.0067638964,0.012610955,-0.04391799,-0.12246023,0.0002478313,0.0,0.123559,0.31875843,0.53490573,0.19246562,0.14428608,inf,inf,inf,inf,0,1,0,1,1,0,1,0,2,0,0,1
27223326,0,0.0,0.0,0.0,0.0,-4.639702,3.2243716e-07,3.31982e-07,0.0,0.013230328,0.013822689,-0.23041837,-0.26669446,6.448743e-05,6.63964e-05,0.0,-0.0027250142,0.029135589,-0.004003035,-0.12245373,0.0002478313,0.0,0.11780977,0.30270928,0.53363436,0.18552762,0.14415014,inf,inf,inf,inf,0,1,0,1,1,0,1,0,2,0,0,1
27323356,0,0.0,0.0,0.0,0.0,-4.673416,3.2243716e-07,3.31982e-07,0.0,0.013514911,0.0150062805,-0.23325431,-0.27599913,6.448743e-05,6.63964e-05,0.0,-0.0014750168,0.06034059,-0.048143297,-0.12243361,0.0002478313,0.0,0.12177944,0.31806406,0.5386705,0.19159235,0.14506711,inf,inf,inf,inf,0,1,0,1,1,0,1,0,2,0,0,1
27723533,0,0.0,0.0,0.0,0.0,-4.837664,3.2243716e-07,3.31982e-07,0.0,0.015445228,0.01652133,-0.25079915,-0.33490723,6.448743e-05,6.63964e-05,0.0,0.020161048,0.04486961,-0.0011099227,-0.12232588,0.0002478313,0.0,0.10633469,0.31678724,0.5337652,0.19002332,0.14458026,inf,inf,inf,inf,0,1,0,1,1,0,1,0,2,0,0,1
27823581,0,0.0,0.0,0.0,0.0,-4.8814044,3.2243716e-07,3.31982e-07,0.0,0.016298318,0.0163614,-0.2542595,-0.3473257,6.448743e-05,6.63964e-05,0.0,0.008484744,0.00054866826,-0.027718449,-0.12228952,0.0002478313,0.0,0.10845518,0.30106705,0.532599,0.18335271,0.14447188,inf,inf,inf,inf,0,1,0,1,1,0,1,0,2,0,0,1
27923623,0,0.0,0.0,0.0,0.0,-4.924663,3.2243716e-07,3.31982e-07,0.0,0.01597655,0.015512707,-0.2586446,-0.35885647,6.448743e-05,6.63964e-05,0.0,0.010627124,0.0034314701,-0.0071715177,-0.12224404,0.0002478313,0.0,0.120545864,0.31620118,0.5377034,0.18931103,0.14540958,inf,inf,inf,inf,0,1,0,1,1,0,1,0,2,0,0,1
28623941,0,0.0,0.0,0.0,0.0,-5.2235,3.2243716e-07,3.31982e-07,0.0,0.019113695,0.018765172,-0.28667173,-0.4074056,6.448743e-05,6.63964e-05,0.0,0.011155977,0.0066494076,-0.016777478,-0.12218975,0.0002478313,0.0,0.1384821,0.29926527,0.53579813,0.1810192,0.14566262,inf,inf,inf,inf,0,1,0,1,1,0,1,0,2,0,0,1
28723982,0,0.0,0.0,0.0,0.0,-5.2650456,3.2243716e-07,3.31982e-07,0.0,0.0188184,0.018018905,-0.28954038,-0.40983936,6.448743e-05,6.63964e-05,0.0,-0.008638911,-0.0043460606,0.026870694,-0.1221784,0.0002478313,0.0,0.13755178,0.314161,0.5346353,0.18685329,0.14554411,inf,inf,inf,inf,0,1,0,1,1,0,1,0,2,0,0,1
28824027,0,0.0,0.0,0.0,0.0,-5.3058276,3.2243716e-07,3.31982e-07,0.0,0.019086936,0.019416803,-0.29378188,-0.41265276,6.448743e-05,6.63964e-05,0.0,0.00718376,0.020096568,-0.029733153,-0.122226536,0.0002478313,0.0,0.13995266,0.29887477,0.533508,0.18052176,0.14543259,inf,inf,inf,inf,0,1,0,1,1,0,1,0,2,0,0,1
28924072,0,0.0,0.0,0.0,0.0,-5.348117,3.2243716e-07,3.31982e-07,0.0,0.019414648,0.019158274,-0.29785407,-0.4165114,6.448743e-05,6.63964e-05,0.0,0.0054649604,0.02210236,0.0046717436,-0.12226156,0.0002478313,0.0,0.13688612,0.31371966,0.5323883,0.18633324,0.14532039,inf,inf,inf,inf,0,1,0,1,1,0,1,0,2,0,0,1
29024117,0,0.0,0.0,0.0,0.0,-5.391675,3.2243716e-07,3.31982e-07,0.0,0.020055547,0.019826109,-0.30083424,-0.4202043,6.448743e-05,6.63964e-05,0.0,0.018688127,0.016279094,-0.025792018,-0.12228045,0.0002478313,0.0,0.14264965,0.29850587,0.5375583,0.18006088,0.1462639,inf,inf,inf,inf,0,1,0,1,1,0,1,0,2,0,0,1
29124179,0,0.0,0.0,0.0,0.0,-5.4344215,3.2243716e-07,3.31982e-07,0.0,0.020602483,0.019750945,-0.30466747,-0.42355043,6.448743e-05,6.63964e-05,0.0,0.014767149,0.012079414,0.0152404485,-0.12228293,0.0002478313,0.0,0.14720869,0.3133033,0.5364664,0.18584703,0.14615713,inf,inf,inf,inf,0,1,0,1,1,0,1,0,2,0,0,1
29324269,0,0.0,0.0,0.0,0.0,-5.520505,3.2243716e-07,3.31982e-07,0.0,0.021773621,0.020710366,-0.3106718,-0.4285202,6.448743e-05,6.63964e-05,0.0,0.021314468,0.022468718,-0.003967287,-0.12231231,0.0002478313,0.0,0.14818192,0.3129101,0.5343261,0.18538307,0.14594612,inf,inf,inf,inf,0,1,0,1,1,0,1,0,2,0,0,1
29524346,0,0.0,0.0,0.0,0.0,-5.6036077,3.2243716e-07,3.31982e-07,0.0,0.021808447,0.020952733,-0.31587672,-0.42911974,6.448743e-05,6.63964e-05,0.0,0.02321363,0.020496681,-0.034949277,-0.122375175,0.0002478313,0.0,0.15257359,0.31253827,0.53228194,0.18494621,0.14574805,inf,inf,inf,inf,0,1,0,1,1,0,1,0,2,0,0,1
29624411,0,0.0,0.0,0.0,0.0,-5.644086,3.2243716e-07,3.31982e-07,0.0,0.02257887,0.02175458,-0.31814283,-0.4280734,6.448743e-05,6.63964e-05,0.0,0.026560059,0.028597835,0.0027719385,-0.12238975,0.0002478313,0.0,0.15864754,0.29751757,0.53129,0.17881344,0.14565212,inf,inf,inf,inf,0,1,0,1,1,0,1,0,2,0,0,1
29724445,0,0.0,0.0,0.0,0.0,-5.683198,3.2243716e-07,3.31982e-07,0.0,0.023223374,0.021838812,-0.32148606,-0.426912,6.448743e-05,6.63964e-05,0.0,0.016164517,0.0024039499,-0.051871464,-0.122406974,0.0002478313,0.0,0.16161919,0.3121866,0.53652054,0.18452941,0.14660078,inf,inf,inf,inf,0,1,0,1,1,0,1,0,2,0,0,1
29824488,0,0.0,0.0,0.0,0.0,-5.720178,3.2243716e-07,3.31982e-07,0.0,0.023209097,0.022104187,-0.32359844,-0.42265967,6.448743e-05,6.63964e-05,0.0,0.00012497457,0.0106194075,-0.029631771,-0.122403584,0.0002478313,0.0,0.16812944,0.29722282,0.5355235,0.17844309,0.14650011,inf,inf,inf,inf,0,1,0,1,1,0,1,0,2,0,0,1
29924529,0,0.0,0.0,0.0,0.0,-5.7547283,3.2243716e-07,3.31982e-07,0.0,0.02342452,0.02200699,-0.32513022,-0.4159982,6.448743e-05,6.63964e-05,0.0,0.02228975,-0.0032825836,-0.02890965,-0.12241352,0.0002478313,0.0,0.17358065,0.31185403,0.53455365,0.18414664,0.14640334,inf,inf,inf,inf,0,1,0,1,1,0,1,0,2,0,0,1
30224662,0,0.0,0.0,0.0,0.0,-5.854066,3.2243716e-07,3.31982e-07,0.0,0.025419554,0.022921149,-0.32850498,-0.39540032,6.448743e-05,6.63964e-05,0.0,0.015923059,0.0140173035,-0.029134372,-0.12242877,0.0002478313,0.0,0.1748929,0.2966814,0.53169554,0.17777166,0.14610587,inf,inf,inf,inf,0,1,0,1,1,0,1,0,2,0,0,1
30324707,0,0.0,0.0,0.0,0.0,-5.8861294,3.2243716e-07,3.31982e-07,0.0,0.025516698,0.021998573,-0.33042315,-0.38972515,6.448743e-05,6.63964e-05,0.0,0.02142413,-0.03385383,-0.0071456186,-0.12245721,0.0002478313,0.0,0.1818614,0.31124318,0.5307493,0.1834382,0.14600149,inf,inf,inf,inf,0,1,0,1,1,0,1,0,2,0,0,1
30424751,0,0.0,0.0,0.0,0.0,-5.9160275,3.2243716e-07,3.31982e-07,0.0,0.02593128,0.02215677,-0.33127764,-0.38165912,6.448743e-05,6.63964e-05,0.0,0.0013639973,0.013135622,-0.04980298,-0.12250132,0.0002478313,0.0,0.18156672,0.29643255,0.5360314,0.17746805,0.14694968,inf,inf,inf,inf,0,1,0,1,1,0,1,0,2,0,0,1
30524797,0,0.0,0.0,0.0,0.0,-5.944451,3.2243716e-07,3.31982e-07,0.0,0.026428744,0.022405988,-0.33114013,-0.37206224,6.448743e-05,6.63964e-05,0.0,0.044411946,0.018077536,-0.0370264,-0.122553885,0.0002478313,0.0,0.18334007,0.31096292,0.53510106,0.18311934,0.14684606,inf,inf,inf,inf,0,1,0,1,1,0,1,0,2,0,0,1
30724892,0,0.0,0.0,0.0,0.0,-6.000329,3.2243716e-07,3.31982e-07,0.0,0.026983773,0.02313471,-0.33105692,-0.35515773,6.448743e-05,6.63964e-05,0.0,0.021873433,-0.007215233,-0.0029040433,-0.12260651,0.0002478313,0.0,0.18356943,0.31069815,0.5332303,0.18281448,0.14662577,inf,inf,inf,inf,0,1,0,1,1,0,1,0,2,0,0,1
30824932,0,0.0,0.0,0.0,0.0,-6.027452,3.2243716e-07,3.31982e-07,0.0,0.0275416,0.02291984,-0.331157,-0.34740442,6.448743e-05,6.63964e-05,0.0,0.008112543,-0.00526095,-0.011732219,-0.122631006,0.0002478313,0.0,0.18196201,0.2959756,0.5322647,0.17690715,0.14650252,inf,inf,inf,inf,0,1,0,1,1,0,1,0,2,0,0,1
30924989,0,0.0,0.0,0.0,0.0,-6.05498,3.2243716e-07,3.31982e-07,0.0,0.027581384,0.023207549,-0.33142927,-0.3410098,6.448743e-05,6.63964e-05,0.0,0.019102078,0.011589072,-0.009400884,-0.12266281,0.0002478313,0.0,0.18359661,0.31044754,0.5313235,0.18252094,0.14638285,inf,inf,inf,inf,0,1,0,1,1,0,1,0,2,0,0,1
31025020,0,0.0,0.0,0.0,0.0,-6.080765,3.2243716e-07,3.31982e-07,0.0,0.027694585,0.023108713,-0.33131787,-0.33325994,6.448743e-05,6.63964e-05,0.0,0.0043447195,-0.025439695,-0.02261482,-0.122652166,0.0002478313,0.0,0.1873703,0.29576513,0.5366031,0.17664352,0.14731625,inf,inf,inf,inf,0,1,0,1,1,0,1,0,2,0,0,1
31125065,0,0.0,0.0,0.0,0.0,-6.1041903,3.2243716e-07,3.31982e-07,0.0,0.027407095,0.023449121,-0.32873258,-0.32171252,6.448743e-05,6.63964e-05,0.0,0.024241176,0.023484092,-0.0012968574,-0.12265313,0.0002478313,0.0,0.18876076,0.31021005,0.5356492,0.18224865,0.1471903,inf,inf,inf,inf,0,1,0,1,1,0,1,0,2,0,0,1
31725353,0,0.0,0.0,0.0,0.0,-6.219367,3.2243716e-07,3.31982e-07,0.0,0.029798366,0.021910757,-0.31627226,-0.25526085,6.448743e-05,6.63964e-05,0.0,0.019532043,0.0034179864,-0.014509722,-0.12264386,0.0002478313,0.0,0.18904114,0.3095657,0.5363675,0.18147768,0.14749478,inf,inf,inf,inf,0,1,0,1,1,0,1,0,2,0,0,1
31825416,0,0.0,0.0,0.0,0.0,-6.2368517,3.2243716e-07,3.31982e-07,0.0,0.03052324,0.021751093,-0.31331542,-0.24577639,6.448743e-05,6.63964e-05,0.0,0.029456086,0.0070876065,0.018362062,-0.122631826,0.0002478313,0.0,0.18393183,0.29502285,0.53547984,0.1757004,0.14737019,inf,inf,inf,inf,0,1,0,1,1,0,1,0,2,0,0,1
31925432,0,0.0,0.0,0.0,0.0,-6.2553124,3.2243716e-07,3.31982e-07,0.0,0.030466534,0.021201435,-0.31237033,-0.2401673,6.448743e-05,6.63964e-05,0.0,0.0130017465,0.026670849,0.017329384,-0.122686036,0.0002478313,0.0,0.1781869,0.30937105,0.53458494,0.18124817,0.14724101,inf,inf,inf,inf,0,1,0,1,1,0,1,0,2,0,0,1
32125523,0,0.0,0.0,0.0,0.0,-6.290244,3.2243716e-07,3.31982e-07,0.0,0.030846385,0.019442942,-0.30883297,-0.22692607,6.448743e-05,6.63964e-05,0.0,0.024814632,0.019360395,0.0020126551,-0.122712284,0.0002478313,0.0,0.1848607,0.30918562,0.5328,0.18103577,0.14697622,inf,inf,inf,inf,0,1,0,1,1,0,1,0,2,0,0,1
32325610,0,0.0,0.0,0.0,0.0,-6.3197675,3.2243716e-07,3.31982e-07,0.0,0.03134335,0.018066382,-0.30424204,-0.21032313,6.448743e-05,6.63964e-05,0.0,-0.013212115,0.00282433,-0.0168275,-0.12273624,0.0002478313,0.0,0.18990469,0.30900985,0.5310375,0.18083082,0.14670797,inf,inf,inf,inf,0,1,0,1,1,0,1,0,2,0,0,1
32425658,0,0.0,0.0,0.0,0.0,-6.333161,3.2243716e-07,3.31982e-07,0.0,0.031219404,0.01826172,-0.30244008,-0.20251638,6.448743e-05,6.63964e-05,0.0,0.005077867,0.0034129843,-0.021254402,-0.122715674,0.0002478313,0.0,0.18087769,0.29455477,0.53637326,0.17511417,0.14763314,inf,inf,inf,inf,0,1,0,1,1,0,1,0,2,0,0,1
32725792,0,0.0,0.0,0.0,0.0,-6.368519,3.2243716e-07,3.31982e-07,0.0,0.032156143,0.017489785,-0.29296628,-0.17584027,6.448743e-05,6.63964e-05,0.0,0.004754538,0.005844244,-0.007100977,-0.122653276,0.0002478313,0.0,0.18101645,0.30868366,0.53372204,0.18044958,0.14721447,inf,inf,inf,inf,0,1,0,1,1,0,1,0,2,0,0,1
32825837,0,0.0,0.0,0.0,0.0,-6.3816867,3.2243716e-07,3.31982e-07,0.0,0.032171585,0.017214345,-0.2907227,-0.17091374,6.448743e-05,6.63964e-05,0.0,0.022344323,0.012228142,-0.020153465,-0.12267455,0.0002478313,0.0,0.17560244,0.29427972,0.5328556,0.174769,0.14707556,inf,inf,inf,inf,0,1,0,1,1,0,1,0,2,0,0,1
33025929,0,0.0,0.0,0.0,0.0,-6.4109187,3.2243716e-07,3.31982e-07,0.0,0.033282477,0.017228723,-0.28651044,-0.16539477,6.448743e-05,6.63964e-05,0.0,0.05166503,0.014615574,-0.011553281,-0.12266706,0.0002478313,0.0,0.16190386,0.29415154,0.5373701,0.17460746,0.14786233,inf,inf,inf,inf,0,1,0,1,1,0,1,0,2,0,0,1
33125974,0,0.0,0.0,0.0,0.0,-6.4253697,3.2243716e-07,3.31982e-07,0.0,0.033515632,0.017040938,-0.28384146,-0.16224454,6.448743e-05,6.63964e-05,0.0,0.03478003,0.014536951,0.01104892,-0.12266301,0.0002478313,0.0,0.16303873,0.30838698,0.536443,0.180093,0.14770411,inf,inf,inf,inf,0,1,0,1,1,0,1,0,2,0,0,1
33326065,0,0.0,0.0,0.0,0.0,-6.455194,3.2243716e-07,3.31982e-07,0.0,0.03251784,0.016553104,-0.2797501,-0.15867607,6.448743e-05,6.63964e-05,0.0,0.0076270658,-0.024087746,-0.032247983,-0.122686855,0.0002478313,0.0,0.16588974,0.3082486,0.5345912,0.1799277,0.147384,inf,inf,inf,inf,0,1,0,1,1,0,1,0,2,0,0,1
33726263,0,0.0,0.0,0.0,0.0,-6.5050645,3.2243716e-07,3.31982e-07,0.0,0.032593638,0.01542416,-0.27020982,-0.14355126,6.448743e-05,6.63964e-05,0.0,0.027193554,-0.020480454,0.02224948,-0.122680634,0.0002478313,0.0,0.1613183,0.30798906,0.5371633,0.17961697,0.14780802,inf,inf,inf,inf,0,1,0,1,1,0,1,0,2,0,0,1
33826301,0,0.0,0.0,0.0,0.0,-6.51679,3.2243716e-07,3.31982e-07,0.0,0.03300409,0.01531279,-0.26793733,-0.14006473,6.448743e-05,6.63964e-05,0.0,0.009793525,0.04703606,-0.015581157,-0.12272306,0.0002478313,0.0,0.15756989,0.29369277,0.536225,0.17401609,0.14764047,inf,inf,inf,inf,0,1,0,1,1,0,1,0,2,0,0,1
33926379,0,0.0,0.0,0.0,0.0,-6.530921,3.2243716e-07,3.31982e-07,0.0,0.032569047,0.014838506,-0.26542667,-0.13897651,6.448743e-05,6.63964e-05,0.0,-0.0005626522,-0.016805552,-0.007294366,-0.12278351,0.0002478313,0.0,0.15285015,0.30786794,0.53530467,0.17946966,0.14747688,inf,inf,inf,inf,0,1,0,1,1,0,1,0,2,0,0,1
34026387,0,0.0,0.0,0.0,0.0,-6.543939,3.2243716e-07,3.31982e-07,0.0,0.033207808,0.015121418,-0.2637151,-0.13763717,6.448743e-05,6.63964e-05,0.0,0.011125914,0.003604943,-0.012839918,-0.12280122,0.0002478313,0.0,0.15719938,0.2935903,0.5344021,0.17388351,0.14731714,inf,inf,inf,inf,0,1,0,1,1,0,1,0,2,0,0,1
34226485,0,0.0,0.0,0.0,0.0,-6.5668497,3.2243716e-07,3.31982e-07,0.0,0.033775404,0.014537891,-0.25878036,-0.13086194,6.448743e-05,6.63964e-05,0.0,0.028334677,0.020448642,0.011468603,-0.12285537,0.0002478313,0.0,0.16145515,0.2934918,0.53259397,0.1737535,0.14699386,inf,inf,inf,inf,0,1,0,1,1,0,1,0,2,0,0,1
34626682,0,0.0,0.0,0.0,0.0,-6.620071,3.2243716e-07,3.31982e-07,0.0,0.031869847,0.013769117,-0.24975958,-0.12829006,6.448743e-05,6.63964e-05,0.0,0.002970506,0.01052582,0.03482049,-0.12283865,0.0002478313,0.0,0.14186096,0.2933068,0.53522104,0.1735109,0.1474142,inf,inf,inf,inf,0,1,0,1,1,0,1,0,2,0,0,1
34726707,0,0.0,0.0,0.0,0.0,-6.635251,3.2243716e-07,3.31982e-07,0.0,0.03129595,0.014383941,-0.24879989,-0.1305522,6.448743e-05,6.63964e-05,0.0,0.022527184,0.026138261,-0.00554981,-0.12285145,0.0002478313,0.0,0.14266586,0.3074305,0.5343241,0.17893197,0.14725256,inf,inf,inf,inf,0,1,0,1,1,0,1,0,2,0,0,1
34826758,0,0.0,0.0,0.0,0.0,-6.6509104,3.2243716e-07,3.31982e-07,0.0,0.030824166,0.014570082,-0.24799885,-0.1331656,6.448743e-05,6.63964e-05,0.0,-0.00080358767,0.01644075,-0.008619252,-0.12284022,0.0002478313,0.0,0.14006138,0.29321927,0.5334166,0.17338997,0.14708726,inf,inf,inf,inf,0,1,0,1,1,0,1,0,2,0,0,1
35026842,0,0.0,0.0,0.0,0.0,-6.683353,3.2243716e-07,3.31982e-07,0.0,0.02991493,0.015744206,-0.24416801,-0.13659924,6.448743e-05,6.63964e-05,0.0,0.018331254,0.011480564,0.037709184,-0.12283913,0.0002478313,0.0,0.13515806,0.293135,0.53786546,0.17327693,0.14783101,inf,inf,inf,inf,0,1,0,1,1,0,1,0,2,0,0,1
35126893,0,0.0,0.0,0.0,0.0,-6.700886,3.2243716e-07,3.31982e-07,0.0,0.02987801,0.015428608,-0.2426996,-0.13966751,6.448743e-05,6.63964e-05,0.0,0.0322841,-0.006591277,-0.013707605,-0.122844405,0.0002478313,0.0,0.13169336,0.30723527,0.5369492,0.1786871,0.14766434,inf,inf,inf,inf,0,1,0,1,1,0,1,0,2,0,0,1
35226933,0,0.0,0.0,0.0,0.0,-6.7185984,3.2243716e-07,3.31982e-07,0.0,0.029788427,0.016216138,-0.24233517,-0.14347425,6.448743e-05,6.63964e-05,0.0,0.0127547,-0.015973104,0.013876894,-0.122878306,0.0002478313,0.0,0.13833237,0.2930534,0.53604925,0.17316583,0.14750147,inf,inf,inf,inf,0,1,0,1,1,0,1,0,2,0,0,1
35827208,0,0.0,0.0,0.0,0.0,-6.8070664,3.2243716e-07,3.31982e-07,0.0,0.028087042,0.016516093,-0.23467427,-0.14165692,6.448743e-05,6.63964e-05,0.0,-0.0036492778,-0.018727398,0.0053548682,-0.12294706,0.0002478313,0.0,0.14040852,0.29282632,0.53654915,0.17286707,0.14749873,inf,inf,inf,inf,0,1,0,1,1,0,1,0,2,0,0,1
36027302,0,0.0,0.0,0.0,0.0,-6.836334,3.2243716e-07,3.31982e-07,0.0,0.028349971,0.0163563,-0.23276538,-0.14155541,6.448743e-05,6.63964e-05,0.0,-0.0008736593,-0.0136543475,0.014672239,-0.122990154,0.0002478313,0.0,0.13831186,0.29275617,0.53460664,0.17277762,0.1471365,inf,inf,inf,inf,0,1,0,1,1,0,1,0,2,0,0,1
36127348,0,0.0,0.0,0.0,0.0,-6.852088,3.2243716e-07,3.31982e-07,0.0,0.028494809,0.016240595,-0.23041135,-0.14125106,6.448743e-05,6.63964e-05,0.0,0.037902217,0.002742363,0.0331379,-0.12297793,0.0002478313,0.0,0.13338947,0.30680585,0.53364986,0.17815909,0.14695925,inf,inf,inf,inf,0,1,0,1,1,0,1,0,2,0,0,1
36227403,0,0.0,0.0,0.0,0.0,-6.8692536,3.2243716e-07,3.31982e-07,0.0,0.028403178,0.017091239,-0.22899711,-0.14322051,6.448743e-05,6.63964e-05,0.0,0.00058832334,0.016082097,0.0039405655,-0.123000994,0.0002478313,0.0,0.12543583,0.29268897,0.53271145,0.17268528,0.1467869,inf,inf,inf,inf,0,1,0,1,1,0,1,0,2,0,0,1
36727622,0,0.0,0.0,0.0,0.0,-6.9593325,3.2243716e-07,3.31982e-07,0.0,0.02863658,0.019558597,-0.22680008,-0.15656294,6.448743e-05,6.63964e-05,0.0,0.018065397,0.0012757775,-0.0020225307,-0.12302296,0.0002478313,0.0,0.123950005,0.30658188,0.53426653,0.17786983,0.1470037,inf,inf,inf,inf,0,1,0,1,1,0,1,0,2,0,0,1
36927723,0,0.0,0.0,0.0,0.0,-7.000558,3.2243716e-07,3.31982e-07,0.0,0.028561963,0.0195701,-0.22563429,-0.16473554,6.448743e-05,6.63964e-05,0.0,0.0063403365,0.026778439,-0.008431392,-0.123026244,0.0002478313,0.0,0.12680006,0.30651218,0.5323934,0.1777813,0.1466636,inf,inf,inf,inf,0,1,0,1,1,0,1,0,2,0,0,1
37027762,0,0.0,0.0,0.0,0.0,-7.0204277,3.2243716e-07,3.31982e-07,0.0,0.028555246,0.019801337,-0.22490373,-0.16737215,6.448743e-05,6.63964e-05,0.0,0.0118678035,0.024377031,-0.017735403,-0.12300182,0.0002478313,0.0,0.12469292,0.29243863,0.53771895,0.17234048,0.14756796,inf,inf,inf,inf,0,1,0,1,1,0,1,0,2,0,0,1
37127826,0,0.0,0.0,0.0,0.0,-7.0378947,3.2243716e-07,3.31982e-07,0.0,0.028088829,0.020140992,-0.22326054,-0.16649722,6.448743e-05,6.63964e-05,0.0,0.009484207,0.025019178,-0.00079876446,-0.122960374,0.0002478313,0.0,0.13168812,0.30644435,0.53676677,0.17768948,0.14739597,inf,inf,inf,inf,0,1,0,1,1,0,1,0,2,0,0,1
37227856,0,0.0,0.0,0.0,0.0,-7.054631,3.2243716e-07,3.31982e-07,0.0,0.028733376,0.020181086,-0.22276926,-0.16606745,6.448743e-05,6.63964e-05,0.0,0.0050710374,0.003837355,-0.015148534,-0.12291936,0.0002478313,0.0,0.13289309,0.29238048,0.53583276,0.1722508,0.14722893,inf,inf,inf,inf,0,1,0,1,1,0,1,0,2,0,0,1
37327902,0,0.0,0.0,0.0,0.0,-7.070605,3.2243716e-07,3.31982e-07,0.0,0.027841693,0.019527864,-0.22138022,-0.16409631,6.448743e-05,6.63964e-05,0.0,0.010037472,0.00877958,-0.04276078,-0.122907385,0.0002478313,0.0,0.13481665,0.30637783,0.5348894,0.17760001,0.14705919,inf,inf,inf,inf,0,1,0,1,1,0,1,0,2,0,0,1
37427948,0,0.0,0.0,0.0,0.0,-7.0866375,3.2243716e-07,3.31982e-07,0.0,0.027350148,0.0197136,-0.21976396,-0.1621334,6.448743e-05,6.63964e-05,0.0,0.018095506,-0.018359253,0.0137801375,-0.12292246,0.0002478313,0.0,0.13468885,0.29232362,0.53396344,0.17217362,0.14689404,inf,inf,inf,inf,0,1,0,1,1,0,1,0,2,0,0,1
37528004,0,0.0,0.0,0.0,0.0,-7.1027865,3.2243716e-07,3.31982e-07,0.0,0.02650432,0.019974997,-0.21831876,-0.16070257,6.448743e-05,6.63964e-05,0.0,-0.023403358,0.017774928,-0.022621388,-0.12289799,0.0002478313,0.0,0.13160181,0.30631316,0.5392917,0.1775188,0.14779644,inf,inf,inf,inf,0,1,0,1,1,0,1,0,2,0,0,1
37628036,0,0.0,0.0,0.0,0.0,-7.1182117,3.2243716e-07,3.31982e-07,0.0,0.026757548,0.020069888,-0.21598493,-0.15789765,6.448743e-05,6.63964e-05,0.0,0.016123826,-0.02656242,-0.0055574686,-0.12289794,0.0002478313,0.0,0.1329627,0.29226843,0.538288,0.17209354,0.14761268,inf,inf,inf,inf,0,1,0,1,1,0,1,0,2,0,0,1
38028220,0,0.0,0.0,0.0,0.0,-7.176045,3.2243716e-07,3.31982e-07,0.0,0.026738618,0.019906085,-0.20961586,-0.14829843,6.448743e-05,6.63964e-05,0.0,0.052434016,0.0066783433,-0.0038364897,-0.122876965,0.0002478313,0.0,0.1340785,0.292161,0.5343115,0.17193696,0.14688945,inf,inf,inf,inf,0,1,0,1,1,0,1,0,2,0,0,1
38228316,0,0.0,0.0,0.0,0.0,-7.2050633,3.2243716e-07,3.31982e-07,0.0,0.027218414,0.020794855,-0.20605245,-0.14459555,6.448743e-05,6.63964e-05,0.0,0.02989139,0.0043621208,0.015548507,-0.12290847,0.0002478313,0.0,0.13243675,0.29210928,0.5386559,0.17186731,0.14761837,inf,inf,inf,inf,0,1,0,1,1,0,1,0,2,0,0,1
38928640,0,0.0,0.0,0.0,0.0,-7.242266,3.2243716e-07,3.31982e-07,0.0,0.0258013,0.023783747,-0.1814148,-0.07653712,6.448743e-05,6.63964e-05,0.0,0.03399229,0.018245714,0.035781376,-0.12280652,0.0002478313,0.0,0.15043879,0.30589867,0.53820556,0.17696378,0.14751014,inf,inf,inf,inf,0,1,0,1,1,0,1,0,2,0,0,1
39028686,0,0.0,0.0,0.0,0.0,-7.242917,3.2243716e-07,3.31982e-07,0.0,0.025642164,0.024602037,-0.17753208,-0.0667155,6.448743e-05,6.63964e-05,0.0,0.008685149,0.024251312,-0.004957195,-0.12279735,0.0002478313,0.0,0.14330006,0.2919137,0.53724337,0.17158702,0.14734279,inf,inf,inf,inf,0,1,0,1,1,0,1,0,2,0,0,1
39128740,0,0.0,0.0,0.0,0.0,-7.2464933,3.2243716e-07,3.31982e-07,0.0,0.025109455,0.025034884,-0.17394598,-0.06102044,6.448743e-05,6.63964e-05,0.0,0.011590307,0.007564218,0.007525891,-0.12279683,0.0002478313,0.0,0.13676405,0.3058452,0.5362998,0.17689365,0.14718033,inf,inf,inf,inf,0,1,0,1,1,0,1,0,2,0,0,1
39228777,0,0.0,0.0,0.0,0.0,-7.249698,3.2243716e-07,3.31982e-07,0.0,0.024350284,0.024651298,-0.17013237,-0.055301864,6.448743e-05,6.63964e-05,0.0,0.02023438,0.031155,0.021943517,-0.122785956,0.0002478313,0.0,0.14038754,0.29186794,0.53534764,0.17152292,0.14701529,inf,inf,inf,inf,0,1,0,1,1,0,1,0,2,0,0,1
39428879,0,0.0,0.0,0.0,0.0,-7.2534437,3.2243716e-07,3.31982e-07,0.0,0.02362529,0.025684318,-0.16340737,-0.043819606,6.448743e-05,6.63964e-05,0.0,-0.005817168,0.013661258,0.015747696,-0.12276185,0.0002478313,0.0,0.14347649,0.29182324,0.5334719,0.17145568,0.14669235,inf,inf,inf,inf,0,1,0,1,1,0,1,0,2,0,0,1
39528924,0,0.0,0.0,0.0,0.0,-7.2548456,3.2243716e-07,3.31982e-07,0.0,0.02373124,0.02586199,-0.16041139,-0.038894966,6.448743e-05,6.63964e-05,0.0,0.036442928,0.013522737,0.00095687865,-0.122740716,0.0002478313,0.0,0.13163185,0.30574194,0.5325213,0.17675877,0.14652704,inf,inf,inf,inf,0,1,0,1,1,0,1,0,2,0,0,1
39729007,0,0.0,0.0,0.0,0.0,-7.265704,3.2243716e-07,3.31982e-07,0.0,0.024583014,0.026454387,-0.15427214,-0.037640564,6.448743e-05,6.63964e-05,0.0,0.013689522,0.009143271,0.030320156,-0.12273814,0.0002478313,0.0,0.12489748,0.30569267,0.5369093,0.17670074,0.14727825,inf,inf,inf,inf,0,1,0,1,1,0,1,0,2,0,0,1
39829063,0,0.0,0.0,0.0,0.0,-7.2714186,3.2243716e-07,3.31982e-07,0.0,0.024087692,0.027155165,-0.15163997,-0.037759326,6.448743e-05,6.63964e-05,0.0,-0.0010993117,0.031048605,-0.007487408,-0.12270217,0.0002478313,0.0,0.123380184,0.29173782,0.5359804,0.17134036,0.1471208,inf,inf,inf,inf,0,1,0,1,1,0,1,0,2,0,0,1
39929099,0,0.0,0.0,0.0,0.0,-7.277499,3.2243716e-07,3.31982e-07,0.0,0.023475265,0.026530512,-0.14952496,-0.03868293,6.448743e-05,6.63964e-05,0.0,0.020342048,-0.00992036,-0.038514525,-0.122699335,0.0002478313,0.0,0.1207428,0.30564496,0.53504264,0.17663193,0.14696057,inf,inf,inf,inf,0,1,0,1,1,0,1,0,2,0,0,1
40029146,0,0.0,0.0,0.0,0.0,-7.285168,3.2243716e-07,3.31982e-07,0.0,0.023307022,0.027382158,-0.14726321,-0.040846758,6.448743e-05,6.63964e-05,0.0,0.0043855864,-0.0045428304,-0.011268358,-0.12265748,0.0002478313,0.0,0.11581135,0.29169688,0.5340429,0.17128205,0.1467831,inf,inf,inf,inf,0,1,0,1,1,0,1,0,2,0,0,1
40229257,0,0.0,0.0,0.0,0.0,-7.300483,3.2243716e-07,3.31982e-07,0.0,0.021875594,0.028093664,-0.14255306,-0.04409842,6.448743e-05,6.63964e-05,0.0,0.014444947,-0.007109938,-0.0070177005,-0.12259818,0.0002478313,0.0,0.11662865,0.29165724,0.5383627,0.17122859,0.14751434,inf,inf,inf,inf,0,1,0,1,1,0,1,0,2,0,0,1
40529391,0,0.0,0.0,0.0,0.0,-7.323842,3.2243716e-07,3.31982e-07,0.0,0.020177782,0.029097028,-0.1375556,-0.0497904,6.448743e-05,6.63964e-05,0.0,-0.022004617,0.049866453,0.009771912,-0.12253434,0.0002478313,0.0,0.11243677,0.3055094,0.5353966,0.17646283,0.14699824,inf,inf,inf,inf,0,1,0,1,1,0,1,0,2,0,0,1
41029616,0,0.0,0.0,0.0,0.0,-7.3718667,3.2243716e-07,3.31982e-07,0.0,0.021140337,0.030258311,-0.13380536,-0.066163585,6.448743e-05,6.63964e-05,0.0,0.001078404,0.013261807,0.0029958987,-0.12246426,0.0002478313,0.0,0.11024809,0.2915118,0.5368066,0.17104857,0.1472339,inf,inf,inf,inf,0,1,0,1,1,0,1,0,2,0,0,1
41229706,0,0.0,0.0,0.0,0.0,-7.3912086,3.2243716e-07,3.31982e-07,0.0,0.020545403,0.029856019,-0.13125588,-0.06956395,6.448743e-05,6.63964e-05,0.0,-0.0085226,-0.009903591,0.030661797,-0.122435674,0.0002478313,0.0,0.11191177,0.29147968,0.53475785,0.1710026,0.14687286,inf,inf,inf,inf,0,1,0,1,1,0,1,0,2,0,0,1
41329750,0,0.0,0.0,0.0,0.0,-7.4003763,3.2243716e-07,3.31982e-07,0.0,0.020708073,0.028972168,-0.13022757,-0.07072719,6.448743e-05,6.63964e-05,0.0,0.0022778711,0.015088022,0.034720603,-0.12241466,0.0002478313,0.0,0.107925415,0.30535263,0.53373927,0.17627794,0.14669374,inf,inf,inf,inf,0,1,0,1,1,0,1,0,2,0,0,1
41629889,0,0.0,0.0,0.0,0.0,-7.436865,3.2243716e-07,3.31982e-07,0.0,0.021385193,0.028819026,-0.1282036,-0.082372285,6.448743e-05,6.63964e-05,0.0,0.02574839,-0.0044817626,0.0072417515,-0.122395836,0.0002478313,0.0,0.10367918,0.29141796,0.536997,0.17091456,0.14724347,inf,inf,inf,inf,0,1,0,1,1,0,1,0,2,0,0,1
41829995,0,0.0,0.0,0.0,0.0,-7.463933,3.2243716e-07,3.31982e-07,0.0,0.021207707,0.028829057,-0.1276482,-0.091374,6.448743e-05,6.63964e-05,0.0,0.008318611,-0.0018569028,0.039018035,-0.12235227,0.0002478313,0.0,0.1002717,0.29138818,0.534976,0.17087531,0.14689384,inf,inf,inf,inf,0,1,0,1,1,0,1,0,2,0,0,1
42230179,0,0.0,0.0,0.0,0.0,-7.5217195,3.2243716e-07,3.31982e-07,0.0,0.02039223,0.029653251,-0.12720115,-0.107555166,6.448743e-05,6.63964e-05,0.0,0.016059475,0.044462144,0.00048935076,-0.12234241,0.0002478313,0.0,0.10653067,0.29133147,0.5372204,0.17079303,0.14727086,inf,inf,inf,inf,0,1,0,1,1,0,1,0,2,0,0,1
42920500,0,0.0,0.0,0.0,0.0,-7.6051574,3.2243716e-07,3.31982e-07,0.0,0.018964617,0.028481284,-0.120614186,-0.10617317,6.448743e-05,6.63964e-05,0.0,0.031439364,0.03482925,0.014999984,-0.122252785,0.0002478313,0.0,0.116885185,0.30367836,0.53520834,0.17540717,0.14691827,inf,inf,inf,inf,0,1,0,1,1,0,1,0,2,0,0,1
43020537,0,0.0,0.0,0.0,0.0,-7.6137815,3.2243716e-07,3.31982e-07,0.0,0.019966519,0.02704699,-0.118948355,-0.1023128,6.448743e-05,6.63964e-05,0.0,0.022086797,-0.005533043,0.006838315,-0.122256964,0.0002478313,0.0,0.12273359,0.31810987,0.5342149,0.18072064,0.14675005,inf,inf,inf,inf,0,1,0,1,1,0,1,0,2,0,0,1
43420742,0,0.0,0.0,0.0,0.0,-7.6463237,3.2243716e-07,3.31982e-07,0.0,0.019402932,0.027287561,-0.11277278,-0.08983514,6.448743e-05,6.63964e-05,0.0,0.011251043,0.035321802,0.0052015716,-0.122149564,0.0002478313,0.0,0.11624241,0.3180439,0.53633195,0.18063714,0.14710191,inf,inf,inf,inf,0,1,0,1,1,0,1,0,2,0,0,1
43520771,0,0.0,0.0,0.0,0.0,-7.6531525,3.2243716e-07,3.31982e-07,0.0,0.01882162,0.026742263,-0.11106408,-0.08590882,6.448743e-05,6.63964e-05,0.0,-0.0046143727,0.021650737,-0.04041672,-0.12213679,0.0002478313,0.0,0.124997616,0.30359226,0.5352828,0.17528607,0.14692016,inf,inf,inf,inf,0,1,0,1,1,0,1,0,2,0,0,1
43720868,0,0.0,0.0,0.0,0.0,-7.663935,3.2243716e-07,3.31982e-07,0.0,0.01897983,0.02713023,-0.10847622,-0.07749347,6.448743e-05,6.63964e-05,0.0,-0.009896047,-0.0017370291,0.0029251878,-0.12213205,0.0002478313,0.0,0.12021637,0.30356473,0.53955233,0.17525037,0.14764969,inf,inf,inf,inf,0,1,0,1,1,0,1,0,2,0,0,1
44021024,0,0.0,0.0,0.0,0.0,-7.6832523,3.2243716e-07,3.31982e-07,0.0,0.020866493,0.026627917,-0.10367867,-0.06941556,6.448743e-05,6.63964e-05,0.0,0.005839263,-0.011100088,-0.002391746,-0.12213607,0.0002478313,0.0,0.12380743,0.3179518,0.53646237,0.18053126,0.14712456,inf,inf,inf,inf,0,1,0,1,1,0,1,0,2,0,0,1
44121052,0,0.0,0.0,0.0,0.0,-7.685781,3.2243716e-07,3.31982e-07,0.0,0.021517655,0.02573306,-0.10180429,-0.06332078,6.448743e-05,6.63964e-05,0.0,0.02101244,-0.032245353,0.018234901,-0.12214016,0.0002478313,0.0,0.12569714,0.30351326,0.5354595,0.17518717,0.1469561,inf,inf,inf,inf,0,1,0,1,1,0,1,0,2,0,0,1
44221122,0,0.0,0.0,0.0,0.0,-7.6902747,3.2243716e-07,3.31982e-07,0.0,0.02180706,0.024959663,-0.100085996,-0.060003057,6.448743e-05,6.63964e-05,0.0,0.035725378,-0.06365686,-0.0314162,-0.12215384,0.0002478313,0.0,0.11537695,0.317923,0.5344516,0.18049335,0.14678578,inf,inf,inf,inf,0,1,0,1,1,0,1,0,2,0,0,1
44321146,0,0.0,0.0,0.0,0.0,-7.6970844,3.2243716e-07,3.31982e-07,0.0,0.022204151,0.024778323,-0.09922341,-0.060101427,6.448743e-05,6.63964e-05,0.0,0.0014046101,-0.03638487,-0.021648597,-0.122138456,0.0002478313,0.0,0.112794876,0.30348852,0.5397446,0.17515911,0.14769015,inf,inf,inf,inf,0,1,0,1,1,0,1,0,2,0,0,1
44421193,0,0.0,0.0,0.0,0.0,-7.7021585,3.2243716e-07,3.31982e-07,0.0,0.022201769,0.024963798,-0.097501285,-0.057659373,6.448743e-05,6.63964e-05,0.0,0.023578053,-0.033447888,0.012161208,-0.122141965,0.0002478313,0.0,0.116677284,0.3178953,0.5386916,0.18046197,0.14750959,inf,inf,inf,inf,0,1,0,1,1,0,1,0,2,0,0,1
44521264,0,0.0,0.0,0.0,0.0,-7.7053,3.2243716e-07,3.31982e-07,0.0,0.022870459,0.02560701,-0.095245555,-0.05306321,6.448743e-05,6.63964e-05,0.0,-0.022012644,-0.012483316,-0.01400823,-0.122136556,0.0002478313,0.0,0.123925686,0.3034647,0.53763515,0.175129,0.14732781,inf,inf,inf,inf,0,1,0,1,1,0,1,0,2,0,0,1
44621292,0,0.0,0.0,0.0,0.0,-7.7064595,3.2243716e-07,3.31982e-07,0.0,0.022505956,0.02283209,-0.091933005,-0.045937523,6.448743e-05,6.63964e-05,0.0,-0.16615093,-0.2139406,0.05279858,-0.122107245,0.0002478313,0.0,0.12789202,0.3178684,0.5365755,0.1804268,0.14714476,inf,inf,inf,inf,0,1,0,1,1,0,1,0,2,0,0,1
44921431,0,0.0,0.0,0.0,0.0,-7.7084064,3.2243716e-07,3.31982e-07,0.0,0.02533722,0.021552952,-0.085307874,-0.030604525,6.448743e-05,6.63964e-05,0.0,0.09267934,-0.12796748,0.06649976,-0.122065745,0.0002478313,0.0,0.12578726,0.3034187,0.5334832,0.1750641,0.14661708,inf,inf,inf,inf,0,1,0,1,1,0,1,0,2,0,0,1
45221572,0,0.0,0.0,0.0,0.0,-7.7039638,3.2243716e-07,3.31982e-07,0.0,0.02734259,0.024434818,-0.07929269,-0.014090625,6.448743e-05,6.63964e-05,0.0,0.06705375,0.0060671996,-0.05625398,-0.12201862,0.0002478313,0.0,0.1267376,0.31779188,0.5367158,0.18034172,0.14717582,inf,inf,inf,inf,0,1,0,1,1,0,1,0,2,0,0,1
45421665,0,0.0,0.0,0.0,0.0,-7.695319,3.2243716e-07,3.31982e-07,0.0,0.02791444,0.024421731,-0.071830146,0.0026348555,6.448743e-05,6.63964e-05,0.0,0.050530225,-0.07364363,-0.015394422,-0.12198803,0.0002478313,0.0,0.12921953,0.31776837,0.53470623,0.18031351,0.14683895,inf,inf,inf,inf,0,1,0,1,1,0,1,0,2,0,0,1
46021944,0,0.0,0.0,0.0,0.0,-7.657605,3.2243716e-07,3.31982e-07,0.0,0.029636867,0.023748465,-0.05091372,0.04146146,6.448743e-05,6.63964e-05,0.0,0.024393825,0.01187858,-0.021850288,-0.12192105,0.0002478313,0.0,0.108931065,0.31769884,0.53476846,0.18021628,0.1468488,inf,inf,inf,inf,0,1,0,1,1,0,1,0,2,0,0,1
46121991,0,0.0,0.0,0.0,0.0,-7.657152,3.2243716e-07,3.31982e-07,0.0,0.029847607,0.023082368,-0.04957801,0.03841864,6.448743e-05,6.63964e-05,0.0,0.012414351,0.019540843,-0.037481774,-0.12191172,0.0002478313,0.0,0.1,0.3032952,0.5337392,0.17490229,0.14667323,inf,inf,inf,inf,0,1,0,1,1,0,1,0,2,0,0,1
46222038,0,0.0,0.0,0.0,0.0,-7.6603694,3.2243716e-07,3.31982e-07,0.0,0.0306748,0.023439743,-0.047825024,0.03255434,6.448743e-05,6.63964e-05,0.0,0.007177165,-0.00040587859,0.04258888,-0.121905506,0.0002478313,0.0,0.1,0.31767642,0.5390133,0.1801934,0.14757489,inf,inf,inf,inf,0,1,0,1,1,0,1,0,2,0,0,1
46422161,0,0.0,0.0,0.0,0.0,-7.68215,3.2243716e-07,3.31982e-07,0.0,0.032390896,0.023766942,-0.048187263,0.0049294615,6.448743e-05,6.63964e-05,0.0,0.02210576,0.03163327,0.032099124,-0.12189584,0.0002478313,0.0,0.1,0.3176551,0.53697103,0.18016283,0.14723162,inf,inf,inf,inf,0,1,0,1,1,0,1,0,2,0,0,1
46822329,0,0.0,0.0,0.0,0.0,-7.746566,3.2243716e-07,3.31982e-07,0.0,0.03498176,0.023253141,-0.053127,-0.055691667,6.448743e-05,6.63964e-05,0.0,0.018086344,0.03813431,0.005068903,-0.12188022,0.0002478313,0.0,0.1,0.31761292,0.5391986,0.18011054,0.14761801,inf,inf,inf,inf,0,1,0,1,1,0,1,0,2,0,0,1
46922392,0,0.0,0.0,0.0,0.0,-7.7670417,3.2243716e-07,3.31982e-07,0.0,0.03605786,0.02276767,-0.05601408,-0.07245071,6.448743e-05,6.63964e-05,0.0,0.0062450236,0.029975904,0.0064270194,-0.12187901,0.0002478313,0.0,0.1,0.30322105,0.53814447,0.17480554,0.14743742,inf,inf,inf,inf,0,1,0,1,1,0,1,0,2,0,0,1
47422607,0,0.0,0.0,0.0,0.0,-7.892491,3.2243716e-07,3.31982e-07,0.0,0.039659325,0.022498347,-0.07047004,-0.15246427,6.448743e-05,6.63964e-05,0.0,0.045837916,0.03694955,0.010643307,-0.12190638,0.0002478313,0.0,0.1,0.31755483,0.53932494,0.18004656,0.14764477,inf,inf,inf,inf,0,1,0,1,1,0,1,0,2,0,0,1
48022888,0,0.0,0.0,0.0,0.0,-8.035959,3.2243716e-07,3.31982e-07,0.0,0.04320398,0.02039409,-0.087951474,-0.19839709,6.448743e-05,6.63964e-05,0.0,0.010953526,0.02530566,0.0032057953,-0.1219701,0.0002478313,0.0,0.1,0.31750482,0.5394914,0.1799974,0.1476801,inf,inf,inf,inf,0,1,0,1,1,0,1,0,2,0,0,1
48122935,0,0.0,0.0,0.0,0.0,-8.059553,3.2243716e-07,3.31982e-07,0.0,0.043883197,0.01988999,-0.09089125,-0.20334432,6.448743e-05,6.63964e-05,0.0,0.01721881,0.0062443614,0.010473332,-0.12197394,0.0002478313,0.0,0.1,0.3031292,0.53845114,0.17470333,0.14750311,inf,inf,inf,inf,0,1,0,1,1,0,1,0,2,0,0,1
48222981,0,0.0,0.0,0.0,0.0,-8.083094,3.2243716e-07,3.31982e-07,0.0,0.045306727,0.01970096,-0.09385188,-0.20781618,6.448743e-05,6.63964e-05,0.0,0.03478407,-0.027215816,0.029889049,-0.12199445,0.0002478313,0.0,0.1,0.31749004,0.5374071,0.17998551,0.1473246,inf,inf,inf,inf,0,1,0,1,1,0,1,0,2,0,0,1
48323040,0,0.0,0.0,0.0,0.0,-8.106163,3.2243716e-07,3.31982e-07,0.0,0.04502466,0.01892252,-0.094657086,-0.2094227,6.448743e-05,6.63964e-05,0.0,0.023479812,-0.0069576944,0.010694817,-0.121985845,0.0002478313,0.0,0.1,0.30311695,0.5363594,0.17469455,0.1471447,inf,inf,inf,inf,0,1,0,1,1,0,1,0,2,0,0,1
49023361,0,0.0,0.0,0.0,0.0,-8.271823,3.2243716e-07,3.31982e-07,0.0,0.04878653,0.01717674,-0.11129145,-0.2280234,6.448743e-05,6.63964e-05,0.0,0.040814072,0.022563122,0.015287913,-0.12193635,0.0002478313,0.0,0.108841896,0.31743735,0.53555113,0.17992304,0.14701869,inf,inf,inf,inf,0,1,0,1,1,0,1,0,2,0,0,1
49123414,0,0.0,0.0,0.0,0.0,-8.294522,3.2243716e-07,3.31982e-07,0.0,0.049106322,0.016928049,-0.112567715,-0.22796649,6.448743e-05,6.63964e-05,0.0,0.027024867,0.043464296,0.01293849,-0.12197891,0.0002478313,0.0,0.10879421,0.3030717,0.5344869,0.17463808,0.1468328,inf,inf,inf,inf,0,1,0,1,1,0,1,0,2,0,0,1
49223461,0,0.0,0.0,0.0,0.0,-8.317164,3.2243716e-07,3.31982e-07,0.0,0.049808905,0.017802171,-0.11463747,-0.22867309,6.448743e-05,6.63964e-05,0.0,-0.0063306163,0.043283466,0.02597104,-0.12197542,0.0002478313,0.0,0.1132803,0.31742558,0.5397803,0.17991358,0.1477371,inf,inf,inf,inf,0,1,0,1,1,0,1,0,2,0,0,1
49923802,0,0.0,0.0,0.0,0.0,-8.444878,3.2243716e-07,3.31982e-07,0.0,0.051983874,0.019170443,-0.12275371,-0.20438114,6.448743e-05,6.63964e-05,0.0,-0.00057100464,-0.026619768,0.028493362,-0.1220628,0.0002478313,0.0,0.12992573,0.30303326,0.5388728,0.17459074,0.14758483,inf,inf,inf,inf,0,1,0,1,1,0,1,0,2,0,0,1
