timestamp,timestamp_sample,baro_device_id,baro_alt_meter,baro_temp_celcius,baro_pressure_pa,rho
2942117,2924389,3997706,100.368515,36.3,100125.25,1.1896536
3002440,2979722,3997706,100.474205,36.3,100124.0,1.1896387
3052731,3032527,3997706,100.61953,36.3,100122.25,1.189618
3104099,3085570,3997706,100.72523,36.3,100121.0,1.1896031
3164346,3141609,3997706,100.61953,36.309998,100122.25,1.189618
3214587,3194385,3997706,100.70409,36.309998,100121.25,1.1896061
3325208,3302458,3997706,100.72523,36.32,100121.0,1.1896031
3375473,3355266,3997706,100.72523,36.309998,100121.0,1.1896031
3426737,3408781,3997706,100.57725,36.309998,100122.75,1.189624
3487018,3464310,3997706,100.51648,36.32,100123.5,1.1896328
3537314,3517102,3997706,100.80978,36.32,100119.99,1.1895912
3587703,3569908,3997706,100.80978,36.32,100119.99,1.1895912
3647944,3625216,3997706,100.53761,36.32,100123.25,1.1896298
3698332,3678014,3997706,100.788635,36.32,100120.25,1.1895941
3749604,3731495,3997706,100.87319,36.329998,100119.25,1.1895823
3809720,3787026,3997706,100.661804,36.329998,100121.75,1.189612
3860023,3839825,3997706,100.70409,36.32,100121.25,1.1896061
4021906,4000974,3997706,100.61953,36.329998,100122.25,1.189618
4072081,4054415,3997706,100.80978,36.329998,100119.99,1.1895912
4132423,4109704,3997706,100.915474,36.34,100118.74,1.1895763
4182725,4162517,3997706,100.74636,36.329998,100120.74,1.1896
4233021,4215325,3997706,100.57725,36.34,100122.75,1.189624
4344717,4323933,3997706,100.83092,36.34,100119.74,1.1895882
4395374,4377147,3997706,100.661804,36.34,100121.75,1.189612
4455329,4432432,3997706,100.72523,36.35,100121.0,1.1896031
4505624,4485235,3997706,100.661804,36.35,100121.75,1.189612
4616281,4593333,3997706,100.68294,36.35,100121.5,1.189609
4717659,4699965,3997706,100.93661,36.36,100118.49,1.1895733
4778009,4755266,3997706,100.70409,36.36,100121.25,1.1896061
4828311,4808090,3997706,100.93661,36.36,100118.49,1.1895733
4878559,4860893,3997706,100.64067,36.37,100122.0,1.189615
4940281,4916652,3997706,100.53761,36.36,100123.25,1.1896298
5110916,5090638,3997706,100.915474,36.37,100118.74,1.1895763
5161182,5143503,3997706,100.915474,36.37,100118.74,1.1895763
5272731,5252522,3997706,100.95775,36.38,100118.24,1.1895703
5383423,5360701,3997706,100.80978,36.38,100119.99,1.1895912
5433701,5413509,3997706,101.00002,36.39,100117.75,1.1895645
5546113,5522592,3997706,100.97888,36.39,100117.99,1.1895673
5766613,5748904,3997706,100.87319,36.39,100119.24,1.1895822
5928636,5910893,3997706,101.29332,36.399998,100114.24,1.1895229
6201161,6180897,3997706,101.29332,36.41,100114.24,1.1895229
6251423,6233723,3997706,101.29332,36.41,100114.24,1.1895229
6413239,6395502,3997706,101.12421,36.42,100116.25,1.1895467
6473496,6450784,3997706,101.01852,36.42,100117.5,1.1895615
6523756,6503571,3997706,101.48357,36.42,100111.99,1.189496
6634379,6611630,3997706,101.42015,36.43,100112.74,1.189505
6956944,6934251,3997706,101.251045,36.44,100114.75,1.1895288
7008318,6987544,3997706,101.29332,36.44,100114.24,1.1895229
7058621,7040943,3997706,101.54698,36.44,100111.24,1.1894872
7118920,7096234,3997706,101.42015,36.44,100112.74,1.189505
7169256,7149004,3997706,101.251045,36.45,100114.75,1.1895288
7219467,7201796,3997706,101.31445,36.44,100114.0,1.1895199
7280861,7257305,3997706,101.01852,36.45,100117.5,1.1895615
7331156,7310748,3997706,101.39901,36.46,100113.0,1.1895081
7381190,7363493,3997706,101.46243,36.46,100112.25,1.1894991
7441580,7418782,3997706,101.46243,36.46,100112.24,1.189499
7491878,7471626,3997706,101.335594,36.46,100113.74,1.1895169
7703985,7686256,3997706,101.145355,36.469997,100116.0,1.1895437
7764284,7741579,3997706,101.50471,36.469997,100111.74,1.1894931
7814607,7794395,3997706,101.60776,36.469997,100110.5,1.1894784
7926208,7903211,3997706,101.37788,36.48,100113.24,1.189511
8027186,8009129,3997706,101.35674,36.48,100113.5,1.189514
8087269,8064440,3997706,101.42015,36.48,100112.74,1.189505
8249054,8226371,3997706,101.544334,36.489998,100111.26,1.1894873
8299342,8279153,3997706,101.39901,36.489998,100113.0,1.1895081
8410008,8387281,3997706,101.77686,36.489998,100108.5,1.1894546
8460261,8440052,3997706,101.52584,36.5,100111.49,1.1894901
8571812,8549091,3997706,101.60776,36.5,100110.5,1.1894784
8622069,8601858,3997706,101.77686,36.5,100108.5,1.1894546
8672472,8654723,3997706,101.31445,36.51,100114.0,1.1895199
8783938,8763285,3997706,101.692314,36.51,100109.5,1.1894665
8834196,8816517,3997706,101.63154,36.52,100110.24,1.1894753
8894609,8871872,3997706,101.62889,36.52,100110.25,1.1894754
8944858,8924680,3997706,101.671165,36.51,100109.75,1.1894695
9106868,9086489,3997706,101.922195,36.52,100106.75,1.1894338
9157332,9139264,3997706,101.73459,36.52,100109.0,1.1894605
9217853,9194568,3997706,101.73459,36.53,100109.0,1.1894605
9277680,9253387,3997706,101.665886,36.53,100109.805,1.18947
9439580,9421890,3997706,101.88255,36.54,100107.25,1.1894398
9550313,9529942,3997706,101.692314,36.54,100109.5,1.1894665
9600426,9582730,3997706,101.565475,36.54,100111.0,1.1894842
9660765,9638029,3997706,101.84028,36.55,100107.74,1.1894456
9822588,9799821,3997706,101.65003,36.55,100110.0,1.1894724
9872821,9852639,3997706,101.819145,36.55,100107.99,1.1894486
9984535,9960981,3997706,101.63154,36.55,100110.24,1.1894753
10195787,10175460,3997706,101.77686,36.57,100108.5,1.1894546
10307485,10284644,3997706,101.84028,36.57,100107.75,1.1894456
10358308,10337444,3997706,102.00939,36.57,100105.75,1.1894219
10518434,10498221,3997706,102.11244,36.579998,100104.5,1.1894071
10630023,10607282,3997706,102.21814,36.579998,100103.25,1.1893922
11053320,11035632,3997706,102.28155,36.6,100102.5,1.1893833
11164928,11144260,3997706,102.21814,36.6,100103.25,1.1893922
11215230,11197513,3997706,102.21814,36.6,100103.25,1.1893922
11487974,11467502,3997706,102.34496,36.62,100101.75,1.1893743
11538747,11520359,3997706,102.13358,36.62,100104.25,1.1894041
11598447,11575632,3997706,101.9856,36.62,100106.0,1.1894249
11648778,11628437,3997706,102.17586,36.62,100103.75,1.1893982
11698964,11681239,3997706,102.21814,36.62,100103.25,1.1893922
11760287,11736992,3997706,102.30268,36.62,100102.25,1.1893803
11810491,11790286,3997706,102.15472,36.63,100104.0,1.1894011
11921142,11898412,3997706,102.19699,36.63,100103.5,1.1893952
11971420,11951218,3997706,102.366104,36.63,100101.49,1.1893713
12021797,12004024,3997706,102.32383,36.64,100102.0,1.1893773
12083120,12060281,3997706,102.13358,36.64,100104.25,1.1894041
12133289,12113083,3997706,102.28155,36.64,100102.5,1.1893833
12244066,12221311,3997706,102.11244,36.649998,100104.5,1.1894071
12405873,12383165,3997706,102.30268,36.649998,100102.25,1.1893803
12456203,12435997,3997706,102.32383,36.649998,100102.0,1.1893773
12506485,12488802,3997706,102.34496,36.66,100101.74,1.1893743
12729225,12705995,3997706,102.38724,36.67,100101.24,1.1893684
12779583,12758805,3997706,102.40838,36.67,100100.99,1.1893654
12900760,12879976,3997706,102.32383,36.67,100102.0,1.1893773
13011295,12988591,3997706,102.40838,36.68,100101.0,1.1893655
13061647,13041425,3997706,102.15472,36.68,100104.0,1.1894011
13172288,13149499,3997706,102.21814,36.68,100103.25,1.1893922
13384266,13364030,3997706,102.45066,36.69,100100.5,1.1893595
13596394,13578714,3997706,102.34496,36.7,100101.74,1.1893743
13706914,13686742,3997706,102.40838,36.71,100101.0,1.1893655
13818892,13795401,3997706,102.469154,36.71,100100.25,1.1893566
13919964,13901583,3997706,102.55371,36.719997,100099.25,1.1893446
14029975,14009739,3997706,102.61712,36.719997,100098.5,1.1893358
14141584,14118762,3997706,102.68054,36.73,100097.75,1.1893269
14242186,14224488,3997706,102.53522,36.73,100099.49,1.1893475
14302534,14279823,3997706,102.68054,36.73,100097.75,1.1893269
14353827,14333077,3997706,102.80737,36.73,100096.25,1.189309
14404108,14386298,3997706,102.7651,36.73,100096.75,1.189315
14726782,14709055,3997706,102.78623,36.75,100096.5,1.189312
14787128,14764394,3997706,102.99762,36.75,100093.99,1.1892822
14837569,14817164,3997706,102.701675,36.75,100097.5,1.1893239
14887847,14870041,3997706,102.7651,36.75,100096.75,1.189315
15000009,14979236,3997706,102.93156,36.76,100094.74,1.1892911
15110464,15087292,3997706,103.037254,36.76,100093.49,1.1892762
15231607,15200576,3997706,102.99762,36.77,100093.99,1.1892822
15392585,15369847,3997706,102.91306,36.77,100094.99,1.1892941
15442843,15422659,3997706,102.95534,36.78,100094.49,1.1892881
15493075,15475414,3997706,102.93156,36.78,100094.74,1.1892911
15554413,15531395,3997706,103.037254,36.78,100093.49,1.1892762
15654834,15637153,3997706,103.142944,36.79,100092.25,1.1892616
15877157,15854131,3997706,102.93156,36.8,100094.74,1.1892911
15927428,15907214,3997706,103.10067,36.8,100092.75,1.1892674
16200558,16177241,3997706,103.16408,36.809998,100091.99,1.1892585
16260947,16236011,3997706,103.09802,36.809998,100092.79,1.1892679
16381292,16356624,3997706,103.21429,36.82,100091.39,1.1892513
16492417,16471910,3997706,103.46002,36.82,100088.49,1.1892169
16603060,16580294,3997706,103.248634,36.82,100091.0,1.1892467
16653309,16633119,3997706,103.33319,36.82,100089.99,1.1892347
16703578,16685912,3997706,103.33319,36.829998,100090.0,1.1892347
16865332,16847637,3997706,103.29091,36.829998,100090.5,1.1892407
16976090,16955830,3997706,103.39661,36.84,100089.24,1.1892258
17188307,17170569,3997706,103.2275,36.85,100091.25,1.1892496
17410539,17387772,3997706,103.35433,36.86,100089.75,1.1892318
17461108,17440542,3997706,103.49966,36.86,100088.0,1.189211
17571842,17548573,3997706,103.269775,36.86,100090.75,1.1892437
17631632,17607361,3997706,103.46794,36.87,100088.4,1.1892158
17743065,17722864,3997706,103.46002,36.87,100088.49,1.1892169
17853768,17831079,3997706,103.52079,36.88,100087.74,1.1892079
17904032,17883848,3997706,103.64763,36.88,100086.24,1.1891901
18499518,18476746,3997706,103.35433,36.899998,100089.75,1.1892318
18550807,18530256,3997706,103.46002,36.899998,100088.49,1.1892169
18600950,18583278,3997706,103.478516,36.91,100088.24,1.1892139
18711953,18691350,3997706,103.248634,36.91,100091.0,1.1892467
18781995,18751633,3997706,103.3649,36.91,100089.6,1.1892301
18883327,18865385,3997706,103.64763,36.91,100086.24,1.1891901
18993883,18973689,3997706,103.64763,36.92,100086.24,1.1891901
19266323,19243557,3997706,103.45738,36.93,100088.5,1.189217
19366861,19349169,3997706,103.6899,36.94,100085.75,1.1891843
19427236,19404511,3997706,103.478516,36.94,100088.25,1.189214
19750062,19727298,3997706,103.33319,36.96,100090.0,1.1892347
19801441,19780840,3997706,103.816734,36.95,100084.24,1.1891663
19912673,19889151,3997706,103.58421,36.969997,100087.0,1.1891991
20032534,20009805,3997706,103.56307,36.96,100087.24,1.189202
20083702,20062830,3997706,103.54194,36.969997,100087.49,1.1892049
20133920,20116253,3997706,103.816734,36.969997,100084.25,1.1891664
20194328,20171551,3997706,103.75333,36.969997,100085.0,1.1891754
20244654,20224372,3997706,103.60535,36.969997,100086.74,1.1891961
20294900,20277212,3997706,103.54194,36.969997,100087.5,1.189205
20517045,20494352,3997706,103.60535,36.98,100086.76,1.1891962
20617768,20600013,3997706,103.62649,36.989998,100086.5,1.1891931
20729350,20709161,3997706,103.66877,36.989998,100086.0,1.1891873
20779659,20761975,3997706,103.85902,37.0,100083.74,1.1891605
20890295,20870107,3997706,104.00434,37.0,100082.0,1.1891397
20940614,20922895,3997706,103.60535,37.0,100086.76,1.1891962
21001881,20979116,3997706,104.11003,37.01,100080.75,1.1891248
21334615,21314389,3997706,103.98321,37.02,100082.25,1.1891427
21384931,21367249,3997706,103.98321,37.02,100082.25,1.1891427
21445406,21422603,3997706,103.88015,37.02,100083.5,1.1891575
21546993,21528476,3997706,104.21573,37.02,100079.5,1.18911
21607315,21584425,3997706,103.919785,37.03,100083.0,1.1891516
21657466,21637215,3997706,103.90129,37.03,100083.24,1.1891545
21707686,21690011,3997706,104.11003,37.04,100080.75,1.1891248
21818338,21798132,3997706,103.94092,37.04,100082.75,1.1891487
21929975,21907259,3997706,104.11003,37.04,100080.75,1.1891248
21980373,21960090,3997706,103.88015,37.05,100083.5,1.1891575
22091000,22068286,3997706,104.33991,37.05,100078.0,1.1890922
22193451,22174891,3997706,104.0889,37.059998,100081.0,1.1891278
22313230,22288976,3997706,104.1576,37.059998,100080.195,1.1891183
22535265,22512534,3997706,104.23686,37.07,100079.25,1.1891071
22585619,22565397,3997706,104.173454,37.07,100080.0,1.189116
22858021,22835319,3997706,104.36369,37.079998,100077.75,1.1890892
22908298,22888100,3997706,104.67813,37.079998,100074.0,1.1890447
22958637,22940921,3997706,104.53017,37.09,100075.75,1.1890655
23020026,22996532,3997706,104.61472,37.09,100074.75,1.1890535
23120544,23102860,3997706,104.46674,37.09,100076.5,1.1890744
23231138,23210944,3997706,104.36369,37.1,100077.75,1.1890892
23342778,23319547,3997706,104.63586,37.11,100074.5,1.1890506
23443556,23425584,3997706,104.57243,37.1,100075.25,1.1890595
23826492,23803694,3997706,104.72041,37.12,100073.5,1.1890388
23876866,23856550,3997706,104.78118,37.13,100072.75,1.1890298
23928415,23909814,3997706,104.699265,37.13,100073.75,1.1890417
24038639,24018450,3997706,104.61472,37.13,100074.75,1.1890535
24089017,24071317,3997706,104.74155,37.13,100073.25,1.1890358
24149554,24126693,3997706,104.76269,37.14,100073.0,1.1890328
24251086,24233345,3997706,104.46674,37.13,100076.49,1.1890743
24361802,24341622,3997706,104.699265,37.14,100073.75,1.1890417
24574207,24556191,3997706,104.78118,37.149998,100072.75,1.1890298
24634156,24611458,3997706,104.88687,37.149998,100071.5,1.1890149
24734807,24716986,3997706,105.077126,37.16,100069.24,1.1889881
24796050,24773018,3997706,104.593575,37.16,100075.0,1.1890565
24846385,24826147,3997706,104.74155,37.16,100073.25,1.1890358
24957083,24934336,3997706,104.76269,37.16,100073.0,1.1890328
25007385,24987149,3997706,104.86574,37.17,100071.75,1.1890179
25058718,25040633,3997706,104.950294,37.17,100070.74,1.189006
25119061,25096177,3997706,104.86574,37.18,100071.75,1.1890179
25169146,25148943,3997706,104.823456,37.18,100072.25,1.1890239
25219464,25201763,3997706,104.593575,37.18,100075.0,1.1890565
25279817,25257103,3997706,104.78118,37.18,100072.75,1.1890298
25331311,25310419,3997706,104.86574,37.19,100071.75,1.1890179
25441867,25419177,3997706,104.844604,37.19,100072.0,1.1890209
25542535,25524776,3997706,104.86574,37.19,100071.75,1.1890179
26047288,26024408,3997706,105.22509,37.219997,100067.49,1.1889673
26209311,26185800,3997706,105.20396,37.219997,100067.75,1.1889704
26259439,26239147,3997706,105.30965,37.219997,100066.49,1.1889554
26420284,26400059,3997706,105.1194,37.23,100068.75,1.1889822
26531833,26509118,3997706,105.14053,37.23,100068.49,1.1889793
26915142,26890788,3997706,105.45233,37.25,100064.8,1.1889353
27025997,27005432,3997706,105.56066,37.25,100063.49,1.1889198
27137185,27114467,3997706,105.624084,37.26,100062.74,1.188911
27187503,27167284,3997706,105.853966,37.26,100060.0,1.1888783
27237890,27220065,3997706,105.70864,37.26,100061.74,1.188899
27348529,27328195,3997706,105.832825,37.26,100060.25,1.1888813
27460149,27437357,3997706,106.08649,37.27,100057.25,1.1888456
27510420,27490204,3997706,105.74827,37.27,100061.26,1.1888933
27622035,27598584,3997706,105.81433,37.28,100060.5,1.1888843
27722603,27704906,3997706,105.81433,37.28,100060.5,1.1888843
27833242,27812977,3997706,105.81169,37.28,100060.51,1.1888844
27944880,27921610,3997706,106.12877,37.29,100056.75,1.1888397
27995961,27974825,3997706,106.02308,37.29,100057.99,1.1888545
28065724,28035138,3997706,106.007225,37.3,100058.19,1.1888568
28186098,28163250,3997706,106.23446,37.3,100055.5,1.1888249
28287682,28269514,3997706,106.14991,37.309998,100056.5,1.1888367
28347919,28325158,3997706,106.12877,37.309998,100056.74,1.1888397
28398308,28377986,3997706,106.17104,37.309998,100056.25,1.1888337
28508868,28486177,3997706,106.19218,37.309998,100055.99,1.1888307
28610420,28592658,3997706,105.93852,37.32,100059.0,1.1888665
28721028,28700846,3997706,106.37979,37.32,100053.75,1.188804
28832610,28809225,3997706,106.37979,37.329998,100053.75,1.188804
29043877,29023576,3997706,106.3375,37.34,100054.25,1.18881
29155537,29131883,3997706,106.295235,37.34,100054.75,1.188816
29256407,29238226,3997706,106.31637,37.34,100054.5,1.188813
29528476,29508208,3997706,106.506615,37.36,100052.25,1.1887863
29639083,29616373,3997706,106.35865,37.36,100054.0,1.188807
29740654,29722662,3997706,106.35865,37.36,100054.0,1.188807
30012206,29991919,3997706,106.739136,37.37,100049.5,1.1887536
30063304,30045626,3997706,106.4432,37.38,100053.0,1.1887952
30123721,30101005,3997706,106.37979,37.38,100053.75,1.188804
30224371,30206597,3997706,106.4432,37.38,100053.0,1.1887952
30284742,30261989,3997706,106.3375,37.38,100054.25,1.18881
30336113,30315451,3997706,106.527756,37.39,100052.0,1.1887833
30387117,30368527,3997706,106.35865,37.39,100054.0,1.188807
30507157,30482597,3997706,106.4934,37.39,100052.41,1.188788
30729174,30706376,3997706,106.46434,37.41,100052.75,1.1887922
30829729,30812062,3997706,106.2556,37.41,100055.25,1.1888219
30891171,30867566,3997706,106.506615,37.41,100052.25,1.1887863
30941357,30921088,3997706,106.48548,37.41,100052.5,1.1887892
30991671,30973906,3997706,106.48548,37.42,100052.5,1.1887892
31152634,31134882,3997706,106.69687,37.42,100050.0,1.1887596
31214074,31190869,3997706,106.69687,37.42,100050.0,1.1887596
31264132,31243928,3997706,106.46434,37.42,100052.75,1.1887922
31587537,31566693,3997706,106.718,37.43,100049.75,1.1887566
31859526,31836771,3997706,106.48548,37.45,100052.5,1.1887892
31960142,31942439,3997706,106.67573,37.45,100050.25,1.1887624
32071758,32051522,3997706,106.400925,37.46,100053.5,1.188801
32122000,32104302,3997706,106.48548,37.46,100052.5,1.1887892
32505227,32482498,3997706,106.67573,37.469997,100050.25,1.1887624
32555534,32535326,3997706,106.54889,37.469997,100051.74,1.1887802
32606902,32588380,3997706,106.96902,37.469997,100046.75,1.188721
32717884,32697126,3997706,106.88447,37.48,100047.75,1.1887327
32768267,32749892,3997706,106.739136,37.48,100049.5,1.1887536
32828459,32805216,3997706,106.90561,37.489998,100047.5,1.1887298
32949503,32926049,3997706,106.90561,37.489998,100047.5,1.1887298
32999765,32979543,3997706,106.739136,37.489998,100049.5,1.1887536
33050089,33032367,3997706,107.05357,37.5,100045.74,1.1887089
33160901,33140598,3997706,106.65459,37.5,100050.5,1.1887654
33322870,33302633,3997706,106.88447,37.51,100047.75,1.1887327
33373207,33355455,3997706,106.84219,37.51,100048.25,1.1887387
33595602,33572747,3997706,106.80256,37.52,100048.75,1.1887447
33807703,33787400,3997706,106.80256,37.53,100048.75,1.1887447
33858251,33840154,3997706,106.84219,37.53,100048.25,1.1887387
33918404,33895506,3997706,106.86333,37.53,100048.0,1.1887357
34180903,34163158,3997706,107.074715,37.54,100045.49,1.1887059
34241233,34218476,3997706,107.24383,37.54,100043.49,1.1886822
34403249,34380424,3997706,106.96902,37.55,100046.75,1.188721
34503740,34486054,3997706,107.117,37.55,100045.0,1.1887001
34615281,34594625,3997706,107.201546,37.55,100043.99,1.1886882
34725825,34703137,3997706,107.24383,37.559998,100043.49,1.1886822
34826423,34808719,3997706,107.2861,37.559998,100042.99,1.1886762
35270840,35253094,3997706,107.32573,37.579998,100042.5,1.1886704
35331170,35308449,3997706,107.283455,37.59,100043.0,1.1886764
35381656,35361293,3997706,107.36801,37.579998,100042.0,1.1886644
35431841,35414146,3997706,107.307236,37.59,100042.74,1.1886733
35493267,35469670,3997706,107.09585,37.59,100045.24,1.188703
35543572,35523157,3997706,107.307236,37.6,100042.74,1.1886733
35593766,35575955,3997706,107.22269,37.59,100043.74,1.1886852
35704326,35684092,3997706,107.34952,37.6,100042.25,1.1886674
35916622,35898871,3997706,107.51598,37.61,100040.25,1.1886437
36027364,36007029,3997706,107.47371,37.61,100040.75,1.1886497
36139336,36116286,3997706,107.53712,37.62,100040.0,1.1886407
36239724,36221787,3997706,107.328384,37.62,100042.49,1.1886703
36351209,36330123,3997706,107.328384,37.629997,100042.49,1.1886703
36401332,36383636,3997706,107.43143,37.62,100041.25,1.1886555
36461748,36439044,3997706,107.47371,37.629997,100040.75,1.1886497
36562423,36544712,3997706,107.89384,37.629997,100035.76,1.1885903
36674038,36653808,3997706,107.64281,37.64,100038.74,1.1886257
36724270,36706569,3997706,107.32573,37.64,100042.5,1.1886704
37047238,37029509,3997706,107.558266,37.649998,100039.75,1.1886377
37157868,37137621,3997706,107.60054,37.66,100039.24,1.1886317
37270096,37246839,3997706,107.60054,37.66,100039.24,1.1886317
37330665,37305633,3997706,107.65602,37.67,100038.6,1.188624
37440423,37420222,3997706,107.64281,37.66,100038.74,1.1886257
37975641,37957905,3997706,107.79079,37.69,100037.0,1.1886051
38036906,38013957,3997706,107.62167,37.69,100038.99,1.1886287
38248217,38227963,3997706,107.53712,37.7,100040.0,1.1886407
38359854,38336989,3997706,107.47371,37.7,100040.75,1.1886497
38460756,38442546,3997706,107.38915,37.71,100041.75,1.1886615
38783036,38765348,3997706,107.53712,37.719997,100040.0,1.1886407
38893764,38873510,3997706,107.748505,37.719997,100037.5,1.188611
39105802,39088126,3997706,107.72736,37.73,100037.74,1.1886139
39217409,39196752,3997706,107.663956,37.73,100038.5,1.1886228
39428637,39410925,3997706,107.83042,37.739998,100036.5,1.1885991
39490290,39466537,3997706,107.79079,37.75,100036.99,1.188605
39540440,39520108,3997706,107.62167,37.75,100038.99,1.1886287
39591095,39572969,3997706,107.87534,37.75,100035.99,1.188593
39822944,39802760,3997706,107.91497,37.76,100035.5,1.1885872
39933685,39910929,3997706,107.79079,37.77,100036.99,1.188605
40196234,40178548,3997706,107.93875,37.77,100035.24,1.1885842
40307979,40287248,3997706,107.769646,37.77,100037.24,1.1886079
40358211,40340528,3997706,108.06294,37.78,100033.75,1.1885664
40418589,40395874,3997706,107.91497,37.78,100035.49,1.1885872
40519135,40501447,3997706,108.0418,37.79,100034.0,1.1885694
40681777,40663300,3997706,107.87534,37.79,100036.0,1.1885931
40791864,40771389,3997706,108.08408,37.8,100033.5,1.1885635
40913203,40892536,3997706,107.89648,37.8,100035.74,1.18859
41023852,41001140,3997706,107.99953,37.809998,100034.5,1.1885754
41074116,41053929,3997706,107.957245,37.809998,100035.0,1.1885812
41184784,41162046,3997706,108.29546,37.809998,100031.0,1.1885338
41236020,41215782,3997706,108.210915,37.82,100032.0,1.1885456
41286375,41268558,3997706,108.18978,37.82,100032.24,1.1885486
41346583,41323878,3997706,108.02067,37.82,100034.25,1.1885724
41396943,41376712,3997706,107.93611,37.82,100035.25,1.1885842
41447450,41429587,3997706,108.316605,37.829998,100030.75,1.1885308
41508772,41485960,3997706,108.16863,37.82,100032.49,1.1885514
41609345,41591640,3997706,108.41966,37.829998,100029.5,1.1885159
41669699,41646988,3997706,108.232056,37.829998,100031.75,1.1885427
41719998,41699777,3997706,108.02067,37.84,100034.25,1.1885724
41832462,41808832,3997706,108.48307,37.84,100028.75,1.1885071
41892213,41867692,3997706,108.01009,37.84,100034.39,1.1885741
42002534,41982276,3997706,108.1475,37.85,100032.75,1.1885545
42053710,42035551,3997706,108.25319,37.84,100031.5,1.1885397
42114161,42091373,3997706,108.27168,37.85,100031.25,1.1885368
42164512,42144290,3997706,108.18978,37.86,100032.25,1.1885486
42275245,42252481,3997706,108.232056,37.86,100031.74,1.1885426
42598956,42575514,3997706,108.29546,37.87,100031.0,1.1885338
42649299,42629090,3997706,108.210915,37.87,100031.99,1.1885456
42699635,42681902,3997706,108.210915,37.87,100032.0,1.1885456
42760032,42737264,3997706,108.16863,37.87,100032.49,1.1885514
42810280,42790067,3997706,108.18978,37.879997,100032.25,1.1885486
42922938,42899269,3997706,108.35624,37.879997,100030.25,1.1885248
43042840,43019971,3997706,108.06294,37.879997,100033.74,1.1885663
43092976,43072751,3997706,108.5042,37.89,100028.5,1.1885041
43204532,43181797,3997706,108.39851,37.899998,100029.75,1.1885189
43305106,43287388,3997706,108.08408,37.899998,100033.5,1.1885635
43415802,43395553,3997706,108.232056,37.899998,100031.75,1.1885427
43527409,43504552,3997706,108.16863,37.899998,100032.49,1.1885514
43688242,43665458,3997706,108.16863,37.91,100032.49,1.1885514
43739463,43718500,3997706,108.08408,37.91,100033.5,1.1885635
43789770,43772097,3997706,108.39851,37.92,100029.75,1.1885189
43900552,43880323,3997706,108.08408,37.92,100033.5,1.1885635
43950798,43933134,3997706,108.25319,37.92,100031.5,1.1885397
44133074,44102480,3997706,108.36153,37.92,100030.195,1.1885242
44183432,44162793,3997706,108.12636,37.93,100032.99,1.1885574
44233708,44215549,3997706,108.29546,37.93,100031.0,1.1885338
44506010,44485597,3997706,107.99953,37.94,100034.5,1.1885754
44940478,44917678,3997706,108.27168,37.96,100031.25,1.1885368
44990704,44970524,3997706,108.12636,37.96,100033.0,1.1885575
45101393,45078628,3997706,108.18978,37.96,100032.25,1.1885486
45202909,45185120,3997706,107.99953,37.96,100034.5,1.1885754
45323898,45299251,3997706,108.17657,37.969997,100032.39,1.1885502
45434369,45413882,3997706,107.91497,37.98,100035.5,1.1885872
45545706,45522985,3997706,108.1475,37.98,100032.74,1.1885544
45596132,45575814,3997706,108.16863,37.98,100032.5,1.1885515
45646527,45628703,3997706,108.210915,37.98,100031.99,1.1885456
45707013,45684093,3997706,108.316605,37.989998,100030.75,1.1885308
45758243,45737924,3997706,108.335106,37.98,100030.5,1.1885278
45868748,45846060,3997706,108.16863,37.989998,100032.49,1.1885514
45969499,45951689,3997706,108.41966,38.0,100029.5,1.1885159
46030837,46007989,3997706,108.65218,38.0,100026.75,1.1884832
46081006,46060807,3997706,108.75787,38.0,100025.5,1.1884685
46131282,46113601,3997706,108.75787,38.0,100025.5,1.1884685
46191696,46168916,3997706,108.58876,38.01,100027.5,1.1884922
46241914,46221727,3997706,108.71559,38.01,100026.0,1.1884743
46353528,46330742,3997706,108.65218,38.01,100026.75,1.1884832
46524495,46504180,3997706,108.779015,38.02,100025.25,1.1884655
46847519,46827182,3997706,108.83978,38.03,100024.5,1.1884565
46959059,46936311,3997706,108.96662,38.03,100023.0,1.1884387
47059758,47041966,3997706,108.987755,38.04,100022.75,1.1884357
47171256,47150993,3997706,108.96662,38.04,100023.0,1.1884387
47281954,47259206,3997706,108.73674,38.04,100025.75,1.1884714
47443906,47420866,3997706,109.13572,38.05,100021.0,1.1884149
47495039,47473896,3997706,109.07231,38.05,100021.75,1.1884239
47605115,47582029,3997706,108.96662,38.059998,100023.0,1.1884387
47776582,47756331,3997706,109.2837,38.059998,100019.24,1.1883941
47826940,47809183,3997706,108.92434,38.07,100023.5,1.1884446
47887323,47864595,3997706,109.03003,38.07,100022.25,1.1884298
47989098,47970501,3997706,109.114586,38.07,100021.25,1.1884179
48099636,48079419,3997706,108.884705,38.079998,100024.0,1.1884506
48210324,48187529,3997706,109.07231,38.079998,100021.75,1.1884239
48311925,48294210,3997706,109.17801,38.079998,100020.49,1.1884089
48584544,48564247,3997706,109.220276,38.1,100019.99,1.188403
48745851,48725079,3997706,108.92434,38.1,100023.5,1.1884446
48815631,48785387,3997706,109.270485,38.1,100019.4,1.1883959
48866888,48846196,3997706,109.17801,38.1,100020.49,1.1884089
48917412,48899569,3997706,109.32597,38.11,100018.74,1.1883881
48977789,48954981,3997706,109.13572,38.11,100021.0,1.1884149
49028115,49007852,3997706,109.2837,38.11,100019.24,1.1883941
49078516,49060707,3997706,109.220276,38.11,100019.99,1.188403
49139784,49116975,3997706,109.19914,38.12,100020.24,1.188406
49190025,49169746,3997706,109.15686,38.12,100020.74,1.1884118
49240206,49222525,3997706,109.17801,38.12,100020.49,1.1884089
49300714,49277878,3997706,108.92434,38.129997,100023.5,1.1884446
49512916,49492674,3997706,109.13572,38.129997,100021.0,1.1884149
49623589,49600820,3997706,109.2837,38.129997,100019.24,1.1883941
49674946,49654154,3997706,109.3656,38.14,100018.25,1.1883823
49785820,49762684,3997706,108.94547,38.14,100023.25,1.1884416
49906365,49875768,3997706,109.38939,38.14,100018.0,1.1883793
50027743,50005006,3997706,109.34711,38.149998,100018.49,1.1883851
50128517,50110674,3997706,109.26255,38.149998,100019.49,1.188397
50240396,50219412,3997706,109.2837,38.16,100019.24,1.1883941
50350907,50328181,3997706,109.17801,38.16,100020.49,1.1884089
50401188,50380992,3997706,109.34711,38.16,100018.49,1.1883851
50613487,50595712,3997706,109.70382,38.17,100014.24,1.1883347
50673854,50651100,3997706,109.34711,38.17,100018.49,1.1883851
50724126,50703915,3997706,109.682686,38.18,100014.49,1.1883376
50836949,50812932,3997706,109.87293,38.18,100012.24,1.1883109
51056812,51039145,3997706,109.7461,38.19,100013.74,1.1883287
51168505,51148233,3997706,109.97598,38.19,100011.0,1.1882961
51330642,51309605,3997706,109.99976,38.2,100010.74,1.1882931
51441130,51418414,3997706,109.661545,38.21,100014.75,1.1883407
51491428,51471203,3997706,110.03939,38.2,100010.25,1.1882873
51602183,51579354,3997706,110.01826,38.21,100010.5,1.1882902
51764060,51741359,3997706,109.87293,38.219997,100012.24,1.1883109
51986926,51962323,3997706,110.02883,38.219997,100010.39,1.1882889
52047488,52024181,3997706,110.08167,38.219997,100009.74,1.1882812
52168591,52145318,3997706,110.12395,38.23,100009.25,1.1882753
52218790,52198590,3997706,109.99976,38.23,100010.74,1.1882931
52430045,52412299,3997706,109.80951,38.23,100012.99,1.1883198
52652131,52629448,3997706,109.87293,38.25,100012.24,1.1883109
52753955,52735904,3997706,110.03939,38.25,100010.25,1.1882873
53026515,53005690,3997706,110.10281,38.26,100009.5,1.1882783
53076766,53058997,3997706,110.18737,38.26,100008.5,1.1882664
53137507,53114260,3997706,110.01826,38.26,100010.5,1.1882902
53187949,53167019,3997706,110.29306,38.27,100007.25,1.1882516
53257609,53227375,3997706,110.044685,38.27,100010.195,1.1882865
53580661,53557795,3997706,110.35647,38.28,100006.49,1.1882426
53682112,53664394,3997706,110.35647,38.28,100006.5,1.1882427
53792766,53772571,3997706,110.16623,38.29,100008.74,1.1882693
53904442,53881127,3997706,110.39876,38.29,100006.0,1.1882367
53954619,53934376,3997706,110.229645,38.29,100008.0,1.1882604
54065190,54042455,3997706,110.14509,38.3,100009.0,1.1882724
54115526,54095307,3997706,110.03939,38.3,100010.25,1.1882873
54165918,54148132,3997706,110.3142,38.3,100007.0,1.1882486
54388315,54365317,3997706,110.29306,38.309998,100007.25,1.1882516
54438842,54418097,3997706,110.462166,38.309998,100005.24,1.1882277
54610147,54592419,3997706,110.438385,38.32,100005.5,1.1882308
54670588,54647780,3997706,110.37762,38.32,100006.25,1.1882397
54720825,54700613,3997706,110.39876,38.32,100006.0,1.1882367
54771170,54753419,3997706,110.64977,38.32,100003.0,1.1882011
54832653,54809667,3997706,110.3142,38.329998,100007.0,1.1882486
54882714,54862531,3997706,110.6075,38.329998,100003.5,1.188207
54993471,54970631,3997706,110.62864,38.329998,100003.25,1.188204
55316217,55293528,3997706,110.7766,38.34,100001.5,1.1881832
55478498,55455364,3997706,110.75546,38.35,100001.75,1.1881862
55578808,55560894,3997706,110.565216,38.36,100004.0,1.188213
55801048,55778269,3997706,110.924576,38.36,99999.75,1.1881624
55902952,55884233,3997706,110.90344,38.36,99999.99,1.1881653
55963140,55940426,3997706,110.88229,38.37,100000.24,1.1881683
56063864,56046117,3997706,110.84002,38.37,100000.75,1.1881744
56175637,56155099,3997706,110.924576,38.379997,99999.75,1.1881624
56336596,56316382,3997706,110.924576,38.379997,99999.75,1.1881624
56448296,56425484,3997706,110.7766,38.39,100001.5,1.1881832
56498930,56478268,3997706,110.84002,38.39,100000.75,1.1881744
56609251,56586332,3997706,111.112175,38.399998,99997.5,1.1881357
56931755,56909021,3997706,111.23901,38.399998,99996.0,1.1881179
56982069,56961858,3997706,111.03027,38.41,99998.49,1.1881475
57033448,57014873,3997706,111.19673,38.399998,99996.5,1.1881238
57093688,57070935,3997706,111.112175,38.41,99997.5,1.1881357
57466909,57446665,3997706,111.112175,38.43,99997.5,1.1881357
57679745,57661302,3997706,110.985344,38.43,99999.0,1.1881535
57739542,57716617,3997706,111.19673,38.43,99996.5,1.1881238
57951536,57931330,3997706,111.15446,38.44,99997.0,1.1881298
58162825,58145105,3997706,111.38698,38.45,99994.24,1.188097
58224139,58201361,3997706,111.28129,38.45,99995.49,1.1881119
58324637,58306938,3997706,111.4504,38.45,99993.5,1.1880882
58435263,58415069,3997706,111.42925,38.46,99993.75,1.1880912
58809431,58791632,3997706,111.23901,38.469997,99996.0,1.1881179
58930520,58905728,3997706,111.29186,38.48,99995.39,1.1881107
59152121,59129428,3997706,111.40812,38.489998,99994.0,1.1880941
59363456,59343153,3997706,111.365845,38.489998,99994.49,1.1881
59525213,59504996,3997706,111.40812,38.5,99993.99,1.188094
59575478,59557806,3997706,111.471535,38.5,99993.24,1.1880851
59797769,59775070,3997706,111.38698,38.51,99994.24,1.188097
59898316,59880607,3997706,111.598366,38.51,99991.75,1.1880674
60060763,60042554,3997706,111.51381,38.52,99992.75,1.1880792
60171166,60150610,3997706,111.471535,38.52,99993.24,1.1880851
60282397,60258909,3997706,111.82825,38.52,99988.99,1.1880347
60382916,60365226,3997706,111.61686,38.53,99991.5,1.1880645
60443321,60420585,3997706,111.701416,38.53,99990.5,1.1880525
60493587,60473398,3997706,111.68028,38.54,99990.75,1.1880555
60543980,60526166,3997706,111.68028,38.53,99990.75,1.1880555
60655446,60635137,3997706,111.701416,38.54,99990.5,1.1880525
60705671,60687974,3997706,111.55609,38.54,99992.24,1.1880733
60765988,60743280,3997706,111.93394,38.55,99987.76,1.18802
60816309,60796051,3997706,111.78597,38.54,99989.49,1.1880406
60866622,60848903,3997706,111.76483,38.55,99989.75,1.1880436
61139234,61118957,3997706,111.659134,38.55,99991.0,1.1880585
61190526,61172476,3997706,111.68028,38.559998,99990.75,1.1880555
61311910,61286909,3997706,111.9128,38.559998,99988.0,1.1880229
61533362,61510660,3997706,111.76483,38.57,99989.75,1.1880436
61583664,61563465,3997706,111.89167,38.57,99988.24,1.1880257
61694258,61671534,3997706,111.82825,38.579998,99988.99,1.1880347
61744556,61724330,3997706,111.87052,38.579998,99988.5,1.1880288
61795853,61778035,3997706,111.80711,38.579998,99989.24,1.1880376
61856054,61833321,3997706,111.68028,38.579998,99990.75,1.1880555
62118581,62100910,3997706,112.01849,38.59,99986.74,1.188008
62229283,62209043,3997706,111.9128,38.59,99987.99,1.1880227
62279605,62261873,3997706,111.82825,38.6,99989.0,1.1880348
62341086,62317442,3997706,111.80711,38.6,99989.24,1.1880376
62391284,62371018,3997706,111.89167,38.6,99988.24,1.1880257
62502288,62479094,3997706,111.68028,38.61,99990.75,1.1880555
62562445,62537863,3997706,111.778046,38.61,99989.6,1.1880419
62622355,62599648,3997706,111.97621,38.61,99987.24,1.1880138
62673582,62653165,3997706,111.89167,38.61,99988.24,1.1880257
62723862,62706169,3997706,111.93394,38.61,99987.76,1.18802
63157429,63137145,3997706,111.93394,38.62,99987.74,1.1880198
63269143,63246317,3997706,111.9128,38.629997,99987.99,1.1880227
63430105,63407390,3997706,112.039635,38.629997,99986.5,1.188005
63874561,63851740,3997706,112.20609,38.649998,99984.5,1.1879812
63924760,63904576,3997706,112.248375,38.649998,99984.0,1.1879753
63975081,63957386,3997706,112.145325,38.649998,99985.24,1.1879901
64035473,64012745,3997706,112.145325,38.66,99985.24,1.1879901
64197428,64174572,3997706,112.08191,38.66,99986.0,1.1879991
64247641,64227419,3997706,112.20609,38.66,99984.5,1.1879812
64297875,64280211,3997706,112.039635,38.67,99986.49,1.188005
64409474,64388758,3997706,111.93394,38.67,99987.74,1.1880198
64459685,64442016,3997706,112.06077,38.68,99986.24,1.188002
64520050,64497324,3997706,112.35407,38.67,99982.74,1.1879604
64620653,64602964,3997706,112.50204,38.68,99981.0,1.1879396
64682102,64658482,3997706,112.18496,38.68,99984.75,1.1879842
64732871,64712054,3997706,112.375206,38.68,99982.5,1.1879575
64853350,64832761,3997706,112.1004,38.69,99985.76,1.1879961
64923489,64893035,3997706,112.48354,38.69,99981.2,1.187942
65246291,65223507,3997706,112.33293,38.7,99982.99,1.1879634
65407924,65385221,3997706,112.54432,38.7,99980.5,1.1879337
65508550,65490825,3997706,112.45976,38.71,99981.49,1.1879455
65568933,65546128,3997706,112.58659,38.71,99979.99,1.1879277
65620044,65599627,3997706,112.52317,38.71,99980.75,1.1879367
65730838,65708099,3997706,112.7742,38.71,99977.75,1.187901
66113890,66089631,3997706,112.87196,38.73,99976.6,1.1878874
66275720,66258039,3997706,112.79534,38.73,99977.5,1.187898
66548254,66527858,3997706,112.75307,38.739998,99978.0,1.187904
66658745,66636010,3997706,112.54432,38.75,99980.5,1.1879337
66759284,66741582,3997706,112.50204,38.76,99981.0,1.1879396
66921326,66903634,3997706,112.90103,38.75,99976.25,1.1878833
66981644,66958957,3997706,112.69228,38.76,99978.75,1.187913
67031942,67011730,3997706,112.7742,38.76,99977.75,1.187901
67083369,67064753,3997706,113.02786,38.76,99974.75,1.1878654
67194618,67173668,3997706,113.048996,38.77,99974.5,1.1878624
67354819,67334584,3997706,112.816475,38.77,99977.25,1.187895
67516663,67496463,3997706,112.922165,38.78,99976.0,1.1878803
67567000,67549287,3997706,112.69228,38.78,99978.75,1.187913
67627297,67604599,3997706,112.65001,38.78,99979.25,1.1879189
67678667,67657862,3997706,112.90103,38.78,99976.25,1.1878833
67839490,67819282,3997706,113.21811,38.79,99972.5,1.1878387
67951172,67927710,3997706,113.070145,38.79,99974.25,1.1878594
68001518,67981269,3997706,113.17319,38.79,99973.0,1.1878446
68051789,68034105,3997706,113.196976,38.8,99972.75,1.1878417
68112321,68089415,3997706,113.27888,38.8,99971.75,1.1878297
68162530,68142317,3997706,113.17319,38.79,99973.0,1.1878446
68213909,68195853,3997706,113.13355,38.8,99973.5,1.1878506
68274194,68251406,3997706,112.87989,38.8,99976.5,1.1878862
68325017,68304147,3997706,112.98559,38.8,99975.25,1.1878713
68445451,68424765,3997706,112.96445,38.809998,99975.49,1.1878742
68515393,68485081,3997706,113.39514,38.82,99970.39,1.1878136
68566740,68546356,3997706,112.85876,38.82,99976.74,1.1878891
68616868,68599175,3997706,112.943306,38.809998,99975.74,1.1878772
68677253,68654524,3997706,113.070145,38.82,99974.25,1.1878594
68727615,68707340,3997706,113.300026,38.82,99971.5,1.1878268
68777843,68760113,3997706,113.23924,38.82,99972.25,1.1878357
68939746,68922037,3997706,113.27888,38.829998,99971.75,1.1878297
69050376,69030166,3997706,113.300026,38.829998,99971.5,1.1878268
69100720,69083004,3997706,113.363434,38.829998,99970.75,1.1878179
69161965,69139243,3997706,113.6171,38.829998,99967.74,1.1877822
69424895,69406546,3997706,113.23924,38.84,99972.25,1.1878357
69535353,69514947,3997706,113.408356,38.84,99970.24,1.1878119
69807729,69784946,3997706,113.595955,38.86,99967.99,1.1877851
69908303,69890602,3997706,113.595955,38.85,99968.0,1.1877853
70019984,69999678,3997706,113.27888,38.86,99971.75,1.1878297
70181032,70160610,3997706,113.743935,38.87,99966.25,1.1877644
70231299,70213465,3997706,113.3423,38.87,99971.0,1.1878209
70453533,70430826,3997706,113.408356,38.879997,99970.24,1.1878119
70503871,70483613,3997706,113.38722,38.879997,99970.49,1.1878148
70555171,70537145,3997706,113.595955,38.879997,99968.0,1.1877853
70666205,70645557,3997706,113.44799,38.879997,99969.74,1.1878059
70736084,70705847,3997706,113.37665,38.879997,99970.59,1.187816
70837568,70819662,3997706,113.65938,38.89,99967.24,1.1877762
70948411,70928104,3997706,113.57482,38.89,99968.24,1.1877881
71110434,71089583,3997706,113.511406,38.899998,99968.99,1.187797
71220812,71198120,3997706,113.595955,38.899998,99968.0,1.1877853
71381835,71359016,3997706,113.72279,38.899998,99966.5,1.1877674
71705817,71682617,3997706,113.65938,38.92,99967.25,1.1877763
71756423,71735638,3997706,113.86812,38.92,99964.75,1.1877466
71806819,71788458,3997706,114.037224,38.92,99962.75,1.1877228
71867179,71843759,3997706,113.91303,38.92,99964.24,1.1877406
71926904,71902635,3997706,113.81528,38.92,99965.4,1.1877543
72149301,72126506,3997706,113.91303,38.93,99964.24,1.1877406
72199674,72179354,3997706,113.78621,38.94,99965.75,1.1877584
72311204,72288444,3997706,113.825836,38.94,99965.25,1.1877525
72472042,72449339,3997706,113.743935,38.94,99966.25,1.1877644
72522464,72502150,3997706,114.037224,38.95,99962.74,1.1877227
72573574,72555896,3997706,113.849625,38.95,99965.0,1.1877496
72684287,72664023,3997706,113.825836,38.95,99965.25,1.1877525
72734663,72716918,3997706,113.91303,38.95,99964.24,1.1877406
72846721,72826038,3997706,114.037224,38.95,99962.75,1.1877228
72957169,72934221,3997706,114.05837,38.96,99962.5,1.1877198
73128828,73108059,3997706,114.079506,38.96,99962.25,1.1877168
73239281,73216578,3997706,114.079506,38.969997,99962.24,1.1877168
73339864,73322173,3997706,114.079506,38.969997,99962.24,1.1877168
73400171,73377476,3997706,113.99495,38.969997,99963.25,1.1877288
73562113,73539301,3997706,114.26975,38.98,99960.0,1.1876901
73662694,73644917,3997706,114.01609,38.98,99963.0,1.1877258
73723990,73700811,3997706,113.72279,38.989998,99966.49,1.1877673
73774316,73754057,3997706,114.12178,38.989998,99961.74,1.1877109
73884895,73862203,3997706,113.955315,38.989998,99963.74,1.1877346
73985484,73967804,3997706,113.88926,38.989998,99964.5,1.1877437
74097667,74076940,3997706,113.99495,38.989998,99963.24,1.1877286
74207804,74184987,3997706,113.99495,39.0,99963.24,1.1877286
74258001,74237740,3997706,114.037224,39.0,99962.76,1.1877229
74308266,74290523,3997706,114.20634,39.0,99960.75,1.1876991
74369519,74346756,3997706,113.91303,39.01,99964.24,1.1877406
74419789,74399585,3997706,113.955315,39.01,99963.74,1.1877346
74530524,74507764,3997706,114.20634,39.01,99960.74,1.187699
74580996,74560612,3997706,114.16406,39.01,99961.25,1.187705
74632291,74614411,3997706,114.079506,39.02,99962.24,1.1877168
74692467,74669715,3997706,114.079506,39.02,99962.24,1.1877168
74904784,74884581,3997706,114.20634,39.02,99960.74,1.187699
75015480,74992705,3997706,114.22747,39.03,99960.5,1.1876961
75065721,75045537,3997706,114.142914,39.03,99961.49,1.1877079
75177402,75154070,3997706,114.24861,39.03,99960.25,1.1876931
75398601,75380868,3997706,114.31203,39.04,99959.5,1.1876842
75671300,75650933,3997706,114.31203,39.05,99959.5,1.1876842
75782778,75760015,3997706,114.33317,39.05,99959.25,1.1876812
75883375,75865602,3997706,113.99495,39.059998,99963.25,1.1877288
75993989,75973785,3997706,114.20634,39.059998,99960.76,1.1876992
76045257,76027249,3997706,114.29089,39.059998,99959.75,1.1876872
76105517,76082760,3997706,114.22747,39.059998,99960.5,1.1876961
76155724,76135555,3997706,114.16406,39.07,99961.24,1.1877049
76206046,76188351,3997706,114.43622,39.059998,99958.0,1.1876664
76316841,76296530,3997706,114.43622,39.07,99958.0,1.1876664
76429079,76405664,3997706,114.26975,39.07,99960.0,1.1876901
76549446,76526345,3997706,114.079506,39.079998,99962.24,1.1877168
76670885,76648074,3997706,114.33317,39.079998,99959.24,1.1876812
76771630,76753730,3997706,114.31203,39.079998,99959.5,1.1876842
76831985,76809210,3997706,114.22747,39.079998,99960.5,1.1876961
76993910,76971105,3997706,114.29089,39.09,99959.75,1.1876872
77044145,77023964,3997706,114.29089,39.09,99959.74,1.187687
77094459,77076768,3997706,114.39658,39.09,99958.5,1.1876724
77155920,77132585,3997706,114.33317,39.1,99959.25,1.1876812
77206157,77185939,3997706,114.43886,39.1,99957.99,1.1876663
77256479,77238757,3997706,114.49963,39.1,99957.25,1.1876575
77821520,77803784,3997706,114.45999,39.12,99957.74,1.1876633
77932197,77911993,3997706,114.68987,39.12,99954.99,1.1876307
78043732,78020763,3997706,114.58418,39.129997,99956.25,1.1876456
78144201,78126524,3997706,114.520775,39.129997,99957.0,1.1876545
78254869,78234639,3997706,114.626465,39.129997,99955.75,1.1876397
78366421,78343464,3997706,114.49963,39.14,99957.25,1.1876575
78467085,78449391,3997706,114.626465,39.14,99955.75,1.1876397
78577769,78557530,3997706,114.520775,39.149998,99956.99,1.1876544
78690244,78666646,3997706,114.647606,39.14,99955.49,1.1876366
78810107,78787306,3997706,114.66874,39.149998,99955.25,1.1876338
78860301,78840102,3997706,114.58418,39.149998,99956.25,1.1876456
78911691,78893137,3997706,114.68987,39.16,99955.0,1.1876308
79022363,79002035,3997706,114.56305,39.16,99956.5,1.1876485
79133070,79110255,3997706,114.647606,39.16,99955.5,1.1876367
79184319,79163266,3997706,114.647606,39.16,99955.5,1.1876367
79234593,79216788,3997706,114.647606,39.17,99955.49,1.1876366
79294862,79272097,3997706,114.66874,39.16,99955.25,1.1876338
79345161,79324894,3997706,114.96468,39.17,99951.75,1.1875921
79395359,79377690,3997706,114.520775,39.17,99956.99,1.1876544
79455720,79432999,3997706,114.90126,39.17,99952.5,1.1876011
79557361,79539663,3997706,114.81671,39.18,99953.5,1.1876129
79617785,79595062,3997706,114.83785,39.18,99953.25,1.1876099
79779764,79756674,3997706,114.732155,39.18,99954.5,1.1876248
79900881,79870005,3997706,114.705734,39.19,99954.8,1.1876284
80020944,79998167,3997706,114.83785,39.19,99953.25,1.1876099
80122322,80104602,3997706,114.88013,39.19,99952.75,1.1876041
80182603,80159897,3997706,114.732155,39.19,99954.51,1.1876249
80232905,80212692,3997706,114.753296,39.2,99954.25,1.1876218
80283230,80265552,3997706,115.04924,39.2,99950.74,1.1875801
80343571,80320871,3997706,114.90126,39.2,99952.5,1.1876011
80394865,80373872,3997706,115.00431,39.2,99951.25,1.1875862
80445197,80427341,3997706,115.06773,39.2,99950.5,1.1875772
80505469,80482668,3997706,114.626465,39.2,99955.75,1.1876397
80606117,80588318,3997706,114.81671,39.21,99953.5,1.1876129
80717729,80697421,3997706,115.08887,39.21,99950.25,1.1875743
80878685,80858457,3997706,114.732155,39.219997,99954.51,1.1876249
80990365,80967006,3997706,114.94354,39.219997,99951.99,1.187595
81041305,81020267,3997706,114.92241,39.219997,99952.25,1.1875981
81091369,81073092,3997706,114.98318,39.219997,99951.5,1.1875892
81312989,81290298,3997706,115.08887,39.23,99950.25,1.1875743
81413761,81395979,3997706,114.94354,39.23,99951.99,1.187595
81736624,81718851,3997706,115.17342,39.239998,99949.25,1.1875625
81797025,81774237,3997706,115.00696,39.25,99951.24,1.1875861
81848265,81828064,3997706,115.17342,39.239998,99949.25,1.1875625
82009239,81989032,3997706,115.04659,39.25,99950.75,1.1875802
82059534,82041853,3997706,115.06773,39.25,99950.5,1.1875772
82120854,82097832,3997706,115.194565,39.26,99949.0,1.1875595
82171913,82150826,3997706,115.2157,39.26,99948.75,1.1875565
82362102,82339331,3997706,115.23685,39.27,99948.5,1.1875535
82463787,82445961,3997706,114.81671,39.27,99953.5,1.1876129
82524060,82501337,3997706,115.2157,39.27,99948.75,1.1875565
82624779,82607046,3997706,115.17342,39.27,99949.25,1.1875625
82736393,82716098,3997706,115.17342,39.28,99949.25,1.1875625
82786652,82768890,3997706,115.194565,39.27,99949.0,1.1875595
82847001,82824224,3997706,115.06773,39.28,99950.5,1.1875772
82948649,82930145,3997706,115.00696,39.28,99951.24,1.1875861
83008859,82986164,3997706,115.300255,39.28,99947.75,1.1875446
83169750,83147054,3997706,115.08887,39.29,99950.25,1.1875743
83220100,83199854,3997706,115.13115,39.29,99949.75,1.1875684
83332474,83308931,3997706,115.32139,39.3,99947.5,1.1875416
83392165,83367744,3997706,115.27912,39.3,99948.0,1.1875476
83512681,83488355,3997706,115.17871,39.3,99949.2,1.1875619
83574096,83550481,3997706,115.09151,39.3,99950.24,1.1875743
83624219,83604003,3997706,115.44823,39.3,99946.0,1.1875238
83734993,83712191,3997706,115.57506,39.309998,99944.49,1.1875058
83947085,83926898,3997706,115.427086,39.32,99946.25,1.1875268
84108337,84087938,3997706,115.532776,39.32,99944.99,1.1875118
84219854,84197085,3997706,115.27912,39.32,99947.99,1.1875474
84382064,84358326,3997706,115.553925,39.329998,99944.75,1.187509
84432975,84411847,3997706,115.300255,39.329998,99947.75,1.1875446
84603120,84585305,3997706,115.70189,39.329998,99942.99,1.1874881
84663355,84640658,3997706,115.38481,39.329998,99946.75,1.1875328
84714655,84694177,3997706,115.65697,39.34,99943.5,1.1874942
84764946,84747227,3997706,115.61733,39.34,99943.99,1.1875
85087789,85070072,3997706,115.532776,39.35,99944.99,1.1875118
85148148,85125455,3997706,115.36368,39.35,99947.0,1.1875356
85249770,85231308,3997706,115.57506,39.35,99944.49,1.1875058
85360426,85340208,3997706,115.76266,39.36,99942.25,1.1874793
85471049,85448309,3997706,115.61733,39.36,99943.99,1.1875
85572854,85554643,3997706,115.61733,39.36,99943.99,1.1875
85683765,85662932,3997706,115.72038,39.37,99942.75,1.1874852
85753565,85723228,3997706,115.76795,39.37,99942.2,1.1874787
85803759,85783525,3997706,115.32139,39.37,99947.5,1.1875416
86128167,86107038,3997706,115.46937,39.379997,99945.74,1.1875207
86521176,86498452,3997706,115.61733,39.39,99943.99,1.1875
86571501,86551282,3997706,115.868355,39.39,99941.0,1.1874644
86621764,86604084,3997706,115.57506,39.39,99944.49,1.1875058
86733359,86713073,3997706,115.659615,39.399998,99943.49,1.187494
86844581,86821086,3997706,115.74152,39.399998,99942.5,1.1874822
86904206,86879908,3997706,115.91856,39.399998,99940.39,1.1874572
86964455,86941726,3997706,115.61733,39.41,99943.99,1.1875
87126412,87103635,3997706,115.69925,39.41,99943.0,1.1874882
87499687,87479477,3997706,115.84721,39.43,99941.25,1.1874673
87550943,87532514,3997706,115.51164,39.43,99945.24,1.1875148
87611345,87588601,3997706,115.69925,39.43,99943.0,1.1874882
87661701,87641424,3997706,115.868355,39.43,99941.0,1.1874644
87772264,87749547,3997706,115.61733,39.43,99943.99,1.1875
87823683,87802631,3997706,115.69925,39.43,99943.0,1.1874882
87873906,87856101,3997706,115.80494,39.44,99941.75,1.1874733
87934884,87911385,3997706,115.91064,39.44,99940.5,1.1874585
87994900,87970223,3997706,115.54863,39.44,99944.805,1.1875097
88055717,88032031,3997706,115.783806,39.45,99942.0,1.1874763
88115100,88090800,3997706,115.683395,39.44,99943.195,1.1874905
88176245,88152853,3997706,115.93177,39.45,99940.25,1.1874555
88226666,88206398,3997706,115.72038,39.45,99942.74,1.1874851
88337506,88314631,3997706,115.91064,39.45,99940.5,1.1874585
88387915,88367528,3997706,115.868355,39.45,99941.0,1.1874644
88439209,88421039,3997706,116.16165,39.45,99937.5,1.1874229
88761782,88744120,3997706,115.635826,39.46,99943.75,1.1874971
88822191,88799406,3997706,115.70189,39.469997,99942.99,1.1874881
88922689,88905014,3997706,115.80494,39.469997,99941.75,1.1874733
88983297,88960383,3997706,115.61733,39.469997,99943.99,1.1875
89145119,89122258,3997706,115.84721,39.469997,99941.25,1.1874673
89245644,89227801,3997706,115.889496,39.48,99940.75,1.1874615
89468059,89445308,3997706,115.80494,39.48,99941.75,1.1874733
89790950,89768197,3997706,115.74152,39.489998,99942.5,1.1874822
89892539,89874793,3997706,116.079735,39.489998,99938.5,1.1874347
89952857,89930158,3997706,116.03746,39.5,99939.0,1.1874406
90003131,89982925,3997706,116.01633,39.5,99939.24,1.1874435
90115113,90091637,3997706,115.99519,39.51,99939.49,1.1874465
90165157,90144863,3997706,115.99519,39.51,99939.5,1.1874466
90396210,90373516,3997706,116.20657,39.52,99936.99,1.1874168
90447418,90426500,3997706,116.10088,39.51,99938.24,1.1874317
90497698,90480014,3997706,115.91064,39.52,99940.5,1.1874585
90558246,90535426,3997706,116.01633,39.52,99939.24,1.1874435
90608586,90588329,3997706,115.889496,39.52,99940.75,1.1874615
90881120,90858386,3997706,115.974045,39.53,99939.75,1.1874496
90931517,90911212,3997706,116.03746,39.53,99939.0,1.1874406
90982689,90964272,3997706,115.93177,39.54,99940.25,1.1874555
91366739,91343185,3997706,116.01633,39.54,99939.24,1.1874435
91426933,91402043,3997706,116.10352,39.54,99938.195,1.1874311
91486742,91463942,3997706,116.079735,39.54,99938.5,1.1874347
91536996,91516746,3997706,116.24621,39.55,99936.5,1.187411
91588323,91570530,3997706,116.10088,39.55,99938.24,1.1874317
91648810,91625997,3997706,116.03746,39.55,99939.0,1.1874406
91810988,91787258,3997706,116.0586,39.559998,99938.74,1.1874375
91861186,91840758,3997706,116.0586,39.559998,99938.74,1.1874375
91981634,91961420,3997706,116.26734,39.57,99936.26,1.1874081
92032053,92014312,3997706,116.39417,39.57,99934.75,1.1873901
92093458,92070132,3997706,116.14316,39.57,99937.76,1.1874259
92143682,92123466,3997706,116.227715,39.57,99936.74,1.1874138
92254354,92231638,3997706,116.12202,39.57,99938.0,1.1874287
92304691,92284453,3997706,116.309616,39.57,99935.76,1.1874021
92416812,92393595,3997706,116.24621,39.579998,99936.5,1.187411
92467122,92446406,3997706,116.24621,39.579998,99936.5,1.187411
92587308,92567068,3997706,116.37304,39.579998,99935.0,1.1873931
92859818,92837032,3997706,116.18543,39.59,99937.25,1.1874199
93021778,92998843,3997706,116.41531,39.6,99934.5,1.1873872
93071834,93051594,3997706,116.49987,39.6,99933.5,1.1873753
93122037,93104355,3997706,116.54215,39.59,99932.99,1.1873692
93182466,93159722,3997706,116.29112,39.6,99935.99,1.1874049
93556941,93536246,3997706,116.563286,39.61,99932.75,1.1873664
93667781,93644678,3997706,116.457596,39.61,99934.0,1.1873813
93727780,93703511,3997706,116.61085,39.61,99932.195,1.1873598
93839342,93818556,3997706,116.436455,39.62,99934.25,1.1873842
93889465,93871780,3997706,116.64784,39.62,99931.75,1.1873544
93949784,93927078,3997706,116.60556,39.62,99932.25,1.1873604
94000054,93979857,3997706,116.436455,39.629997,99934.25,1.1873842
94050477,94032703,3997706,116.60556,39.62,99932.24,1.1873604
94162153,94141826,3997706,116.49987,39.629997,99933.5,1.1873753
94373216,94355545,3997706,116.37304,39.64,99935.0,1.1873931
94595801,94572953,3997706,116.856575,39.64,99929.25,1.1873248
94646087,94625797,3997706,116.77467,39.64,99930.25,1.1873367
94968762,94948547,3997706,116.71125,39.649998,99931.0,1.1873456
95130635,95110381,3997706,116.457596,39.66,99934.0,1.1873813
95241190,95218492,3997706,116.71125,39.66,99931.0,1.1873456
95292645,95271745,3997706,116.77467,39.66,99930.25,1.1873367
95403045,95380302,3997706,116.79317,39.66,99930.0,1.1873337
95503662,95485915,3997706,116.77467,39.66,99930.25,1.1873367
95564142,95541291,3997706,116.87772,39.67,99929.0,1.1873218
95615388,95595061,3997706,116.79317,39.67,99930.0,1.1873337
95725986,95703289,3997706,117.02569,39.67,99927.25,1.187301
95776277,95756053,3997706,117.131386,39.68,99925.99,1.1872861
95888673,95865271,3997706,117.15252,39.68,99925.75,1.1872832
95939034,95918053,3997706,117.08911,39.68,99926.5,1.1872921
95989137,95970859,3997706,117.04683,39.68,99927.0,1.187298
96049049,96026187,3997706,116.92,39.69,99928.5,1.187316
96150520,96132214,3997706,117.04683,39.69,99926.99,1.1872979
96210671,96187988,3997706,117.06796,39.69,99926.75,1.1872951
96260985,96240750,3997706,116.98341,39.69,99927.75,1.187307
96311239,96293552,3997706,116.96227,39.69,99928.0,1.18731
96371591,96348877,3997706,117.06796,39.69,99926.75,1.1872951
96421907,96401663,3997706,117.17365,39.69,99925.5,1.1872803
96473094,96455148,3997706,117.1948,39.69,99925.25,1.1872773
96583704,96563495,3997706,117.04683,39.7,99927.0,1.187298
96694437,96671610,3997706,117.06796,39.7,99926.74,1.187295
96795935,96778210,3997706,117.237076,39.71,99924.75,1.1872714
96906643,96886383,3997706,117.21594,39.71,99925.0,1.1872743
96956952,96939219,3997706,117.25821,39.71,99924.5,1.1872684
97017404,96994545,3997706,117.131386,39.71,99926.0,1.1872861
97068529,97048008,3997706,117.42468,39.719997,99922.5,1.1872447
97441301,97423585,3997706,117.340126,39.719997,99923.5,1.1872565
97501659,97478961,3997706,117.17365,39.719997,99925.49,1.1872802
97551934,97531748,3997706,117.340126,39.73,99923.5,1.1872565
97662629,97639873,3997706,117.237076,39.73,99924.75,1.1872714
97764271,97746378,3997706,117.27935,39.73,99924.25,1.1872654
97874625,97854429,3997706,117.42468,39.739998,99922.5,1.1872447
97925003,97907299,3997706,117.44846,39.739998,99922.25,1.1872417
98036758,98016513,3997706,117.40619,39.739998,99922.75,1.1872475
98087001,98069316,3997706,117.08911,39.75,99926.5,1.1872921
98147522,98124681,3997706,117.21594,39.75,99925.0,1.1872743
98248996,98230812,3997706,117.575294,39.75,99920.74,1.1872237
98369816,98345430,3997706,117.04683,39.75,99927.0,1.187298
98480284,98459979,3997706,117.38504,39.76,99923.0,1.1872505
98530495,98512787,3997706,117.38504,39.76,99923.0,1.1872505
98591712,98568779,3997706,117.27935,39.76,99924.25,1.1872654
98692306,98674628,3997706,117.61493,39.76,99920.24,1.1872177
98752628,98729929,3997706,117.340126,39.77,99923.5,1.1872565
98802951,98782729,3997706,117.42468,39.77,99922.5,1.1872447
98853264,98835555,3997706,117.44846,39.76,99922.25,1.1872417
99125805,99105568,3997706,117.678345,39.77,99919.49,1.1872089
99177152,99159126,3997706,117.63607,39.78,99919.99,1.1872149
99287865,99267618,3997706,117.55151,39.78,99921.0,1.1872268
99338071,99320399,3997706,117.42468,39.78,99922.5,1.1872447
99398663,99375752,3997706,117.51188,39.78,99921.5,1.1872327
99450356,99429648,3997706,117.784035,39.78,99918.25,1.1871941
99732446,99712184,3997706,117.44846,39.79,99922.25,1.1872417
99782679,99765009,3997706,117.805176,39.8,99917.99,1.187191
99843052,99820302,3997706,117.51188,39.8,99921.5,1.1872327
99893334,99873123,3997706,117.55151,39.8,99921.0,1.1872268
100327784,100305072,3997706,117.86859,39.82,99917.25,1.1871822
100378068,100357862,3997706,117.340126,39.82,99923.5,1.1872565
100428423,100410699,3997706,117.678345,39.82,99919.49,1.1872089
100539044,100518834,3997706,117.51188,39.82,99921.5,1.1872327
100651091,100627882,3997706,117.889725,39.82,99916.99,1.1871792
100943131,100922953,3997706,117.84746,39.829998,99917.5,1.1871852
101053753,101031044,3997706,117.7629,39.84,99918.49,1.187197
101154461,101136712,3997706,117.784035,39.84,99918.25,1.1871941
101215758,101192980,3997706,117.95315,39.84,99916.25,1.1871704
101266088,101245778,3997706,117.575294,39.84,99920.74,1.1872237
101376684,101353975,3997706,117.932014,39.84,99916.5,1.1871732
101699755,101676942,3997706,117.910866,39.85,99916.74,1.1871762
101751016,101730180,3997706,117.82632,39.86,99917.75,1.1871881
101801995,101783435,3997706,118.18303,39.86,99913.5,1.1871376
101921882,101897562,3997706,117.99014,39.86,99915.805,1.187165
102032429,102012161,3997706,118.12225,39.87,99914.24,1.1871464
102143921,102121224,3997706,117.97428,39.87,99916.0,1.1871674
102194416,102174075,3997706,118.016556,39.87,99915.5,1.1871614
102305090,102282329,3997706,118.016556,39.87,99915.5,1.1871614
102356242,102336036,3997706,117.86859,39.879997,99917.25,1.1871822
102406571,102388816,3997706,117.95315,39.879997,99916.25,1.1871704
102517148,102496944,3997706,117.95315,39.879997,99916.25,1.1871704
102628897,102605309,3997706,118.164536,39.879997,99913.74,1.1871406
102729293,102711566,3997706,117.86859,39.89,99917.25,1.1871822
102840004,102819720,3997706,117.84746,39.899998,99917.49,1.187185
103072560,103041883,3997706,118.00864,39.899998,99915.59,1.1871625
103132639,103108215,3997706,118.0562,39.899998,99915.0,1.1871555
103294294,103276353,3997706,117.99542,39.91,99915.75,1.1871644
103354710,103331988,3997706,118.20416,39.91,99913.24,1.1871346
103404993,103384801,3997706,118.164536,39.92,99913.74,1.1871406
103455442,103437589,3997706,118.037704,39.92,99915.25,1.1871585
103778215,103760539,3997706,118.62694,39.92,99908.24,1.1870751
104000403,103977633,3997706,118.50011,39.93,99909.75,1.1870931
104050695,104030466,3997706,118.64807,39.93,99907.99,1.1870723
104101030,104083272,3997706,118.373276,39.94,99911.25,1.1871109
104263372,104245104,3997706,118.28872,39.94,99912.24,1.1871227
104383495,104359190,3997706,118.64807,39.95,99907.99,1.1870723
104444719,104421291,3997706,118.352135,39.94,99911.5,1.1871139
104545315,104527626,3997706,118.267586,39.95,99912.5,1.1871258
104656094,104635849,3997706,118.43669,39.95,99910.51,1.1871021
104707417,104688891,3997706,118.563515,39.95,99909.0,1.1870842
104767873,104744909,3997706,118.41555,39.95,99910.75,1.187105
104817894,104797668,3997706,118.33099,39.96,99911.76,1.187117
104868242,104850480,3997706,118.43669,39.96,99910.5,1.187102
104928534,104905835,3997706,118.33099,39.96,99911.76,1.187117
104978857,104958642,3997706,118.47897,39.96,99910.0,1.1870961
105030100,105012146,3997706,118.43669,39.96,99910.5,1.187102
105090363,105067673,3997706,118.47897,39.96,99910.0,1.1870961
105140678,105120452,3997706,118.52124,39.96,99909.5,1.1870902
105190945,105173253,3997706,118.66921,39.96,99907.75,1.1870693
105251217,105228525,3997706,118.457825,39.969997,99910.24,1.187099
105352815,105334804,3997706,118.50011,39.969997,99909.75,1.1870931
105464526,105443175,3997706,118.47897,39.969997,99910.0,1.1870961
105584067,105563850,3997706,118.39442,39.969997,99911.0,1.1871079
105695753,105673065,3997706,118.58466,39.98,99908.75,1.1870812
105908206,105887678,3997706,118.64807,39.98,99907.99,1.1870723
106018728,105996018,3997706,118.563515,39.98,99909.0,1.1870842
106119302,106101595,3997706,118.6058,39.989998,99908.5,1.1870782
106341531,106318837,3997706,118.50011,39.989998,99909.74,1.187093
