timestamp,magnetometer_ga[0],magnetometer_ga[1],magnetometer_ga[2]
2952400,0.35512993,0.030961985,-0.05718817
3015419,0.3561129,0.031150848,-0.05796877
3026432,0.35488194,0.030207837,-0.057582892
3037456,0.35438487,0.03104873,-0.05864127
3047963,0.3544703,0.03123159,-0.057794895
3058896,0.35463443,0.030344428,-0.057843942
3068951,0.35561836,0.030470334,-0.058365617
3078984,0.35438612,0.03128387,-0.058309358
3089947,0.3548861,0.031284988,-0.056517236
3100471,0.35545874,0.030225636,-0.05715871
3111444,0.35545367,0.03076131,-0.058462553
3121492,0.35594985,0.03153325,-0.057642363
3131947,0.35495982,0.030014293,-0.05868576
3152955,0.3552963,0.03090971,-0.056674033
3163938,0.35488486,0.030681688,-0.056833785
3173982,0.3539784,0.030653208,-0.057512548
3184463,0.35553458,0.03030527,-0.058785565
3194944,0.35372818,0.030908586,-0.058462
3205449,0.35513195,0.03076243,-0.056667246
3216490,0.35471848,0.030954864,-0.057357144
3226497,0.354799,0.031157967,-0.0577931
3279024,0.35561883,0.031655602,-0.058244225
3289452,0.3552096,0.030049892,-0.05783388
3299950,0.35512894,0.031024927,-0.057447087
3310453,0.35504618,0.030723272,-0.057605043
3321500,0.35471633,0.029825434,-0.057908025
3331530,0.35529256,0.03153325,-0.05763981
3341949,0.35455167,0.030042773,-0.05800189
3352450,0.35454944,0.031494092,-0.058575068
3362946,0.35594907,0.030344428,-0.057849046
3374057,0.35463166,0.030905025,-0.058550797
3384068,0.35496232,0.030926386,-0.05804037
3394444,0.3552908,0.03026011,-0.058099266
3415460,0.35454768,0.030073691,-0.05902837
3426527,0.35479578,0.03060693,-0.05862442
3436585,0.35455394,0.03043587,-0.05742027
3489996,0.35389373,0.032174602,-0.058173757
3500519,0.35537457,0.030204277,-0.057670094
3511568,0.35405946,0.031305227,-0.057796374
3521627,0.35586324,0.030378912,-0.058789916
3532000,0.35504335,0.03179931,-0.058333423
3542494,0.35496247,0.030042773,-0.058003485
3552996,0.3548004,0.03087767,-0.057439666
3575057,0.35389706,0.031989288,-0.057311703
3585577,0.353724,0.030199593,-0.059543032
3638042,0.35422522,0.030656768,-0.057428215
3680047,0.35545278,0.030235192,-0.058696896
3690546,0.35520345,0.031090328,-0.059415087
3701637,0.35454887,0.030897906,-0.05872105
3711680,0.35430384,0.030249432,-0.058351293
3722041,0.35438687,0.031070089,-0.058129568
3732544,0.35520262,0.030269671,-0.05963713
3743097,0.35479596,0.029502414,-0.058578316
3754165,0.35528544,0.030644953,-0.059482247
3764210,0.35479558,0.029867029,-0.058678977
3774546,0.35479254,0.030203152,-0.05946189
3785068,0.35454696,0.030434735,-0.059214305
3795541,0.3547932,0.03028391,-0.059294403
3806703,0.35495865,0.031108128,-0.058987714
3816790,0.35447013,0.030197157,-0.057837155
3827054,0.35463065,0.031188872,-0.05881894
3837552,0.35504335,0.029660359,-0.058329575
3848047,0.3555356,0.03009505,-0.0585205
3859216,0.35537314,0.030926386,-0.058041964
3869254,0.3549593,0.031188872,-0.058820218
3879543,0.3545546,0.030516613,-0.057252783
3890058,0.35610947,0.029859908,-0.058854647
3900548,0.35471562,0.030333748,-0.058100108
3942547,0.3546321,0.03031951,-0.05844092
3953047,0.35512608,0.030182917,-0.05818084
3964289,0.35356012,0.031605765,-0.059430223
4005555,0.35520607,0.031413328,-0.058745116
4016837,0.3554541,0.030175798,-0.058352683
4027591,0.3567685,0.031648483,-0.058419257
4038103,0.35602647,0.03073639,-0.05906177
4049293,0.354961,0.030838512,-0.058378432
4059330,0.35495463,0.03135993,-0.060023412
4069610,0.35520837,0.03151189,-0.0581512
4101851,0.35405618,0.031122368,-0.058643065
4111978,0.35421813,0.03124471,-0.059246838
4122097,0.355123,0.030813592,-0.058976058
4132591,0.35487464,0.030350432,-0.05946836
4143104,0.35471788,0.030505933,-0.05750927
4164389,0.35537407,0.031305227,-0.057801478
4174593,0.35520288,0.03056777,-0.05956414
4185090,0.35611147,0.029733997,-0.058336794
4195598,0.35504192,0.030456094,-0.05870452
4206850,0.3552903,0.031361066,-0.058230653
4216894,0.35504326,0.030249432,-0.05835416
4227090,0.35504153,0.030820712,-0.058805168
4237604,0.35389164,0.03060337,-0.058706205
4248099,0.35561714,0.031932328,-0.058682933
4311936,0.35479277,0.030795792,-0.0594012
4322649,0.35479826,0.03173991,-0.057988256
4333146,0.35414183,0.031897865,-0.057736006
4344423,0.35430473,0.031070089,-0.05812925
4354443,0.35356018,0.03123759,-0.059414856
4364457,0.3554546,0.031361066,-0.05823129
4395098,0.35503864,0.030125959,-0.059545062
4405603,0.35561496,0.031023812,-0.05924304
4417030,0.3546342,0.03174347,-0.05790234
4427638,0.3552928,0.032125883,-0.057579122
4438147,0.35529125,0.03151901,-0.05798095
4449518,0.35447028,0.031378865,-0.057801045
4481968,0.35479838,0.030929945,-0.05795445
4492009,0.35529068,0.031070089,-0.058133077
4502241,0.35537168,0.03172211,-0.05841691
4512704,0.35496026,0.03142045,-0.05857359
4523197,0.35463646,0.0322102,-0.057323795
4534524,0.3550451,0.031154407,-0.057879347
4544546,0.35495895,0.031332586,-0.058911655
4575703,0.35528833,0.031192431,-0.058736213
4587018,0.35520414,0.031023812,-0.059241444
4597057,0.35479665,0.03142757,-0.05840238
4617721,0.3552906,0.03151189,-0.058151517
4628196,0.35487732,0.030231632,-0.05877994
4639539,0.35488093,0.03041807,-0.057847973
4702076,0.35356548,0.031368185,-0.05805339
4712195,0.3550401,0.031321906,-0.05916782
4722691,0.35553467,0.031781506,-0.05876176
4733194,0.35471767,0.029766036,-0.05756381
4744606,0.35512632,0.03084919,-0.05812322
4754616,0.3547098,0.031304106,-0.059592962
4764695,0.35512522,0.03128031,-0.058397513
4775190,0.354303,0.03127319,-0.05856489
4785697,0.35528204,0.03105117,-0.060353532
4797193,0.354714,0.029800514,-0.058505014
4807744,0.35495904,0.030817151,-0.058890138
4818297,0.3543838,0.029561812,-0.058920935
4829638,0.35487667,0.03228982,-0.058951292
4839647,0.35586786,0.03042875,-0.05759594
4860255,0.35569498,0.030188913,-0.059806537
4870768,0.35619155,0.030817151,-0.058894925
4892130,0.35454613,0.031458493,-0.059427902
4902256,0.35454765,0.030220952,-0.059034515
4912748,0.35504177,0.031339705,-0.058741406
4933762,0.35455164,0.030190038,-0.058008038
4944723,0.3550403,0.030070132,-0.05911557
4954756,0.35537112,0.031125927,-0.05856289
5028258,0.35545194,0.03140621,-0.05891664
5038749,0.35643104,0.030742394,-0.060686834
5049737,0.35545358,0.031276748,-0.058484066
5059742,0.3542136,0.030679433,-0.0604193
5080774,0.35511887,0.0296628,-0.060038637
5091255,0.35594353,0.031612884,-0.059268903
5113311,0.355611,0.030981092,-0.060266446
5123809,0.3543001,0.03072571,-0.05931093
5134759,0.35462442,0.030679433,-0.060420893
5155305,0.35528103,0.03126139,-0.0606186
5165793,0.35519883,0.031114113,-0.060612135
5176323,0.35470527,0.030591555,-0.060759276
5187306,0.3545469,0.030729271,-0.0592266
5197356,0.35445943,0.03089321,-0.060600046
5207788,0.35577878,0.03028035,-0.059383508
5228794,0.3547895,0.030539291,-0.060244814
5239785,0.35528323,0.029883698,-0.0600485
5249818,0.35462385,0.03214855,-0.060567647
5260304,0.35388532,0.030756634,-0.06033582
5270800,0.35651925,0.029996494,-0.059118237
5281310,0.3544635,0.030420495,-0.05955512
5365301,0.35528675,0.03058557,-0.05913804
5375806,0.35471335,0.029867029,-0.058678657
5386312,0.35569537,0.029971574,-0.059712034
5407391,0.3547873,0.029704398,-0.060807995
5417508,0.35454434,0.030185353,-0.05988736
5428303,0.35495606,0.030785114,-0.059657685
5438803,0.35446507,0.030806473,-0.059144072
5449873,0.3554493,0.03137773,-0.059598908
5459912,0.3548793,0.030326629,-0.058271315
5512554,0.3556117,0.030546412,-0.060077436
5522790,0.35495436,0.030988213,-0.060093325
5533315,0.35446864,0.031287428,-0.05822439
5543812,0.35594139,0.03055709,-0.05982286
5554906,0.3548745,0.03123403,-0.05950524
5564946,0.35454318,0.03135281,-0.060192388
5575302,0.35380507,0.030704351,-0.059820715
5585796,0.35520655,0.030459654,-0.058619868
5627797,0.35552615,0.03102625,-0.060951475
5638308,0.35404998,0.030612914,-0.06024502
5648799,0.35594642,0.030168677,-0.058525167
5723408,0.35470754,0.030837387,-0.06017151
5733848,0.3545494,0.031641364,-0.058581214
5765387,0.3551173,0.031268507,-0.060447395
5775885,0.3552896,0.03128031,-0.05839815
5786383,0.3558621,0.031178191,-0.059079573
5797627,0.35561207,0.030402696,-0.05998601
5808397,0.3550403,0.030070132,-0.05911557
5818906,0.35553575,0.031129489,-0.05847824
5840086,0.35536712,0.031304106,-0.059595514
5850392,0.3547957,0.03119599,-0.05864901
5860906,0.35594377,0.030140199,-0.059207432
5882535,0.35446575,0.03073995,-0.05897043
5892598,0.35454655,0.030946609,-0.05932111
5902913,0.3549547,0.030991772,-0.060008045
5923904,0.3546293,0.031174632,-0.05916008
5935109,0.35479334,0.03139197,-0.059255216
5945117,0.35496196,0.031143727,-0.058134876
5955128,0.35422543,0.031323027,-0.057370596
5965897,0.35455015,0.031133048,-0.05838913
5976400,0.35454682,0.03139197,-0.05925426
6070923,0.35512295,0.03118175,-0.058991425
6081409,0.3557804,0.030666312,-0.05897246
6112888,0.35520875,0.031220911,-0.058053616
6123399,0.35553712,0.031070089,-0.058134034
6133894,0.35315526,0.03174347,-0.0578966
6145171,0.3545538,0.03146673,-0.0574633
6155333,0.3546305,0.031998847,-0.05885275
6165413,0.35397774,0.03064609,-0.057683114
6175890,0.35503528,0.030458534,-0.060413267
6197661,0.3552825,0.030318392,-0.06023751
6207678,0.35446283,0.03240505,-0.059723392
6217682,0.3545499,0.03061405,-0.058452897
6227693,0.3551243,0.030901466,-0.05863799
6237799,0.35454682,0.031318348,-0.059251186
6248339,0.354959,0.03103805,-0.05889936
6280902,0.35372654,0.030964408,-0.0588915
6291398,0.35479245,0.030792233,-0.05948648
6302758,0.35430002,0.031241149,-0.059332445
6387815,0.3547163,0.030046333,-0.057917245
6398516,0.35438278,0.03146917,-0.059171416
6408994,0.35356113,0.031542808,-0.0591713
6430332,0.35569885,0.031041611,-0.05881694
6440506,0.35479006,0.031135473,-0.060098834
6451013,0.35487318,0.031072529,-0.059840232
6461494,0.35478982,0.03054285,-0.060159534
6472812,0.35561365,0.030862307,-0.05957803
6503522,0.35479203,0.031304106,-0.059593283
6514001,0.35446575,0.03073995,-0.05897043
6525324,0.354461,0.031279188,-0.060188998
6545490,0.35528985,0.029807635,-0.05833668
6556001,0.3547082,0.030991772,-0.060007088
6566497,0.35463032,0.031111687,-0.058901157
6608514,0.3541328,0.030325513,-0.06006247
6619016,0.35462967,0.030883666,-0.059062496
6630396,0.35553122,0.030490573,-0.059647623
6641043,0.35560945,0.030153314,-0.060659055
6651546,0.35421833,0.030066572,-0.05919766
6662860,0.3547142,0.03061405,-0.058453534
6946597,0.35495138,0.030956173,-0.060860883
6957998,0.35520712,0.03105585,-0.05847389
6968031,0.3557,0.03009505,-0.058521137
6978099,0.35462847,0.03028035,-0.059379045
6988601,0.35462353,0.03214499,-0.060652934
6999104,0.35569686,0.03102025,-0.05932865
7030599,0.3549545,0.030030973,-0.060053367
7041107,0.35479063,0.029666359,-0.059952084
7051596,0.35396817,0.030395575,-0.0601502
7062102,0.35569438,0.029887257,-0.059964813
7073042,0.3543029,0.031862266,-0.05858948
7114602,0.35479507,0.030894347,-0.058807284
7125635,0.35528517,0.030199593,-0.05954909
7135704,0.35438123,0.03093593,-0.059576318
7146090,0.35511646,0.030153314,-0.060657144
7156606,0.35339406,0.030111719,-0.05987982
7178073,0.3551217,0.030504812,-0.0593049
7188139,0.354631,0.030897906,-0.058721367
7198631,0.3547906,0.031805307,-0.059955936
7219594,0.35454854,0.031041611,-0.058812477
7230649,0.35446653,0.03214968,-0.05877298
7240676,0.35495752,0.029768474,-0.059273526
7283138,0.35536692,0.030490573,-0.059646986
7293158,0.3550398,0.031171072,-0.059246954
7303620,0.35405755,0.03076843,-0.058286566
7324605,0.35437953,0.03106541,-0.060008887
7335702,0.35429856,0.030118838,-0.05971276
7345708,0.35578796,0.030821828,-0.057014003
7355718,0.3549587,0.03073995,-0.058972344
7366593,0.3542193,0.030445414,-0.05895718
7377098,0.35504028,0.030143758,-0.059118643
7408605,0.35454416,0.03136349,-0.059936535
7419104,0.35487393,0.030711472,-0.059654295
7429596,0.3555254,0.031534564,-0.061143555
7440703,0.35372663,0.030448973,-0.058869988
7450739,0.3555358,0.030834952,-0.058465943
7461095,0.3531519,0.030084372,-0.058767095
7471643,0.3546244,0.030826708,-0.06042704
7482089,0.35520548,0.03103805,-0.058900315
7493258,0.35594705,0.030396711,-0.058363818
7503299,0.3544624,0.03092525,-0.05983249
7513603,0.3561083,0.030732831,-0.05914738
7524093,0.35512158,0.03138841,-0.05934178
7534612,0.3550389,0.030497693,-0.059475143
7566090,0.35462996,0.03125539,-0.058992583
7576606,0.35504156,0.030673433,-0.05879902
7587100,0.35578528,0.030940626,-0.057702426
7619638,0.35413772,0.030820712,-0.05880166
7630772,0.35512224,0.03139553,-0.059171215
7640814,0.3538894,0.031981047,-0.059276298
7683341,0.35463193,0.031276748,-0.058480877
7694209,0.3540561,0.03171143,-0.058667656
7704739,0.355207,0.031792186,-0.058504622
7726750,0.35520646,0.03104873,-0.05864446
7737255,0.3536473,0.03158553,-0.058148213
7748370,0.3545521,0.029604532,-0.057898168
7758512,0.3545476,0.030662753,-0.059052955
7768753,0.35438323,0.030810032,-0.059058465
7779251,0.35455197,0.030267231,-0.057925828
7800855,0.35421702,0.029978694,-0.059535723
7810953,0.35495678,0.030350432,-0.059468675
7821289,0.35413674,0.03058913,-0.059048288
7831750,0.3542202,0.03075063,-0.058713626
7842256,0.3550401,0.031321906,-0.05916782
7853421,0.3548775,0.031118808,-0.058731545
7874804,0.3544661,0.030596249,-0.058879007
7885934,0.35545227,0.031336147,-0.05882828
7896012,0.35471046,0.03131123,-0.059422392
7906334,0.3542174,0.03167939,-0.05943585
7916795,0.35487458,0.030792233,-0.0594868
7927306,0.35503882,0.031086769,-0.059499733
7948464,0.3554509,0.031542808,-0.059178635
7958795,0.35463336,0.030775549,-0.05811823
7969329,0.35478976,0.03091101,-0.060174905
8021803,0.35479605,0.030978648,-0.05855451
8032302,0.35454655,0.030946609,-0.05932111
8043442,0.35586134,0.029915735,-0.059283182
8053495,0.3548776,0.030676993,-0.058713105
8063822,0.35462627,0.03151077,-0.059943
8074325,0.35454947,0.031346828,-0.05856892
8084799,0.3549563,0.03123047,-0.059590846
8106855,0.35438323,0.030810032,-0.059058465
8117358,0.35372517,0.03109745,-0.059238777
8128477,0.35446438,0.030872986,-0.059317715
8159395,0.35437754,0.031338573,-0.06053288
8169855,0.35553116,0.031006012,-0.05966914
8181052,0.35413393,0.031738788,-0.05977974
8201404,0.35569885,0.031041611,-0.05881694
8211888,0.35437724,0.031114113,-0.060608946
8222383,0.3551979,0.030440735,-0.060840324
8233535,0.35569683,0.031093888,-0.059331723
8243553,0.3547871,0.030882532,-0.060857173
8253843,0.35470948,0.03137417,-0.05968132
8264369,0.355121,0.030865867,-0.05949083
8274846,0.35479295,0.031756587,-0.059355874
8286095,0.35438064,0.03056065,-0.05973152
8296130,0.3541377,0.030894347,-0.058804736
8379878,0.35553366,0.03191809,-0.059023753
8391148,0.354381,0.030416936,-0.059640087
8401142,0.3552002,0.030686552,-0.060252555
8411216,0.35561517,0.031763706,-0.059188496
8421868,0.35421064,0.030426495,-0.061177634
8432393,0.35446566,0.03125539,-0.058991946
8443603,0.3542932,0.030503692,-0.06109574
8453642,0.35430306,0.03105229,-0.05855567
8474376,0.35364202,0.03123403,-0.059500456
8484867,0.35445762,0.029767351,-0.06106564
8496137,0.35454333,0.030321952,-0.060149357
8506186,0.35512206,0.03235278,-0.059211172
8516190,0.35478812,0.030966852,-0.060604393
8526208,0.3550382,0.031006012,-0.059667226
8536302,0.35536173,0.02977091,-0.060983866
8568675,0.3552038,0.030946609,-0.05932366
8578722,0.35363832,0.031710308,-0.060460094
8588797,0.35512158,0.031314787,-0.059338707
8599291,0.35536316,0.03126139,-0.060618922
8609801,0.35389096,0.032735184,-0.058880616
8621198,0.3541333,0.03121623,-0.059928793
8662357,0.35495612,0.030416936,-0.05964232
8673708,0.35487065,0.030454973,-0.06049791
8683739,0.3557794,0.030434735,-0.05921909
8746307,0.3547095,0.03107965,-0.059669025
8756793,0.35404626,0.031015571,-0.061201584
8777802,0.3547915,0.03056065,-0.059733115
8788803,0.3548722,0.031135473,-0.06009915
8798819,0.35520256,0.030564211,-0.059649423
8808827,0.35495713,0.030133078,-0.059374172
8819807,0.35544875,0.030634273,-0.05973874
8830322,0.35413143,0.030753074,-0.06042205
8841327,0.3544625,0.03026255,-0.059804827
8861790,0.35512206,0.030434735,-0.059216537
8872334,0.3546311,0.030382471,-0.058699854
8882794,0.35536492,0.03054285,-0.06016177
8893830,0.3552012,0.030476334,-0.05998749
8903848,0.35495433,0.03106185,-0.060096398
8913862,0.35421565,0.030185353,-0.059886083
8935321,0.35479042,0.03091813,-0.060004335
8946352,0.35470837,0.031805307,-0.059955616
8956412,0.35380986,0.031862266,-0.058587566
8966815,0.35437742,0.029935975,-0.06055977
8977303,0.35372415,0.03138129,-0.059506923
8987808,0.35528314,0.030325513,-0.06006694
9008902,0.3544629,0.029971574,-0.05970725
9018920,0.35413536,0.03094305,-0.059404794
9029796,0.35626867,0.030837387,-0.060177572
9092788,0.35330874,0.03088965,-0.060680863
9103947,0.3547895,0.032604598,-0.060245596
9114858,0.35618967,0.032051124,-0.05937359
9146463,0.35519978,0.03127207,-0.060362436
9156884,0.35429898,0.031745907,-0.059609808
9177859,0.3545481,0.031774387,-0.0589285
9188963,0.35561636,0.030669872,-0.058886543
9199013,0.35561568,0.03058913,-0.05905403
9209398,0.3550372,0.030700792,-0.05991079
9219854,0.35454285,0.03127563,-0.060274594
9230394,0.35479254,0.03219483,-0.059459597
9241465,0.35438055,0.031149711,-0.059756108
9261847,0.35569382,0.031209111,-0.060105417
9272396,0.3541407,0.032770783,-0.058028735
9282844,0.35487488,0.03101669,-0.059410736
9293958,0.354711,0.031981047,-0.059279487
9304011,0.35553196,0.03197393,-0.059453245
9314073,0.35380268,0.031268507,-0.06044229
9346539,0.3561079,0.03139197,-0.05926032
9356617,0.3541352,0.032047566,-0.0594509
9366843,0.3554494,0.030641394,-0.05956817
9429846,0.3559478,0.032027327,-0.058175586
9440351,0.35511866,0.030840948,-0.060087815
9451570,0.35454535,0.03226134,-0.059632283
9461615,0.35569307,0.03179107,-0.060300574
9471889,0.35553145,0.03108321,-0.05958693
9482398,0.35495824,0.03147273,-0.05908836
9492853,0.35495535,0.030851627,-0.05983133
9504050,0.35446316,0.030343313,-0.05963733
9514088,0.35479185,0.032408606,-0.059639387
9524399,0.3553666,0.030634273,-0.05973842
9534846,0.35471112,0.03124471,-0.05924875
9545410,0.35437602,0.030363536,-0.06091935
9556630,0.35478705,0.031250708,-0.06087254
9567398,0.3550351,0.031710308,-0.06046552
9589086,0.35388973,0.03213188,-0.059197165
9599169,0.35536087,0.031089194,-0.06120976
9609404,0.35618907,0.031602204,-0.059525713
9630398,0.3551159,0.031622432,-0.0608039
9641660,0.35519978,0.03119843,-0.060359363
9651684,0.3552856,0.031458493,-0.059430774
9661893,0.35404605,0.030275673,-0.06125613
9672406,0.35511574,0.030587995,-0.060846154
9682897,0.35544398,0.03117351,-0.060957305
9694127,0.35495433,0.031135473,-0.06009947
9786840,0.35635564,0.032068923,-0.058947813
9797403,0.35446018,0.030311273,-0.06040489
9807897,0.35528034,0.031327892,-0.060792245
9819198,0.35470635,0.030086799,-0.060481906
9829203,0.35438,0.03025899,-0.059889793
9839207,0.35519806,0.031548806,-0.06080115
9860339,0.3552018,0.030998891,-0.059838433
9871735,0.35429344,0.031096313,-0.061035044
9881754,0.35445997,0.031563044,-0.060457136
9902391,0.3532266,0.030742394,-0.060674395
9912885,0.35503224,0.030794669,-0.06119619
9934278,0.35528165,0.03141577,-0.06045418
9944368,0.35511428,0.031383734,-0.061221097
9954849,0.35519525,0.030559516,-0.061528746
9965413,0.35545087,0.03169007,-0.059184782
9975859,0.35413316,0.030255431,-0.05997412
9986798,0.35478413,0.030924134,-0.0616278
9996836,0.35486406,0.03230181,-0.062198218
10091848,0.35552892,0.030392015,-0.06024154
10101853,0.3550325,0.031166391,-0.061126273
10112358,0.35528252,0.03024475,-0.060234435
10122857,0.35577786,0.031819545,-0.059618622
10133406,0.3542117,0.030216271,-0.060912564
10164841,0.35511753,0.03186113,-0.060386706
10175349,0.35445684,0.030422933,-0.06126387
10185846,0.35519677,0.03146093,-0.061139204
10196876,0.35511044,0.030457413,-0.06220762
10207008,0.35511684,0.029935975,-0.06056264
10217440,0.35388303,0.030510811,-0.060923584
10260394,0.3551171,0.03229938,-0.060490426
10270888,0.35602376,0.03137061,-0.05977171
10281884,0.35495448,0.032243542,-0.060060296
10291937,0.3554443,0.03132433,-0.060878165
10302423,0.3551132,0.03181485,-0.06149539
10334471,0.35388687,0.03121623,-0.05992784
10344483,0.3547889,0.030163994,-0.060400017
10354890,0.35503957,0.030652072,-0.059310727
10365444,0.35478452,0.030559516,-0.06152715
10439507,0.35536382,0.031194871,-0.06044528
10449528,0.35421342,0.03185757,-0.060468476
10491988,0.3547092,0.03092881,-0.059748165
10502030,0.35453966,0.030577315,-0.061099768
10512113,0.35520163,0.03195613,-0.05987839
10522904,0.3542908,0.030773308,-0.06170502
10533412,0.35561138,0.03260816,-0.060163494
10587118,0.3559433,0.03116751,-0.05933575
10597441,0.3556111,0.032383688,-0.060239565
10607942,0.35470557,0.030742394,-0.060680136
10629555,0.35479036,0.03135993,-0.060022775
10639576,0.35453936,0.030352857,-0.061175834
10682084,0.35536647,0.031296987,-0.059766084
10692137,0.3549513,0.031397972,-0.060879324
10702447,0.3548696,0.030665193,-0.060762987
10964953,0.35438606,0.031652045,-0.05832473
10975453,0.35470814,0.03135993,-0.06002246
10985944,0.3554463,0.03119843,-0.06036032
11027940,0.3561887,0.031893168,-0.059623294
11038448,0.35396898,0.03151077,-0.05994045
11049710,0.35495716,0.031977486,-0.059365734
11059765,0.35421792,0.032570124,-0.059302162
11080449,0.3547921,0.030862307,-0.05957484
11090959,0.35561457,0.03138841,-0.059343696
11164804,0.35421705,0.03189673,-0.05953035
11174994,0.35404903,0.032446645,-0.060492426
11185446,0.3544597,0.031338573,-0.0605332
11195960,0.35454145,0.031776827,-0.060637247
11207406,0.35569385,0.031135473,-0.060102344
11217413,0.3547092,0.030855186,-0.059745092
11248471,0.35495198,0.03125783,-0.06070261
11259855,0.3545446,0.030630713,-0.059820514
11270497,0.35561126,0.03135281,-0.060196534
11302386,0.35519576,0.031523887,-0.061398134
11312501,0.35651636,0.031440694,-0.059861977
11344873,0.35519803,0.031769708,-0.06081037
11354893,0.35495406,0.030763753,-0.060169395
11364991,0.35462296,0.031401534,-0.060792767
11407518,0.3546279,0.031602204,-0.059519652
11418545,0.35421643,0.031595085,-0.059688628
11471054,0.35454527,0.030785114,-0.05965609
11482410,0.3553664,0.031738788,-0.059784524
11492455,0.35536304,0.031997725,-0.060649656
11513047,0.35388187,0.031531006,-0.06122246
11523553,0.35471064,0.030206712,-0.05937629
11534935,0.3555286,0.030314833,-0.060323756
11576038,0.35511753,0.031787507,-0.060383633
11587552,0.35536844,0.03124471,-0.0592513
11630638,0.3547111,0.03153925,-0.059261046
11641147,0.35503718,0.030848067,-0.059916936
11672482,0.35511947,0.032103404,-0.059884217
11682498,0.35528147,0.030602233,-0.060505655
11692590,0.35470283,0.031450253,-0.061393145
11735041,0.35471213,0.03125539,-0.058992904
11745106,0.35454628,0.03057489,-0.05939102
11755591,0.35512125,0.03123759,-0.059420913
11798645,0.35454664,0.030431174,-0.059299592
11810119,0.35421538,0.03187893,-0.059956774
11873206,0.35388967,0.030361112,-0.05920868
11883724,0.35486594,0.030773308,-0.06170725
11905145,0.35470387,0.031092754,-0.061121922
11915312,0.35471046,0.03123759,-0.05941932
11925688,0.35487425,0.030715032,-0.059569012
11958277,0.35445884,0.032288704,-0.060743727
11968745,0.35356134,0.032282703,-0.059116747
12012707,0.35421568,0.03195613,-0.059874564
12022774,0.35462552,0.03194545,-0.060132004
12032792,0.35404795,0.030665193,-0.060759798
12065145,0.35479048,0.030476334,-0.059985895
12075235,0.35413516,0.032268465,-0.05946012
12085311,0.35462683,0.030041652,-0.059796244
12117846,0.3540532,0.031163951,-0.059413694
12128398,0.35512218,0.03169007,-0.05918351
12138845,0.35413706,0.030813592,-0.05897223
12160365,0.3553665,0.031076089,-0.059756864
12170392,0.3557739,0.031776827,-0.06064203
12180841,0.35470733,0.03216279,-0.060226835
12202705,0.3550343,0.030300593,-0.06066297
12212767,0.35454512,0.031595085,-0.0596899
12222845,0.3546296,0.03125183,-0.059077863
12233412,0.3554522,0.03170431,-0.058843646
12243884,0.35454953,0.03105229,-0.058556627
12255259,0.35421988,0.030820712,-0.05880198
12318390,0.35487717,0.031188872,-0.058819897
12328895,0.3547963,0.031571288,-0.058493808
12340359,0.35528558,0.03175303,-0.059443068
12403450,0.35454667,0.03220195,-0.05928807
12413947,0.35422182,0.030915705,-0.058293354
12445379,0.35496292,0.031375308,-0.057888247
12455942,0.3540569,0.032752983,-0.058454838
12466448,0.35496294,0.031154407,-0.057879027
12488500,0.35504574,0.03130879,-0.057714924
12499010,0.3546315,0.031862266,-0.058590755
12531547,0.35479802,0.031220911,-0.058052022
12542844,0.35594591,0.031343266,-0.058659624
12552921,0.35496452,0.031687643,-0.057474114
12584041,0.3546328,0.032244667,-0.058264986
12595414,0.3541359,0.031612884,-0.05926189
12605439,0.35570407,0.03161401,-0.05747391
12626058,0.3552912,0.031960808,-0.05799939
12636547,0.35496166,0.030919265,-0.058210935
12647924,0.3560305,0.03063185,-0.05803222
12678577,0.3546357,0.032792144,-0.05751894
12689045,0.3552061,0.031118808,-0.058732823
12721599,0.3547155,0.030996447,-0.058127772
12732937,0.35537645,0.031035608,-0.0571922
12742986,0.35381335,0.030866992,-0.057691697
12774094,0.35406208,0.03155461,-0.05712333
12785479,0.35554108,0.030965544,-0.057104483
12795505,0.3548795,0.031140167,-0.05821984
12859156,0.35381028,0.03142401,-0.058483835
12870486,0.35364875,0.03056889,-0.057764046
12880645,0.35536885,0.030732831,-0.059144508
12890640,0.35389346,0.031655602,-0.058237527
12901141,0.35438323,0.03073639,-0.05905539
12911644,0.35438785,0.03108077,-0.057873722
12955517,0.3555347,0.03148697,-0.058749463
12965618,0.35619098,0.030000053,-0.059031673
12975700,0.35487956,0.03084563,-0.058207545
12996715,0.35487908,0.031504773,-0.058320493
13008052,0.3539655,0.030587995,-0.060841687
13049195,0.35438424,0.03074707,-0.058799542
13060593,0.35454845,0.029491734,-0.05883322
13070608,0.35528955,0.03172211,-0.05841659
13091188,0.35438097,0.030637834,-0.059649307
13101710,0.35545164,0.031108128,-0.058989625
13154208,0.35471183,0.03103093,-0.05906896
13164722,0.35430032,0.03153925,-0.059259452
13175674,0.35446504,0.030880107,-0.05914715
13185699,0.35397094,0.029687718,-0.059437186
13195724,0.35487193,0.030763753,-0.060169075
13206697,0.35430393,0.031652045,-0.058324408
13280663,0.3551196,0.031367052,-0.059853483
13290702,0.35389343,0.029737556,-0.0582429
13301196,0.3539675,0.030535731,-0.060326915
13311724,0.35437658,0.030886091,-0.060770296
13322264,0.35471216,0.03118175,-0.05898983
13333236,0.35454363,0.030620035,-0.060076363
13374697,0.35520354,0.030501252,-0.059390496
13385775,0.3543808,0.03166871,-0.059692338
13396761,0.354128,0.031380173,-0.061302554
13407267,0.35544494,0.031405095,-0.06071067
13418326,0.3536467,0.03106297,-0.05829727
13460927,0.3543806,0.03070791,-0.059737667
13471335,0.35553038,0.031440694,-0.05985815
13503316,0.3544649,0.031837344,-0.059187103
13513318,0.35429734,0.03143357,-0.060023937
13523328,0.35536322,0.030819587,-0.06060048
13564756,0.3543811,0.031598642,-0.05960398
13575790,0.3558616,0.030213833,-0.059210185
13585837,0.35519913,0.03119131,-0.06052992
13617252,0.35511926,0.03136349,-0.05993877
13628361,0.35487184,0.03135281,-0.060193665
13638392,0.35503584,0.031128353,-0.060270358
13680871,0.35446364,0.031454932,-0.059512865
13690903,0.355039,0.032121204,-0.059457477
13701251,0.35462674,0.03055709,-0.05981776
13733365,0.3548697,0.030149754,-0.060741473
13743408,0.3549537,0.030981092,-0.060263894
13796818,0.35503766,0.032254223,-0.059804764
13807325,0.35438022,0.030851627,-0.059829097
13818444,0.3542151,0.03165447,-0.060032837
13849306,0.35471153,0.030732831,-0.059141956
13859792,0.35495624,0.031745907,-0.05961236
13903449,0.35569572,0.031819545,-0.059618305
13913508,0.35495448,0.03216991,-0.060057223
13923890,0.35487586,0.03095373,-0.059151817
13934394,0.35479236,0.03138129,-0.05951107
13944848,0.35528636,0.03095017,-0.059238687
13956016,0.35471213,0.03125539,-0.058992904
14008900,0.3541311,0.030749513,-0.060507335
14019393,0.35519972,0.031566605,-0.06037473
14029926,0.35503814,0.03122691,-0.059676446
14051051,0.35561478,0.032054685,-0.05928607
14061391,0.35413498,0.031307667,-0.059505444
14113890,0.35438365,0.030445414,-0.05895782
14124435,0.3539688,0.030549971,-0.05998578
14134891,0.35454527,0.030711472,-0.059653018
14146093,0.35404855,0.03118775,-0.060610745
14156959,0.35585877,0.03121623,-0.05993549
14200010,0.3548689,0.031099873,-0.060951997
14211239,0.35602495,0.032047566,-0.059458233
14222124,0.35487118,0.03127207,-0.060361158
14243577,0.35495523,0.031587966,-0.059862066
14253646,0.35388795,0.032924045,-0.05965739
14264065,0.35577628,0.031286307,-0.06002353
14296125,0.356347,0.03212363,-0.06117133
14306143,0.3549545,0.029957335,-0.060050294
14316183,0.35470632,0.032446645,-0.060494978
14327065,0.35462135,0.031310093,-0.06121611
14348770,0.35404593,0.031085633,-0.06128994
14359598,0.35453779,0.03181129,-0.061578445
14391199,0.3557752,0.03186469,-0.060303967
14401607,0.35413286,0.032022644,-0.060047887
14412134,0.35520142,0.03121623,-0.05993294
14443695,0.35519683,0.031092754,-0.061123837
14453722,0.3552819,0.031934768,-0.060390417
14486184,0.35405025,0.030837387,-0.06016896
14496210,0.35569486,0.030851627,-0.0598342
14506599,0.35503337,0.031987045,-0.06090423
14527595,0.3550318,0.031527445,-0.06131221
14538861,0.35519594,0.030419374,-0.06135203
14548856,0.3551135,0.032112952,-0.061422404
14569595,0.35552713,0.031110553,-0.060698695
14580107,0.3547043,0.030580875,-0.061015125
14591241,0.3553608,0.031383734,-0.061222054
14643793,0.35445765,0.03161175,-0.0610572
14653792,0.3551972,0.03087541,-0.061029334
14685099,0.35478482,0.030710354,-0.06144801
14696259,0.35511178,0.030545276,-0.061869558
14706324,0.3551921,0.031558353,-0.06233933
14716616,0.35494918,0.030121274,-0.06142406
14727100,0.3548647,0.030464534,-0.062036097
14737646,0.35461807,0.030979972,-0.062056653
14779650,0.35503125,0.030636713,-0.061445896
14790117,0.3544511,0.031172391,-0.06274751
14801418,0.35404465,0.030629594,-0.061612636
14811457,0.35544127,0.03166047,-0.061661087
14821594,0.3550316,0.030640272,-0.061360613
14832095,0.35503238,0.032050002,-0.061163153
14863902,0.3548637,0.032224625,-0.06228043
14874098,0.35445303,0.031414654,-0.062245026
14884591,0.35445684,0.030570194,-0.06127002
14906381,0.35609403,0.030947931,-0.06282996
14916413,0.35552487,0.030938372,-0.061289534
14926435,0.35609946,0.030194912,-0.061431598
14968925,0.35477847,0.031010875,-0.063083775
14979023,0.35519847,0.031110553,-0.060697418
14989599,0.35470283,0.031376615,-0.061390072
15011551,0.35519376,0.031576153,-0.061912905
15022150,0.3542064,0.03185645,-0.062262513
15085182,0.3556015,0.030215155,-0.06271201
15096517,0.3550258,0.03168427,-0.06285654
15107200,0.35428813,0.031039355,-0.06239959
15128968,0.35518995,0.030649835,-0.06289943
15139110,0.3533833,0.031249573,-0.062661156
15149206,0.3543656,0.031284057,-0.06360618
15170207,0.35486284,0.031551234,-0.06250862
15181534,0.35420412,0.031978805,-0.062865645
15192249,0.35338423,0.031554792,-0.062417597
15214020,0.354946,0.031341016,-0.062243868
15224034,0.35527322,0.030292338,-0.06262853
15255252,0.35403952,0.031754334,-0.06294107
15266509,0.3544515,0.030586874,-0.062637635
15276583,0.35379508,0.031039355,-0.062397677
15297350,0.355435,0.031298295,-0.06326919
15307741,0.35411942,0.031066714,-0.06351071
15319167,0.3548618,0.03183509,-0.06277676
15340309,0.35510775,0.030797092,-0.06290526
15351551,0.3552786,0.03175191,-0.061237104
15361620,0.35469863,0.030593993,-0.062468026
15382315,0.35518757,0.030993076,-0.06351178
15392798,0.35445336,0.031491846,-0.062162813
15434802,0.35494307,0.031014435,-0.06299913
15445320,0.3542864,0.031463366,-0.062844455
15487295,0.3537114,0.03227689,-0.06279074
15497797,0.3551119,0.031800613,-0.06183653
15509109,0.35436377,0.032149866,-0.06406948
15539840,0.35469323,0.033265047,-0.063861005
15550314,0.3551079,0.031978805,-0.062869154
15561656,0.35469803,0.032357648,-0.06262708
15571808,0.35551682,0.031294737,-0.06335478
15581790,0.35494292,0.031898048,-0.06303601
15635403,0.35453266,0.030870734,-0.0629061
15646758,0.35494328,0.031975247,-0.0629538
15657401,0.35493934,0.031417087,-0.06395569
15667904,0.35486066,0.032708023,-0.0630695
15689945,0.3548623,0.032873083,-0.06264923
15700460,0.35428452,0.030779293,-0.06332848
15731961,0.35510805,0.033086866,-0.06282997
15742446,0.3547001,0.031937208,-0.06209693
15752940,0.3551068,0.03248356,-0.06314652
15764303,0.35412142,0.031014435,-0.06299594
15774323,0.3544509,0.03227689,-0.06279361
15784443,0.3544503,0.032048874,-0.062954955
15816785,0.35419995,0.030975277,-0.06393438
15826871,0.35511127,0.031498965,-0.061994802
15836943,0.35420153,0.031508513,-0.06352947
15858022,0.35411504,0.03153587,-0.064640924
15869404,0.35535192,0.030919453,-0.063509345
15932488,0.3556814,0.03225553,-0.0633101
15943008,0.35461184,0.032683104,-0.06366553
15954375,0.35428447,0.031221094,-0.06334693
15984998,0.3546973,0.030800652,-0.062818386
15995497,0.35428175,0.03141353,-0.064038426
16006869,0.35551584,0.031357694,-0.06361372
16048033,0.3560909,0.03187313,-0.063637465
16059399,0.35559347,0.032563187,-0.064774975
16069523,0.35560057,0.03190161,-0.06295328
16101883,0.3548572,0.031490713,-0.06395844
16111977,0.35559604,0.031115431,-0.064116515
16122576,0.355182,0.030490756,-0.064943165
16154476,0.35460868,0.031690255,-0.06447841
16164578,0.35387042,0.030596437,-0.06417358
16175088,0.35534683,0.031676013,-0.06482241
16197041,0.35419512,0.03225085,-0.06518368
16207588,0.35419497,0.031069154,-0.06521978
16249610,0.35403666,0.030912332,-0.063674815
16260095,0.35412127,0.031971686,-0.0630359
16270595,0.3546949,0.031217534,-0.06343381
16292666,0.35395467,0.031946767,-0.06363225
16303144,0.35304895,0.031336334,-0.06411585
16314481,0.3548644,0.03230537,-0.062112935
16355647,0.35477254,0.032864843,-0.064613506
16367023,0.35534775,0.029915923,-0.064578086
16377052,0.35354534,0.030856494,-0.06324341
16408144,0.3545273,0.031034674,-0.06427986
16419555,0.3543602,0.03174253,-0.06499223
16429573,0.3546095,0.030666512,-0.06426482
16472052,0.3551014,0.031171255,-0.06454409
16482226,0.35510403,0.031126112,-0.06385875
16493194,0.3547736,0.032360088,-0.06433614
16504599,0.35543343,0.030985955,-0.06368331
16514590,0.3567513,0.031536993,-0.06285709
16524695,0.3549398,0.030684311,-0.063839674
16557097,0.35493934,0.03156435,-0.06396183
16567151,0.35444647,0.030975277,-0.06393533
16577281,0.35543025,0.032205693,-0.06450312
16587694,0.35493907,0.031192614,-0.06403176
16598190,0.3535424,0.032668862,-0.06400252
16609664,0.35493958,0.032009713,-0.063894995
16642114,0.35444695,0.032234173,-0.06381702
16652150,0.35469776,0.031912286,-0.062693916
16662261,0.35443977,0.03134589,-0.065659456
16694637,0.35543835,0.031112993,-0.06240713
16704641,0.35510245,0.030740134,-0.0642698
16714740,0.3548572,0.031417087,-0.063955374
16735743,0.35601032,0.03233273,-0.06322916
16747221,0.3546914,0.030368416,-0.06433812
16757788,0.3554322,0.03222705,-0.06399141
16790363,0.35551888,0.031021554,-0.06283079
16800853,0.3543676,0.031010875,-0.06308217
16864761,0.3551077,0.031238893,-0.0629237
16875437,0.35510433,0.031497836,-0.06378883
16885892,0.35387248,0.032167666,-0.063641146
16897306,0.3536306,0.032143865,-0.06244314
16907952,0.3539556,0.03232561,-0.06339175
16918453,0.35486057,0.031158151,-0.063090235
16951011,0.3545321,0.032118946,-0.06304364
16962324,0.35493982,0.030537035,-0.06383353
16972409,0.3551059,0.03188381,-0.063377775
17003522,0.35608888,0.031999033,-0.06415531
17014905,0.35518914,0.03137905,-0.06310073
17057459,0.35494635,0.031344574,-0.06215858
17067541,0.35494715,0.0325334,-0.061951905
17078044,0.35477674,0.031434886,-0.063528635
17088546,0.35518947,0.031382613,-0.06301545
17099859,0.35420343,0.03182441,-0.063030064
17109950,0.35494393,0.031982366,-0.06278323
17152332,0.3548598,0.031961005,-0.06329462
17162390,0.3543692,0.03154411,-0.06267727
17172433,0.35420796,0.032684226,-0.061869904
17193551,0.3543699,0.031109432,-0.062488265
17204860,0.35560203,0.032950282,-0.06256989
17268108,0.35502872,0.032084472,-0.06210435
17278604,0.35502818,0.033406325,-0.06224496
17289898,0.35478008,0.031323213,-0.06266965
17310095,0.35462296,0.031401534,-0.060792767
17320601,0.35478204,0.031491846,-0.06216409
17352426,0.35453814,0.03166759,-0.06148701
17362444,0.35396215,0.032617707,-0.061695304
17373088,0.35511047,0.03252272,-0.062208395
17383612,0.35601258,0.030660516,-0.06264677
17394937,0.3545363,0.03282793,-0.061962605
17404982,0.3547822,0.030608233,-0.062127206
17415057,0.35494733,0.033420566,-0.06190351
17447523,0.35552043,0.031554792,-0.06242589
17457568,0.35478425,0.032179464,-0.06159477
17467597,0.3546105,0.030603556,-0.06400589
17477660,0.3537964,0.031274494,-0.062065758
17488607,0.3542839,0.032542948,-0.063487545
17499991,0.35552073,0.03170563,-0.06234675
17532534,0.35461602,0.031326775,-0.06258373
17542549,0.35576725,0.03170563,-0.062347706
17552649,0.3544546,0.03194789,-0.061840124
17563185,0.35584486,0.031287614,-0.06352663
17573656,0.35552013,0.031330336,-0.06250195
17585051,0.35494265,0.03159995,-0.063108996
17626154,0.35518813,0.03144201,-0.063359655
17636665,0.35519475,0.031586833,-0.061657056
17647607,0.35559696,0.031420648,-0.063872956
17668151,0.35493967,0.031567913,-0.063876554
17678647,0.35535055,0.031052474,-0.06385663
17731174,0.35584447,0.03165223,-0.06362729
17741658,0.3554349,0.03203463,-0.063299924
17752753,0.3552672,0.032661743,-0.064179786
17763688,0.35494205,0.031077392,-0.06325805
17775138,0.35354662,0.031238893,-0.06291764
17807615,0.35510316,0.030379094,-0.06408387
17817669,0.3530529,0.03137905,-0.06309244
17827745,0.35510728,0.031456247,-0.06301821
17838248,0.35526773,0.031266257,-0.0640361
17848755,0.35518685,0.031280495,-0.06369465
17860140,0.3549413,0.03165935,-0.06345321
17892674,0.3557653,0.03161063,-0.06285634
17902695,0.35493666,0.031683132,-0.06465026
17912877,0.35493514,0.030928997,-0.06504594
17923295,0.35493875,0.031041794,-0.06411089
17933795,0.35494113,0.030772174,-0.063501604
17945318,0.35502347,0.031732973,-0.0634566
17988399,0.3563362,0.031048914,-0.06394574
17998897,0.35485864,0.030989515,-0.0635958
18010354,0.35551775,0.031673588,-0.06311431
18042710,0.3551895,0.031235334,-0.06300931
18052793,0.35510808,0.030727029,-0.0628169
18062942,0.3550241,0.031887367,-0.06329218
18148037,0.355352,0.03246932,-0.06348862
18158528,0.35453027,0.031066714,-0.0635123
18168994,0.35510758,0.031975247,-0.06295443
18190349,0.35453033,0.030845815,-0.06350309
18200498,0.35428458,0.030411134,-0.06331312
18242837,0.3544452,0.030740134,-0.06426725
18253013,0.3558468,0.031456247,-0.06302108
18263488,0.3551093,0.031330336,-0.06250036
18273999,0.35502687,0.031253133,-0.06258225
18285336,0.35502484,0.03137905,-0.0631001
18295398,0.3552754,0.03120087,-0.062068425
18347991,0.35535452,0.031389732,-0.06284553
18358011,0.35322347,0.031593952,-0.061478835
18368488,0.3552789,0.031902727,-0.061157964
18378988,0.35380098,0.03147161,-0.060877934
18390398,0.3544539,0.030317258,-0.062028352
18400431,0.3538765,0.03184221,-0.06260237
18410496,0.3544597,0.031338573,-0.0605332
18442906,0.35470015,0.031569034,-0.06208156
18453556,0.35469756,0.031172391,-0.06274846
18464044,0.35429445,0.030886091,-0.060769975
18485472,0.3552773,0.031516764,-0.06156902
18495540,0.35560608,0.0325512,-0.06152804
18527949,0.35593286,0.030096356,-0.062024873
18538020,0.354292,0.03174479,-0.061403845
18548071,0.35568994,0.030650953,-0.061107308
18600586,0.35454014,0.031615313,-0.060972236
18610614,0.35479012,0.030767314,-0.060083468
18665514,0.3544561,0.030931253,-0.061455958
18675526,0.35421017,0.033445485,-0.06130365
18685602,0.35593674,0.030728154,-0.061026055
18706599,0.3564323,0.03134569,-0.060370293
18717177,0.3540502,0.031279188,-0.0601874
18728077,0.3544618,0.030549971,-0.05998769
18759104,0.35462797,0.031307667,-0.05950736
18769596,0.3547877,0.03125783,-0.06070197
18780588,0.35528135,0.031338573,-0.06053639
18790601,0.35519364,0.03231249,-0.061943643
18801098,0.3555306,0.030188913,-0.0598059
18811592,0.3549545,0.03209628,-0.06005415
18864094,0.35462573,0.030693673,-0.060079753
18874594,0.35479084,0.03239793,-0.059895236
18885691,0.35569727,0.03235278,-0.059213404
18895741,0.35479325,0.03190741,-0.059276734
18906091,0.35478902,0.031419333,-0.06036699
18948188,0.3543796,0.030697232,-0.05999352
18958308,0.35471132,0.03213188,-0.059200354
18969095,0.3556927,0.032008406,-0.060395084
18990634,0.35545373,0.032532085,-0.058451038
19000688,0.35585982,0.031153273,-0.05967656
19010721,0.35413668,0.030957289,-0.059063654
19063214,0.3548703,0.030672312,-0.060592417
19073336,0.35586044,0.031307667,-0.059512142
19083546,0.3558591,0.031367052,-0.05985635
19115692,0.35470685,0.031124793,-0.060354374
19125719,0.35379902,0.031376615,-0.061386563
19241051,0.35437927,0.030693673,-0.060078796
19251548,0.35479045,0.030697232,-0.059995115
19262043,0.35429725,0.029957335,-0.060047742
19273363,0.3547948,0.030596249,-0.05888028
19284110,0.3547869,0.030069,-0.06090865
19326106,0.35413417,0.030192472,-0.059715196
19336613,0.35487273,0.03187893,-0.059959326
19347126,0.35536137,0.031906288,-0.061073
19358307,0.35437754,0.03126495,-0.060529806
19368333,0.35544828,0.03121979,-0.05984861
19410872,0.3543796,0.030697232,-0.05999352
19420894,0.35478798,0.031776827,-0.060638204
19431090,0.35429588,0.030384896,-0.060407322
19441590,0.3539712,0.029985813,-0.0593642
19452105,0.3552011,0.03121267,-0.060018223
19494097,0.3544638,0.03057133,-0.059475984
19504604,0.35462147,0.030500133,-0.0611823
19515947,0.3543803,0.030409815,-0.059810657
19548371,0.35561094,0.03120199,-0.060275666
19558440,0.3547078,0.031356372,-0.060107734
19568655,0.35405368,0.030210271,-0.05928846
19600932,0.35495806,0.03058557,-0.059136767
19611078,0.3547918,0.030785114,-0.05965705
19621143,0.35495746,0.032275584,-0.059292737
19642148,0.35553145,0.031156832,-0.059590004
19653449,0.35511473,0.030650953,-0.061105076
19663473,0.35462725,0.03166871,-0.059693296
19694649,0.35397524,0.03179931,-0.05832928
19705962,0.35421494,0.030546412,-0.060072012
19716023,0.355777,0.030998891,-0.059840668
19726140,0.3547888,0.030679433,-0.06042153
19736697,0.35421824,0.030508373,-0.0592161
19747157,0.3537243,0.030350432,-0.059463892
19768502,0.35470647,0.029350461,-0.06045117
19778508,0.35503685,0.03091813,-0.060005292
19788562,0.354706,0.030304153,-0.060576413
19798626,0.35528526,0.031602204,-0.059522204
19809094,0.35454202,0.030307712,-0.06049049
19819607,0.3545428,0.031570166,-0.060286887
19861646,0.35397106,0.03101669,-0.05940723
19872093,0.35421664,0.030416936,-0.059639446
19882609,0.35363805,0.03119131,-0.060523864
19903600,0.3544642,0.029985813,-0.05936611
19914120,0.35503906,0.031605765,-0.059435964
19977103,0.35487506,0.031903848,-0.05936234
19987611,0.35561565,0.030810032,-0.05906325
19998622,0.35429737,0.03135993,-0.060020864
20018634,0.35438415,0.03126251,-0.05882106
20028732,0.35536706,0.03167227,-0.05961088
20039051,0.35553166,0.031823106,-0.05953238
20071242,0.35528257,0.029729316,-0.060212918
20082097,0.35453874,0.0300512,-0.06133411
20092605,0.35462698,0.03122335,-0.05976014
20124093,0.35388255,0.031390853,-0.061045744
20134597,0.35479662,0.03157485,-0.05840853
20187111,0.3541377,0.03096797,-0.058807805
20197598,0.35454732,0.030217392,-0.059119806
20208805,0.35487592,0.03058557,-0.059136447
20219644,0.35504124,0.030596249,-0.058881238
20230144,0.35438225,0.030799352,-0.059314325
20241182,0.35438022,0.030851627,-0.059829097
20282650,0.35404894,0.030970411,-0.06051624
20293740,0.35545477,0.030330189,-0.058188263
20303750,0.35462812,0.030350432,-0.0594674
20313751,0.35561728,0.03104873,-0.058646053
20323792,0.3538922,0.031125927,-0.05855715
20334090,0.3547964,0.030834952,-0.058463074
20366250,0.35372546,0.03124827,-0.059159644
20376318,0.3552008,0.03106185,-0.060097355
20386590,0.3552858,0.030427614,-0.059387743
20397105,0.35504192,0.030382471,-0.05870145
20418829,0.3544687,0.03106653,-0.05821517
20428939,0.35496172,0.030698352,-0.058201715
20439104,0.35422006,0.031781506,-0.058756657
20482140,0.35504934,0.031568848,-0.05678602
20492661,0.3547167,0.03174703,-0.05781737
20503808,0.3534815,0.03024231,-0.05851867
20513942,0.3546333,0.03121735,-0.05813667
20524146,0.35454893,0.030676993,-0.058711827
20534687,0.3538919,0.03104873,-0.058639355
20576689,0.3556984,0.03170075,-0.058929894
20587160,0.35364515,0.030456094,-0.058699097
20597642,0.35397106,0.03094305,-0.059404153
20608939,0.35422182,0.030915705,-0.058293354
20619697,0.3552094,0.03122803,-0.057883058
20682702,0.35455146,0.031368185,-0.058057215
20693885,0.35512418,0.03171143,-0.058671802
20703960,0.35495603,0.03093237,-0.059663832
20713982,0.3549593,0.031115249,-0.058817144
20724715,0.35512155,0.029470375,-0.05934715
20735248,0.35520574,0.031336147,-0.058827322
20746592,0.35545012,0.032198388,-0.05937687
20767790,0.35528678,0.030364672,-0.05912882
20778902,0.35373077,0.03145249,-0.057801247
20788975,0.35405752,0.030915705,-0.058292717
20799250,0.3550405,0.030957289,-0.059067164
20809748,0.3547988,0.03041807,-0.057847653
20820256,0.3548759,0.030732831,-0.059142593
20831478,0.35495752,0.029768474,-0.059273526
20882203,0.35545132,0.03103093,-0.05907183
20892700,0.35479596,0.03156773,-0.0585791
20904063,0.3552052,0.03059269,-0.058967154
20914108,0.3550422,0.03075419,-0.058631524
20924194,0.3540586,0.030705472,-0.05802764
20934692,0.35512516,0.03172211,-0.058415953
20945197,0.35479292,0.029838549,-0.05936124
20987210,0.3549598,0.030161558,-0.058691908
20997697,0.3534023,0.030716151,-0.057769235
21009100,0.35487467,0.030129518,-0.059459135
21019747,0.35446897,0.03143825,-0.058145255
21030256,0.35421774,0.031756587,-0.059353642
21041561,0.3538866,0.03091813,-0.060000826
21081695,0.3545502,0.030838512,-0.058376838
21092228,0.35397175,0.030729271,-0.059224363
21102697,0.3546298,0.030073691,-0.059028685
21144701,0.35479513,0.030526172,-0.058791917
21155203,0.35430416,0.030326629,-0.058269083
21229738,0.35405567,0.030231632,-0.05877675
21240249,0.35438263,0.030361112,-0.05921059
21251629,0.3542154,0.02959272,-0.059946775
21261661,0.35356498,0.030477453,-0.058187075
21271754,0.355288,0.029123574,-0.058820724
21314833,0.35479316,0.03035755,-0.059297476
21325311,0.35470983,0.031156832,-0.059586816
21336688,0.35463032,0.031111687,-0.058901157
21379899,0.35364217,0.030424055,-0.059466645
21390435,0.35356212,0.029635439,-0.05892082
21401683,0.35520408,0.03124471,-0.059250664
21421890,0.35405314,0.03153213,-0.059429064
21432393,0.3540542,0.030880107,-0.05914555
21442916,0.35339707,0.029996494,-0.05910612
21464947,0.3538079,0.02962832,-0.059092343
21475463,0.35495615,0.0301224,-0.059630025
21506815,0.3534023,0.030716151,-0.057769235
21517504,0.35503697,0.03010816,-0.05997148
21527955,0.35520494,0.030073691,-0.059030917
21549418,0.35545507,0.030481013,-0.058109127
21559452,0.3547974,0.03106653,-0.058216445
21591815,0.3556197,0.030484574,-0.058024477
21602495,0.35454634,0.030133078,-0.059372578
21634374,0.3548788,0.031206671,-0.058393482
21644493,0.35397547,0.030252991,-0.058264732
21655018,0.354142,0.03079335,-0.0576899
21696990,0.35430178,0.030817151,-0.05888759
21707506,0.3556994,0.031785067,-0.058677107
21718004,0.35504684,0.030804029,-0.05743755
21729330,0.35504222,0.030680552,-0.05862845
21739409,0.3543896,0.030509492,-0.057422705
21801990,0.3543883,0.030347988,-0.057757694
21812531,0.35471874,0.029408552,-0.057292596
21822990,0.35389498,0.03041807,-0.057844147
21834410,0.355452,0.028899098,-0.058897417
21844546,0.35462847,0.03028035,-0.059379045
21855546,0.35446846,0.030326629,-0.05826972
21877594,0.35447466,0.030836068,-0.056667767
21888116,0.35463563,0.031021368,-0.057530466
21899403,0.35487822,0.030831391,-0.05854868
21909455,0.3548812,0.03086343,-0.057781123
21919635,0.353075,0.030362228,-0.057411455
21930097,0.3550463,0.029839674,-0.057568163
21962035,0.35397983,0.030078372,-0.057146817
21972064,0.35455424,0.03058669,-0.057341136
22004514,0.3544769,0.031376425,-0.0560923
22015142,0.3552982,0.031667408,-0.05619306
22047028,0.35414302,0.030804029,-0.05743404
22057178,0.35439286,0.030839628,-0.056582164
22067657,0.35463634,0.030807588,-0.057350677
22078202,0.35414234,0.030870551,-0.057607684
22089619,0.35348812,0.03031351,-0.056812994
22100207,0.3540598,0.03130879,-0.0577111
22163209,0.35464114,0.0317446,-0.056108303
22174517,0.35488626,0.030254116,-0.056474205
22184562,0.35480636,0.030647209,-0.05589227
22227059,0.35529494,0.029271957,-0.057032835
22237088,0.35513264,0.03062229,-0.05649053
22289653,0.35397953,0.029927548,-0.05722596
22299696,0.354634,0.03107721,-0.057959955
22310229,0.35438922,0.03057957,-0.05751107
22342133,0.354066,0.029826555,-0.056111436
22352267,0.3535667,0.029979814,-0.05773914
22383695,0.35406283,0.03111993,-0.05693432
22394666,0.3551312,0.03127075,-0.05685933
22404687,0.3541441,0.030225636,-0.057153605
22436213,0.35570386,0.030726831,-0.057522316
22447217,0.3542213,0.030024974,-0.058427032
22480297,0.35463333,0.030996447,-0.05812745
22490801,0.35364512,0.030676993,-0.05870832
22502194,0.35488442,0.031414464,-0.056949805
22512347,0.35487998,0.030186476,-0.0580946
22523406,0.35488096,0.030344428,-0.0578449
22534716,0.35480168,0.031039167,-0.057104684
22544813,0.3546344,0.030491693,-0.05785009
22587216,0.35430312,0.030684112,-0.058540303
22597255,0.35380942,0.03060337,-0.058705885
22607397,0.35487574,0.031763706,-0.059185624
22649915,0.35446644,0.030673433,-0.05879679
22660898,0.35471362,0.03031239,-0.058611806
22672252,0.35479814,0.030484574,-0.05802129
22713404,0.35480058,0.0316912,-0.057388198
22724779,0.35455066,0.030032093,-0.058257744
22734809,0.3548772,0.030894347,-0.058807604
22755400,0.35455754,0.030695928,-0.05649137
22765905,0.3543058,0.030491693,-0.05784881
22777312,0.35447338,0.030674567,-0.057002753
22807895,0.35406294,0.030383589,-0.056903586
22818407,0.35430747,0.03043587,-0.05741931
22828934,0.35446545,0.030441854,-0.059043415
22839856,0.35463437,0.03056533,-0.057853162
22849972,0.35372913,0.031287428,-0.05822152
22860396,0.3544657,0.031108128,-0.0589858
22870914,0.3563636,0.029941788,-0.056894075
22902412,0.3541357,0.03102025,-0.05932259
22912460,0.35496193,0.03129099,-0.058141023
22922460,0.35471624,0.03041451,-0.05793261
22943351,0.35553682,0.03077199,-0.05820702
22953849,0.35504133,0.030007172,-0.058856647
22995854,0.3544677,0.03098221,-0.058467943
23006388,0.3546332,0.029741116,-0.058160484
23017414,0.3538127,0.028794557,-0.057861485
23027454,0.35594478,0.030224511,-0.058954656
23037866,0.3544725,0.030074812,-0.057234023
23048393,0.35504267,0.029800514,-0.05850629
23112480,0.35480347,0.030173369,-0.05664138
23122482,0.35414362,0.031179328,-0.057278853
23132490,0.3547932,0.030210271,-0.05929133
23142853,0.3538151,0.030295711,-0.05724069
23153403,0.35610962,0.031041611,-0.058818534
23205838,0.355295,0.03089547,-0.057015162
23216393,0.35496068,0.030834952,-0.05846371
23227525,0.3543846,0.03060337,-0.058708116
23237571,0.3556202,0.031375308,-0.0578908
23258410,0.35430765,0.031470288,-0.057377063
23268849,0.35430628,0.029464379,-0.057720494
23321358,0.35504904,0.031418025,-0.05686516
23332593,0.3546361,0.030362228,-0.057417512
23343395,0.35439247,0.031130608,-0.056679744
23365127,0.35454914,0.031343266,-0.0586542
23375151,0.35429883,0.030490573,-0.05964284
23428446,0.35389742,0.029780276,-0.057219498
23438949,0.3547991,0.030642528,-0.057771582
23450190,0.354221,0.03009505,-0.058515396
23460994,0.35512727,0.03108077,-0.05787659
23471520,0.35480148,0.030225636,-0.057156157
23512789,0.35504657,0.030211397,-0.05749825
23522794,0.35406786,0.03065789,-0.055633545
23533485,0.35438624,0.03062117,-0.058281697
23575458,0.35471374,0.03156773,-0.05857878
23585959,0.35455203,0.029972695,-0.057913534
23627940,0.3534014,0.030042773,-0.057997424
23638479,0.3546357,0.030726831,-0.05751817
23648964,0.3540602,0.03079691,-0.05760429
23660171,0.3545548,0.031182887,-0.057195157
23690941,0.35496232,0.031000009,-0.058043443
23701480,0.3538968,0.03154393,-0.05737854
23734007,0.35529587,0.031642485,-0.05679005
23745241,0.35414875,0.030201849,-0.055956554
23755280,0.35488442,0.031488087,-0.05695288
23775997,0.3548014,0.03081471,-0.057180744
23786499,0.35512596,0.030992888,-0.05821465
23828494,0.35529524,0.031488087,-0.056954473
23839010,0.35463548,0.029839674,-0.05756657
23850472,0.3548789,0.030543972,-0.058365818
23871592,0.35405952,0.031010687,-0.05778408
23882866,0.3543866,0.030698352,-0.058199484
23915345,0.3537323,0.030214956,-0.057407856
23926145,0.35414332,0.031102128,-0.057361055
23936680,0.35578078,0.030301709,-0.058871813
23957851,0.35422286,0.03077911,-0.05803135
23968158,0.35446978,0.03041451,-0.057931658
24041657,0.3545505,0.030989328,-0.0582977
24052906,0.35479617,0.03024231,-0.058523774
24062925,0.3544698,0.030193597,-0.057922434
24073146,0.35512415,0.029940655,-0.058683325
24083646,0.35496292,0.03130167,-0.057885174
24126691,0.3529865,0.03029459,-0.059031527
24137888,0.35521147,0.030807588,-0.057352908
24148061,0.3543905,0.03110925,-0.057191443
24158227,0.35537586,0.03058669,-0.057344325
24168710,0.35446665,0.031413328,-0.058742244
24233795,0.35554308,0.031060526,-0.05659585
24244308,0.3547942,0.030000053,-0.05902625
24255505,0.35504553,0.03056889,-0.057769466
24275807,0.35438827,0.030495252,-0.05776384
24286301,0.35430413,0.030473894,-0.05827523
24340481,0.35422483,0.03080047,-0.05751965
24350634,0.3557784,0.030497693,-0.059478015
24360842,0.3545448,0.029526213,-0.05977441
24371399,0.35421693,0.030641394,-0.059563387
24381853,0.35388923,0.031093888,-0.059324704
24393013,0.35578537,0.03042519,-0.057680912
24423138,0.35480264,0.03127075,-0.056858055
24433310,0.35422856,0.030545091,-0.05656923
24443790,0.35512903,0.030509492,-0.057425573
24485790,0.3538938,0.031659164,-0.058152243
24496309,0.3550393,0.030133078,-0.059374493
24506797,0.35521144,0.031102128,-0.0573652
24528113,0.3549621,0.030186476,-0.05809492
24538299,0.3539737,0.031192431,-0.05873111
24548816,0.35421902,0.029852789,-0.05901787
24559315,0.354385,0.030238751,-0.05860746
24570658,0.35455024,0.03061761,-0.058367617
24581404,0.35471126,0.030361112,-0.05921187
24623230,0.35364425,0.029929975,-0.058933433
24633840,0.35414082,0.030042773,-0.058000296
24644370,0.35495943,0.030452535,-0.05878948
24665671,0.35545766,0.03087767,-0.057442218
24675714,0.35397774,0.030719712,-0.057686187
24738888,0.3543022,0.03030527,-0.058780782
24749401,0.35446876,0.030624729,-0.058196727
24770818,0.35512018,0.029897936,-0.05970673
24780848,0.35430616,0.030200716,-0.057751227
24791390,0.35488197,0.03013421,-0.05757982
24823297,0.35414046,0.030333748,-0.058097877
24833298,0.35519972,0.029574921,-0.06037702
24843346,0.35463372,0.03063185,-0.058026798
24854372,0.35331708,0.028618816,-0.058535695
24865718,0.35455018,0.03105941,-0.058386058
24938365,0.35471892,0.030295711,-0.0572442
24948844,0.35446948,0.030263672,-0.05801079
24959393,0.35480213,0.03030639,-0.05698866
24990916,0.3545529,0.030719712,-0.057688423
25001400,0.3538123,0.031150848,-0.05795984
25011918,0.35454696,0.030361112,-0.05921123
25053850,0.35504818,0.030671008,-0.057090275
25064369,0.35438588,0.03076487,-0.058373127
25074865,0.3547184,0.03154393,-0.05738173
25106364,0.35578898,0.03075887,-0.05675508
25116850,0.35488382,0.031039167,-0.057105005
25127397,0.3549679,0.031428706,-0.056608986
25159914,0.35471386,0.030831391,-0.058548044
25171013,0.3541432,0.0316912,-0.057385646
25181950,0.3547955,0.030382471,-0.05870049
25192451,0.3545505,0.030915705,-0.058294628
25213494,0.35521114,0.030804029,-0.057438187
25223944,0.35397947,0.030369349,-0.057244405
25278422,0.35365632,0.031092566,-0.055820964
25288471,0.35496613,0.030008294,-0.057062294
25298512,0.3548829,0.030660328,-0.057345487
25330022,0.35455343,0.031315908,-0.05754244
25341073,0.35373113,0.031161528,-0.057703674
25352044,0.35430804,0.031032048,-0.057273343
25426009,0.35496345,0.03012709,-0.057750706
25436052,0.354716,0.029895509,-0.05799638
25446106,0.3547118,0.031104568,-0.059072036
25467549,0.35397255,0.029852789,-0.059016913
25478496,0.35479978,0.030502373,-0.057594866
25520093,0.3542205,0.030901466,-0.058634482
25531050,0.3541404,0.03055465,-0.058107097
25541198,0.3553714,0.03149765,-0.05849297
25562052,0.35438845,0.031382427,-0.057715446
25572585,0.35422188,0.03062117,-0.058281057
25614545,0.35504398,0.030035652,-0.05817437
25625040,0.35495877,0.03037179,-0.058956977
25636097,0.35438457,0.03075063,-0.058714263
25646127,0.3551246,0.03119955,-0.058565006
25667057,0.35413995,0.03143469,-0.05822926
25677561,0.35430676,0.030723272,-0.057602175
25730082,0.3555362,0.030396711,-0.058362223
25741283,0.3555361,0.030912146,-0.058383737
25752107,0.35422269,0.029965574,-0.058082826
25773653,0.35414216,0.029909749,-0.057653017
25783705,0.35373288,0.030737512,-0.057258815
25836204,0.35586298,0.03008081,-0.058862913
25846594,0.35520577,0.031188872,-0.058821175
25857139,0.3539721,0.030659193,-0.059136014
25867596,0.35536465,0.030097479,-0.060228605
25889646,0.35463107,0.03060337,-0.058709074
25900178,0.3536456,0.03178863,-0.058583856
25952655,0.35446376,0.030718591,-0.05948213
25963747,0.3547156,0.03040739,-0.05810318
25973768,0.3547929,0.030059451,-0.05937046
25984146,0.35471463,0.030102171,-0.05834674
25994643,0.3551245,0.029649679,-0.05858574
26005157,0.3542246,0.030207837,-0.05758034
26036691,0.35496163,0.031140167,-0.05822016
26047169,0.35496214,0.03011285,-0.058091845
26057644,0.35643852,0.02964256,-0.058761414
26068820,0.3547137,0.029723316,-0.05858722
26078927,0.35495874,0.03059269,-0.058966197
26153938,0.3543018,0.030522611,-0.058875293
26164748,0.35438168,0.030203152,-0.059460297
26175262,0.35520652,0.030680552,-0.058629088
26196349,0.35299376,0.030667448,-0.057167582
26206399,0.35438582,0.031133048,-0.058388494
26237194,0.3548809,0.030712591,-0.057860266
26247717,0.35397747,0.030347988,-0.0577561
26258985,0.35430506,0.030926386,-0.058037817
26280251,0.35479888,0.029976254,-0.057829212
26291347,0.35454935,0.03009149,-0.05860195
26301413,0.35496238,0.03063185,-0.058028072
26385281,0.35446608,0.03074351,-0.058885153
26396413,0.3548775,0.031118808,-0.058731545
26406474,0.35430655,0.029909749,-0.057653654
26416755,0.35554093,0.029857473,-0.05714366
26511560,0.3536495,0.03013421,-0.057575036
26521600,0.35405532,0.030448973,-0.05887126
26659021,0.35438675,0.031659164,-0.05815416
26669087,0.35373625,0.030404948,-0.056390602
26679251,0.354627,0.031076089,-0.05975399
26754291,0.35561714,0.029867029,-0.058682166
26764307,0.35388967,0.030361112,-0.05920868
26890408,0.3549627,0.030709032,-0.057945862
26901617,0.35455355,0.030726831,-0.057517853
26911785,0.35504755,0.03044299,-0.057251625
27004759,0.35471842,0.031396665,-0.057375584
27015258,0.35545945,0.029938227,-0.056975845
27025752,0.35488412,0.031190006,-0.05702586
27131905,0.35529208,0.03042163,-0.057764277
27142319,0.35554096,0.031775508,-0.057138294
27152800,0.35414466,0.030821828,-0.057007626
27174421,0.353894,0.03040739,-0.058099993
27185390,0.35488114,0.03123159,-0.05779649
27227396,0.35496393,0.031165088,-0.057623167
27237849,0.3543079,0.029923987,-0.05731252
27249319,0.3538085,0.030150877,-0.05894329
27269403,0.35323632,0.03025655,-0.058176577
27279856,0.3553712,0.03053685,-0.058538303
27322897,0.35512775,0.030053452,-0.05774827
27333419,0.35521016,0.028580775,-0.05768712
27344383,0.35348627,0.02962945,-0.057297032
27364893,0.35521334,0.031418025,-0.056865796
27375398,0.3549644,0.030211397,-0.057497934
27385904,0.35570472,0.029555812,-0.05730257
27460450,0.35463643,0.030365787,-0.057332233
27470949,0.35512185,0.029694837,-0.05927109
27502445,0.35454968,0.030021412,-0.058513597
27512941,0.3547136,0.030459654,-0.058617953
27523482,0.35496065,0.030908586,-0.058466785
27597997,0.35463244,0.030175798,-0.058349494
27608521,0.3544648,0.030361112,-0.05921091
27619492,0.35429662,0.029876577,-0.06021524
27650504,0.3547953,0.029495295,-0.058748886
27661010,0.35487166,0.030318392,-0.060235914
27725043,0.35389534,0.030200716,-0.057749633
27735549,0.35430276,0.030827831,-0.05863173
27746054,0.35462812,0.030350432,-0.0594674
27757041,0.35487437,0.029978694,-0.059538275
27767092,0.35388777,0.030045211,-0.059708092
27809604,0.3556152,0.029551134,-0.059181567
27820612,0.35520464,0.029922856,-0.05911006
27831110,0.35421753,0.03101669,-0.059408184
27852207,0.35487923,0.030547531,-0.058280535
27862598,0.35405526,0.03074351,-0.05888356
27915095,0.35528415,0.030188913,-0.059804942
27925634,0.35462472,0.030977532,-0.060347907
27936095,0.35512182,0.029768474,-0.059274163
