timestamp,timestamp_sample,device_id,x,y,z,temperature,error_count,clip_counter[0],clip_counter[1],clip_counter[2]
2948810,2948794,1114122,2.5339992,3.7112677,-6.302695,37.625,0,0,0,0
2949240,2949219,1114122,2.3545375,3.6969109,-6.302695,37.625,0,0,0,0
3048970,3048953,1114122,2.4478574,3.6753755,-6.3170514,37.625,0,0,0,0
3147668,3147652,1114122,2.821138,3.668197,-6.4247284,37.625,0,0,0,0
3347172,3347155,1114122,2.57707,3.682554,-6.5611196,37.625,0,0,0,0
3545647,3545630,1114122,2.426322,3.5102706,-6.259624,37.625,0,0,0,0
3746629,3746613,1114122,2.3545375,3.6610186,-6.5467625,37.75,0,0,0,0
3844226,3844206,1114122,2.3401804,3.37388,-6.5036917,37.625,0,0,0,0
3947781,3947755,1114122,2.3904297,3.790231,-6.6831536,37.625,0,0,0,0
4046794,4046778,1114122,2.426322,3.5892339,-6.2883377,37.75,0,0,0,0
4347830,4347810,1114122,2.268396,3.6753755,-5.9437714,37.625,0,0,0,0
4745770,4745753,1114122,2.2612174,3.424129,-6.2739806,37.625,0,0,0,0
4847114,4847098,1114122,2.4622145,3.546163,-6.23091,37.875,0,0,0,0
4948420,4948404,1114122,2.3976083,3.682554,-6.740581,37.875,0,0,0,0
5147922,5147905,1114122,2.426322,3.3523445,-6.195018,37.75,0,0,0,0
5445072,5445053,1114122,2.519642,3.6035907,-6.474978,37.75,0,0,0,0
5547971,5547954,1114122,2.76371,3.4671998,-6.568298,37.75,0,0,0,0
5648773,5648754,1114122,2.5268207,3.316452,-6.3744793,37.75,0,0,0,0
5848284,5848262,1114122,2.5411775,3.6394832,-6.474978,37.625,0,0,0,0
5947539,5947522,1114122,2.519642,3.7974093,-6.4893346,37.75,0,0,0,0
6148570,6148552,1114122,2.4478574,3.481557,-6.3170514,37.875,0,0,0,0
6445723,6445706,1114122,2.4909282,3.4959137,-6.259624,38.0,0,0,0,0
6547855,6547836,1114122,2.5339992,3.4959137,-6.4893346,37.875,0,0,0,0
6645395,6645365,1114122,2.333002,3.5030923,-6.295516,37.875,0,0,0,0
6945523,6945503,1114122,2.548356,3.682554,-6.5324054,37.875,0,0,0,0
7047999,7047982,1114122,2.562713,3.7399817,-6.352944,37.875,0,0,0,0
7148171,7148155,1114122,2.376073,3.5676985,-6.245267,37.875,0,0,0,0
7448182,7448165,1114122,2.5842483,3.4169507,-6.6041903,37.75,0,0,0,0
7748341,7748325,1114122,2.5411775,3.6179478,-6.805187,37.875,0,0,0,0
7848355,7848338,1114122,2.5914268,3.5246277,-6.41755,37.875,0,0,0,0
7945877,7945860,1114122,2.3042881,3.8404803,-6.3314085,37.875,0,0,0,0
8145997,8145980,1114122,2.4119651,3.6179478,-6.41755,37.875,0,0,0,0
8243527,8243511,1114122,2.2612174,3.5102706,-6.3888364,37.875,0,0,0,0
8447077,8447061,1114122,2.3976083,3.424129,-6.087341,37.75,0,0,0,0
8746275,8746256,1114122,2.4622145,3.7471602,-6.460621,37.875,0,0,0,0
8947882,8947866,1114122,2.5555346,3.65384,-6.3457656,37.875,0,0,0,0
9143895,9143873,1114122,2.3042881,3.6394832,-6.3816576,37.875,0,0,0,0
9347926,9347910,1114122,2.3042881,3.7543385,-6.015556,38.0,0,0,0,0
9445576,9445554,1114122,2.8067808,3.4313076,-6.431907,38.0,0,0,0,0
9547419,9547403,1114122,2.3545375,3.8261232,-6.302695,38.0,0,0,0,0
9646636,9646619,1114122,2.5052853,3.5964124,-6.41755,38.0,0,0,0,0
9849180,9849163,1114122,2.4981067,3.7184463,-6.704689,38.0,0,0,0,0
9947470,9947453,1114122,2.3976083,3.682554,-6.2739806,38.0,0,0,0,0
10247770,10247753,1114122,2.2253249,3.6179478,-6.187839,37.875,0,0,0,0
10349413,10349397,1114122,2.4909282,3.5030923,-6.518049,38.0,0,0,0,0
11047369,11047345,1114122,2.4622145,3.6323047,-6.23091,38.0,0,0,0,0
11249822,11249806,1114122,2.5339992,3.6753755,-6.582655,38.0,0,0,0,0
11347449,11347425,1114122,2.268396,3.5676985,-6.4390855,38.125,0,0,0,0
11746118,11746101,1114122,2.333002,3.531806,-6.5754766,38.125,0,0,0,0
11950122,11950105,1114122,2.2899313,3.5030923,-6.1734824,37.875,0,0,0,0
12146168,12146152,1114122,2.2468605,3.6610186,-6.087341,38.0,0,0,0,0
12247790,12247762,1114122,2.074577,3.7543385,-6.360122,38.0,0,0,0,0
12440428,12440404,1114122,2.4047866,3.7686956,-6.1016974,38.125,0,0,0,0
12547866,12547849,1114122,2.2899313,3.5246277,-6.1663036,38.0,0,0,0,0
12647895,12647879,1114122,2.3904297,3.531806,-6.2237315,38.0,0,0,0,0
12947999,12947982,1114122,2.4693928,3.6179478,-6.195018,38.0,0,0,0,0
13047077,13047060,1114122,2.2971096,3.5030923,-6.647261,38.0,0,0,0,0
13148117,13148100,1114122,2.3114667,3.9122648,-6.5467625,38.0,0,0,0,0
13443260,13443244,1114122,2.4837499,3.37388,-6.3888364,38.125,0,0,0,0
13848423,13848406,1114122,2.333002,3.8333018,-6.2380886,38.0,0,0,0,0
13946918,13946902,1114122,2.3042881,3.330809,-6.0729837,38.0,0,0,0,0
14046025,14046006,1114122,2.333002,3.682554,-6.467799,38.0,0,0,0,0
14147471,14147454,1114122,2.3617158,3.5030923,-6.2380886,37.875,0,0,0,0
14248661,14248637,1114122,2.5052853,3.5820553,-6.2380886,38.125,0,0,0,0
14346136,14346119,1114122,2.7493532,3.6753755,-6.403193,38.125,0,0,0,0
14442518,14442501,1114122,2.3401804,3.8117664,-6.474978,38.125,0,0,0,0
14646309,14646286,1114122,2.1535404,3.7256248,-6.245267,38.125,0,0,0,0
15249021,15249005,1114122,2.3545375,3.682554,-6.187839,38.25,0,0,0,0
15345521,15345505,1114122,2.7206392,3.6610186,-6.647261,38.0,0,0,0,0
15449067,15449051,1114122,2.4837499,3.8548372,-6.3888364,38.0,0,0,0,0
15549220,15549203,1114122,2.5914268,3.6969109,-6.6041903,38.125,0,0,0,0
15646732,15646715,1114122,2.6919253,3.6035907,-6.4247284,38.125,0,0,0,0
15742418,15742401,1114122,2.3042881,3.4456644,-6.216553,38.0,0,0,0,0
16046960,16046943,1114122,2.2755742,3.6897323,-6.367301,38.125,0,0,0,0
16149401,16149385,1114122,2.5339992,3.7184463,-6.460621,38.125,0,0,0,0
16247519,16247502,1114122,2.3976083,3.481557,-6.446264,38.125,0,0,0,0
16348309,16348286,1114122,2.5339992,3.5892339,-6.446264,38.125,0,0,0,0
16647260,16647237,1114122,2.4478574,3.8548372,-6.5324054,38.125,0,0,0,0
16744674,16744658,1114122,2.4335005,3.345166,-6.338587,38.125,0,0,0,0
16947267,16947250,1114122,2.3904297,3.5964124,-6.582655,38.125,0,0,0,0
17044800,17044783,1114122,2.5339992,3.56052,-6.3816576,38.125,0,0,0,0
17148408,17148392,1114122,2.3688943,3.7830524,-6.539584,37.875,0,0,0,0
17347461,17347434,1114122,2.6488545,3.7184463,-6.51087,38.25,0,0,0,0
17447623,17447605,1114122,2.2899313,3.6179478,-6.5754766,38.25,0,0,0,0
17548421,17548401,1114122,2.519642,3.5964124,-6.460621,38.0,0,0,0,0
17646081,17646062,1114122,2.440679,3.546163,-6.4893346,38.125,0,0,0,0
17747631,17747606,1114122,2.4478574,3.6251261,-6.3888364,38.125,0,0,0,0
17848729,17848712,1114122,2.6632116,3.4887352,-6.4390855,38.25,0,0,0,0
18047834,18047812,1114122,2.3401804,3.6610186,-6.403193,38.25,0,0,0,0
18147811,18147785,1114122,2.2468605,3.6179478,-6.187839,38.25,0,0,0,0
18245435,18245412,1114122,2.5986054,3.682554,-6.582655,38.125,0,0,0,0
18348521,18348504,1114122,2.3401804,3.6610186,-6.2883377,38.125,0,0,0,0
18447937,18447915,1114122,2.3545375,3.56052,-6.3314085,38.125,0,0,0,0
18547023,18546986,1114122,2.2755742,3.6323047,-6.460621,38.125,0,0,0,0
18845589,18845573,1114122,2.3545375,3.6610186,-6.6041903,38.25,0,0,0,0
18947048,18947025,1114122,2.5339992,3.6897323,-6.431907,38.125,0,0,0,0
19246289,19246273,1114122,2.5698915,3.4743783,-6.539584,38.125,0,0,0,0
19347091,19347061,1114122,2.3258235,3.7184463,-6.3314085,38.25,0,0,0,0
19444725,19444708,1114122,2.6201408,3.761517,-6.3888364,38.125,0,0,0,0
19548345,19548328,1114122,2.5698915,3.481557,-6.553941,38.125,0,0,0,0
19648546,19648523,1114122,2.4765713,3.6179478,-6.2739806,38.375,0,0,0,0
21149176,21149153,1114122,2.5914268,3.481557,-6.5898333,38.125,0,0,0,0
21245515,21245492,1114122,2.1248264,3.6035907,-6.352944,38.375,0,0,0,0
21546833,21546817,1114122,2.3976083,3.5964124,-6.23091,38.375,0,0,0,0
21949586,21949533,1114122,2.376073,3.8261232,-6.3888364,38.375,0,0,0,0
22045582,22045565,1114122,2.3258235,3.5102706,-6.144768,38.25,0,0,0,0
22347974,22347958,1114122,2.333002,3.7112677,-6.403193,38.375,0,0,0,0
22444666,22444649,1114122,2.4981067,3.5820553,-6.5036917,38.375,0,0,0,0
22647259,22647242,1114122,2.3904297,3.6323047,-6.338587,38.25,0,0,0,0
22742328,22742312,1114122,2.6632116,3.6323047,-6.5467625,38.25,0,0,0,0
22847787,22847770,1114122,2.426322,3.6179478,-6.295516,38.25,0,0,0,0
22947354,22947338,1114122,2.4047866,3.6610186,-6.0729837,38.375,0,0,0,0
23148073,23148055,1114122,2.4693928,3.926622,-6.7764735,38.375,0,0,0,0
23247522,23247502,1114122,2.4693928,3.5892339,-6.352944,38.375,0,0,0,0
23448375,23448356,1114122,2.4478574,3.8333018,-6.6687965,38.375,0,0,0,0
23645246,23645214,1114122,2.2253249,3.6323047,-6.403193,38.375,0,0,0,0
23746568,23746552,1114122,2.3904297,3.7686956,-6.216553,38.25,0,0,0,0
23845289,23845266,1114122,2.2899313,3.7543385,-6.3888364,38.25,0,0,0,0
23947793,23947766,1114122,2.2899313,3.6394832,-6.431907,38.5,0,0,0,0
24047923,24047907,1114122,2.562713,3.5533416,-6.474978,38.5,0,0,0,0
24142867,24142851,1114122,2.6344976,3.5964124,-6.410372,38.375,0,0,0,0
24247974,24247951,1114122,2.376073,3.65384,-6.5754766,38.375,0,0,0,0
24347970,24347954,1114122,2.5914268,3.574877,-6.4390855,38.375,0,0,0,0
24548087,24548071,1114122,2.2899313,3.65384,-6.431907,38.375,0,0,0,0
24745636,24745620,1114122,2.4191437,3.6323047,-6.4965134,38.375,0,0,0,0
24848243,24848218,1114122,2.333002,3.7112677,-6.2811594,38.375,0,0,0,0
24944669,24944650,1114122,2.548356,3.6466615,-6.087341,38.5,0,0,0,0
25048279,25048256,1114122,2.3042881,3.6969109,-6.3744793,38.5,0,0,0,0
25448463,25448443,1114122,2.4622145,3.5676985,-6.518049,38.5,0,0,0,0
25545983,25545966,1114122,2.6344976,3.4313076,-6.553941,38.5,0,0,0,0
25748624,25748608,1114122,2.4335005,3.8261232,-6.525227,38.5,0,0,0,0
25847635,25847612,1114122,2.376073,3.6107693,-6.0514483,38.5,0,0,0,0
25948830,25948813,1114122,2.3976083,3.6753755,-6.144768,38.5,0,0,0,0
26047141,26047124,1114122,2.5052853,3.424129,-6.467799,38.375,0,0,0,0
26146266,26146250,1114122,2.268396,3.6035907,-6.3744793,38.375,0,0,0,0
26248880,26248863,1114122,2.1894326,3.5533416,-6.690332,38.25,0,0,0,0
26647724,26647707,1114122,2.5411775,3.8548372,-6.3170514,38.375,0,0,0,0
26744343,26744324,1114122,2.5052853,3.3667014,-6.3170514,38.5,0,0,0,0
27449523,27449499,1114122,2.548356,3.6610186,-6.302695,38.5,0,0,0,0
27644492,27644473,1114122,2.5124638,3.732803,-6.3888364,38.5,0,0,0,0
27748137,27748114,1114122,2.1678972,3.7256248,-6.2668023,38.5,0,0,0,0
27847061,27847044,1114122,2.440679,3.5964124,-6.187839,38.5,0,0,0,0
28048463,28048433,1114122,2.519642,3.5964124,-6.3960147,38.5,0,0,0,0
28147205,28147188,1114122,2.562713,3.3595228,-6.3744793,38.5,0,0,0,0
28244793,28244776,1114122,2.548356,3.7543385,-6.352944,38.375,0,0,0,0
28347700,28347674,1114122,2.4622145,3.546163,-6.367301,38.375,0,0,0,0
28950057,28950040,1114122,2.4047866,3.4671998,-6.0729837,38.5,0,0,0,0
29145221,29145198,1114122,2.67039,3.7399817,-6.4821563,38.5,0,0,0,0
29247698,29247681,1114122,2.5914268,3.9050865,-6.3744793,38.5,0,0,0,0
29442837,29442821,1114122,2.5052853,3.5676985,-6.431907,38.5,0,0,0,0
29646520,29646503,1114122,2.4909282,3.574877,-6.51087,38.375,0,0,0,0
29744168,29744152,1114122,2.3258235,3.6897323,-6.2883377,38.5,0,0,0,0
30044474,30044457,1114122,2.3832512,3.6179478,-6.2380886,38.5,0,0,0,0
30648324,30648307,1114122,2.656033,3.6179478,-6.5611196,38.625,0,0,0,0
30746923,30746906,1114122,2.455036,3.7471602,-6.3960147,38.75,0,0,0,0
30843378,30843362,1114122,2.7062824,3.682554,-6.5754766,38.625,0,0,0,0
31148501,31148484,1114122,2.2899313,3.7184463,-6.202196,38.625,0,0,0,0
31248647,31248620,1114122,2.3617158,3.7184463,-6.460621,38.625,0,0,0,0
31343637,31343620,1114122,2.318645,3.5533416,-6.446264,38.625,0,0,0,0
31447270,31447253,1114122,2.5052853,3.4887352,-6.2093744,38.625,0,0,0,0
31547068,31547052,1114122,2.426322,3.6107693,-6.195018,38.625,0,0,0,0
31643784,31643757,1114122,2.268396,3.481557,-6.4247284,38.5,0,0,0,0
31846506,31846485,1114122,2.376073,3.682554,-6.23091,38.5,0,0,0,0
31944968,31944952,1114122,2.562713,3.668197,-6.403193,38.625,0,0,0,0
32048979,32048960,1114122,2.5052853,3.7686956,-6.410372,38.625,0,0,0,0
32249499,32249469,1114122,2.5914268,3.574877,-6.3888364,38.625,0,0,0,0
32349055,32349039,1114122,2.4622145,3.4025936,-6.568298,38.5,0,0,0,0
32446638,32446622,1114122,2.519642,3.4887352,-6.4821563,38.75,0,0,0,0
32549229,32549198,1114122,2.3042881,3.531806,-6.187839,38.625,0,0,0,0
32647447,32647430,1114122,2.074577,3.668197,-6.029913,38.625,0,0,0,0
32949454,32949437,1114122,2.5052853,3.5030923,-6.360122,38.625,0,0,0,0
33047004,33046964,1114122,2.4047866,3.6035907,-6.3314085,38.75,0,0,0,0
33248045,33248029,1114122,2.3617158,3.481557,-6.3960147,38.625,0,0,0,0
33449694,33449677,1114122,2.3832512,3.5676985,-6.151947,38.625,0,0,0,0
33548349,33548333,1114122,2.6344976,3.732803,-6.460621,38.625,0,0,0,0
33848645,33848629,1114122,2.3401804,3.5892339,-6.295516,38.75,0,0,0,0
34148947,34148926,1114122,2.4765713,3.6466615,-6.3744793,38.625,0,0,0,0
34450072,34450053,1114122,2.3401804,3.7686956,-6.4534426,38.625,0,0,0,0
34947812,34947795,1114122,2.3832512,3.5030923,-6.0083776,38.625,0,0,0,0
35045308,35045291,1114122,2.3114667,3.5030923,-6.410372,38.625,0,0,0,0
35247948,35247929,1114122,2.182254,3.6179478,-6.2668023,38.875,0,0,0,0
35347008,35346962,1114122,2.4335005,3.452843,-6.202196,38.75,0,0,0,0
35445489,35445472,1114122,2.3401804,3.574877,-6.367301,38.75,0,0,0,0
35548066,35548049,1114122,2.4478574,3.5820553,-6.5324054,38.625,0,0,0,0
35945773,35945756,1114122,2.5339992,3.4743783,-6.151947,38.75,0,0,0,0
36042071,36042054,1114122,2.4837499,3.5030923,-6.295516,38.75,0,0,0,0
36246849,36246826,1114122,2.562713,3.424129,-6.252445,38.875,0,0,0,0
36346009,36345985,1114122,2.5411775,3.330809,-6.4965134,38.75,0,0,0,0
36448477,36448460,1114122,2.318645,3.6466615,-6.2811594,38.875,0,0,0,0
36547121,36547105,1114122,2.4478574,3.7974093,-6.2668023,38.875,0,0,0,0
36847435,36847418,1114122,2.5124638,3.5174491,-6.23091,38.75,0,0,0,0
36943649,36943633,1114122,2.376073,3.5820553,-6.04427,38.875,0,0,0,0
37048807,37048784,1114122,2.4119651,3.6035907,-6.5611196,38.75,0,0,0,0
37148890,37148866,1114122,2.4981067,3.5174491,-6.3744793,38.75,0,0,0,0
37245410,37245369,1114122,2.562713,3.5533416,-6.410372,38.75,0,0,0,0
37348860,37348843,1114122,2.4622145,3.6897323,-6.309873,38.75,0,0,0,0
37546459,37546442,1114122,2.5339992,3.8548372,-6.6185474,38.875,0,0,0,0
37747278,37747262,1114122,2.4478574,3.2590244,-6.259624,38.75,0,0,0,0
37846561,37846544,1114122,2.2540388,3.6179478,-6.539584,38.625,0,0,0,0
37946801,37946775,1114122,2.7206392,3.6323047,-6.360122,38.875,0,0,0,0
38145221,38145205,1114122,2.1607187,3.7686956,-6.0514483,38.75,0,0,0,0
38349453,38349430,1114122,2.1607187,3.6323047,-6.4390855,38.875,0,0,0,0
38445522,38445505,1114122,2.519642,3.7112677,-6.553941,38.875,0,0,0,0
38547368,38547351,1114122,2.6057837,3.6035907,-6.087341,38.75,0,0,0,0
38648168,38648152,1114122,2.4478574,3.682554,-6.446264,38.875,0,0,0,0
38745823,38745807,1114122,2.4622145,3.5174491,-6.460621,38.75,0,0,0,0
39247248,39247231,1114122,2.2181466,3.5533416,-6.367301,38.875,0,0,0,0
39347307,39347291,1114122,2.3976083,3.7974093,-6.5898333,38.875,0,0,0,0
39647539,39647516,1114122,2.5124638,3.37388,-6.1016974,38.875,0,0,0,0
39746471,39746454,1114122,2.7708886,3.668197,-6.3888364,39.0,0,0,0,0
39848323,39848306,1114122,2.103291,3.5533416,-6.13759,38.875,0,0,0,0
39947566,39947549,1114122,2.7996025,3.5964124,-6.3960147,38.75,0,0,0,0
40345405,40345382,1114122,2.6919253,3.4313076,-6.094519,38.75,0,0,0,0
40447913,40447889,1114122,2.7134607,3.6610186,-6.518049,38.875,0,0,0,0
40545414,40545398,1114122,2.5411775,3.5964124,-6.582655,38.875,0,0,0,0
40648434,40648416,1114122,2.2325034,3.546163,-6.259624,38.875,0,0,0,0
40747944,40747928,1114122,2.3976083,3.574877,-6.4821563,38.75,0,0,0,0
41443273,41443257,1114122,2.376073,3.7399817,-6.431907,39.0,0,0,0,0
41743574,41743557,1114122,2.5052853,3.6179478,-6.259624,38.875,0,0,0,0
41848456,41848440,1114122,2.2827528,3.6969109,-6.2811594,38.875,0,0,0,0
42049142,42049119,1114122,2.3401804,3.3667014,-6.2237315,38.875,0,0,0,0
42648840,42648820,1114122,2.440679,3.7830524,-6.4247284,39.0,0,0,0,0
42746405,42746386,1114122,2.5914268,3.775874,-6.4247284,38.875,0,0,0,0
42842920,42842904,1114122,2.7421746,3.6610186,-6.467799,39.0,0,0,0,0
42948980,42948964,1114122,2.778067,3.574877,-6.4821563,39.0,0,0,0,0
43046620,43046604,1114122,2.347359,3.775874,-6.3457656,39.0,0,0,0,0
43144277,43144261,1114122,2.2181466,3.6610186,-6.41755,39.0,0,0,0,0
43646836,43646806,1114122,2.7062824,3.65384,-6.446264,38.875,0,0,0,0
43847771,43847754,1114122,2.684747,3.7040894,-6.4390855,39.0,0,0,0,0
43944553,43944536,1114122,2.656033,3.330809,-6.3744793,39.0,0,0,0,0
44347588,44347565,1114122,2.3976083,3.4887352,-6.3816576,38.875,0,0,0,0
44747393,44747369,1114122,2.6416762,3.6035907,-6.1806607,39.0,0,0,0,0
44847501,44847478,1114122,2.5842483,3.4313076,-6.123233,39.125,0,0,0,0
45047464,45047444,1114122,2.3114667,3.682554,-6.2739806,39.125,0,0,0,0
45345103,45345080,1114122,2.4119651,3.6251261,-6.4893346,39.125,0,0,0,0
45447642,45447626,1114122,2.6201408,3.668197,-6.338587,39.125,0,0,0,0
45546690,45546666,1114122,2.2612174,3.7256248,-6.3457656,39.125,0,0,0,0
45643315,45643299,1114122,2.426322,3.8907294,-6.647261,39.125,0,0,0,0
45747912,45747889,1114122,2.268396,3.7543385,-6.259624,39.25,0,0,0,0
45845306,45845289,1114122,2.4478574,3.5102706,-6.2883377,39.0,0,0,0,0
46047970,46047954,1114122,2.2899313,3.7040894,-6.2883377,39.125,0,0,0,0
46245987,46245964,1114122,2.4765713,3.5389845,-6.302695,39.125,0,0,0,0
46348088,46348069,1114122,2.318645,3.4959137,-6.4390855,39.0,0,0,0,0
46546278,46546261,1114122,2.4119651,3.5676985,-6.23091,39.25,0,0,0,0
46647096,46647073,1114122,2.4981067,3.7256248,-6.3960147,39.125,0,0,0,0
46743232,46743208,1114122,2.2827528,3.531806,-6.216553,39.125,0,0,0,0
46848444,46848421,1114122,2.4335005,3.6969109,-6.123233,39.25,0,0,0,0
46948452,46948428,1114122,2.6201408,3.5964124,-6.5898333,39.125,0,0,0,0
47043402,47043385,1114122,2.4622145,3.5389845,-6.4821563,39.125,0,0,0,0
47148456,47148439,1114122,2.5698915,3.5533416,-6.2739806,39.125,0,0,0,0
47448694,47448671,1114122,2.5052853,3.330809,-6.367301,39.0,0,0,0,0
47546924,47546907,1114122,2.6919253,3.4671998,-6.4893346,39.25,0,0,0,0
48646645,48646629,1114122,2.519642,3.6107693,-6.302695,39.25,0,0,0,0
48744324,48744291,1114122,2.3976083,3.5174491,-6.5036917,39.125,0,0,0,0
48849259,48849242,1114122,2.426322,3.4097722,-6.259624,39.25,0,0,0,0
49343471,49343454,1114122,2.376073,3.4671998,-6.518049,39.125,0,0,0,0
49747721,49747704,1114122,2.318645,3.7543385,-6.2883377,39.25,0,0,0,0
49948341,49948318,1114122,2.318645,3.5533416,-6.144768,39.125,0,0,0,0
50047317,50047300,1114122,2.5986054,3.6323047,-6.202196,39.125,0,0,0,0
50147354,50147338,1114122,2.3545375,3.546163,-6.5467625,39.125,0,0,0,0
50248604,50248577,1114122,2.4909282,3.5389845,-6.2811594,39.125,0,0,0,0
50348368,50348348,1114122,2.2325034,3.6323047,-6.187839,39.25,0,0,0,0
51047799,51047783,1114122,2.426322,3.56052,-6.309873,39.25,0,0,0,0
51146373,51146354,1114122,2.4693928,3.6323047,-6.3457656,39.25,0,0,0,0
51242922,51242904,1114122,2.333002,3.7471602,-6.302695,39.125,0,0,0,0
51347955,51347935,1114122,2.426322,3.682554,-6.123233,39.25,0,0,0,0
51543051,51543032,1114122,2.5052853,3.4671998,-6.5898333,39.125,0,0,0,0
51745659,51745633,1114122,2.4765713,3.574877,-6.2739806,39.375,0,0,0,0
51848180,51848164,1114122,2.6919253,3.7112677,-6.5467625,39.25,0,0,0,0
51948227,51948209,1114122,2.7565317,3.6610186,-6.7334027,39.25,0,0,0,0
52045821,52045793,1114122,2.4119651,3.8261232,-6.6041903,39.375,0,0,0,0
52148381,52148365,1114122,2.117648,3.5030923,-6.0729837,39.25,0,0,0,0
52248479,52248456,1114122,2.5555346,3.4600215,-6.460621,39.375,0,0,0,0
52648511,52648495,1114122,2.426322,3.6466615,-6.4821563,39.25,0,0,0,0
52748669,52748653,1114122,2.57707,3.7112677,-6.51087,39.25,0,0,0,0
52846212,52846185,1114122,2.2468605,3.4097722,-6.2739806,39.25,0,0,0,0
53143913,53143886,1114122,2.3617158,3.6107693,-6.123233,39.375,0,0,0,0
53248944,53248921,1114122,2.7278178,3.4671998,-6.704689,39.375,0,0,0,0
53849144,53849128,1114122,2.4765713,3.56052,-6.360122,39.25,0,0,0,0
53946769,53946746,1114122,2.426322,3.3810582,-6.3744793,39.375,0,0,0,0
54049189,54049173,1114122,2.656033,3.481557,-6.410372,39.375,0,0,0,0
54149377,54149351,1114122,2.3688943,3.6969109,-6.360122,39.25,0,0,0,0
54246792,54246775,1114122,2.3976083,3.7686956,-6.431907,39.25,0,0,0,0
54349895,54349876,1114122,2.7134607,3.574877,-6.661618,39.25,0,0,0,0
54449511,54449495,1114122,2.1966112,3.5820553,-6.525227,39.25,0,0,0,0
54747867,54747851,1114122,2.1750758,3.6035907,-6.41755,39.375,0,0,0,0
54949669,54949651,1114122,2.6416762,3.4959137,-6.460621,39.25,0,0,0,0
55550029,55550013,1114122,2.1535404,3.5676985,-6.2739806,39.375,0,0,0,0
55647459,55647442,1114122,2.1607187,3.7040894,-6.2668023,39.5,0,0,0,0
55945212,55945189,1114122,2.3976083,3.6251261,-6.568298,39.5,0,0,0,0
56145283,56145260,1114122,2.440679,3.546163,-6.6041903,39.375,0,0,0,0
56747026,56747010,1114122,2.6057837,3.6323047,-6.474978,39.25,0,0,0,0
57045615,57045598,1114122,2.4191437,3.6466615,-6.3816576,39.375,0,0,0,0
57943607,57943590,1114122,2.182254,3.818945,-6.360122,39.25,0,0,0,0
58048664,58048648,1114122,2.5052853,3.6035907,-6.4534426,39.375,0,0,0,0
58147724,58147701,1114122,2.562713,3.682554,-6.1304116,39.5,0,0,0,0
58246214,58246197,1114122,2.5555346,3.5389845,-6.3457656,39.5,0,0,0,0
58348802,58348785,1114122,2.4335005,3.5964124,-6.087341,39.5,0,0,0,0
58947827,58947811,1114122,2.4837499,3.8045878,-6.3888364,39.375,0,0,0,0
59149156,59149140,1114122,2.318645,3.4671998,-6.367301,39.5,0,0,0,0
59346880,59346852,1114122,2.4909282,3.7686956,-6.5754766,39.625,0,0,0,0
59444333,59444316,1114122,2.3545375,3.6035907,-6.302695,39.625,0,0,0,0
59648174,59648158,1114122,2.548356,3.56052,-6.151947,39.375,0,0,0,0
59744773,59744756,1114122,2.426322,3.574877,-6.23091,39.5,0,0,0,0
60147971,60147954,1114122,2.4478574,3.5246277,-6.1591253,39.5,0,0,0,0
60247280,60247257,1114122,2.6775684,3.4456644,-6.3888364,39.625,0,0,0,0
60344753,60344737,1114122,2.3904297,3.7040894,-6.338587,39.625,0,0,0,0
60448280,60448260,1114122,2.440679,3.4743783,-6.4893346,39.625,0,0,0,0
60547454,60547430,1114122,2.3976083,3.6466615,-6.360122,39.5,0,0,0,0
60644888,60644871,1114122,2.347359,3.5820553,-6.23091,39.5,0,0,0,0
60945070,60945053,1114122,2.426322,3.6035907,-6.2883377,39.625,0,0,0,0
61648008,61647984,1114122,2.3042881,3.5030923,-6.367301,39.5,0,0,0,0
61748017,61747993,1114122,2.426322,3.7040894,-6.295516,39.5,0,0,0,0
61846878,61846854,1114122,2.6057837,3.668197,-6.5898333,39.625,0,0,0,0
62248260,62248237,1114122,2.3904297,3.6969109,-6.467799,39.5,0,0,0,0
62448354,62448330,1114122,2.1750758,3.7974093,-6.640083,39.625,0,0,0,0
62547221,62547204,1114122,2.4478574,3.6035907,-6.187839,39.625,0,0,0,0
62748420,62748403,1114122,2.3258235,3.5892339,-6.1591253,39.625,0,0,0,0
62848571,62848554,1114122,2.4119651,3.8404803,-6.474978,39.75,0,0,0,0
62945989,62945973,1114122,2.426322,3.3667014,-6.360122,39.5,0,0,0,0
63148675,63148653,1114122,2.548356,3.4887352,-6.51087,39.625,0,0,0,0
63446295,63446269,1114122,2.4191437,3.7686956,-6.5754766,39.625,0,0,0,0
63543863,63543846,1114122,2.3401804,3.5964124,-6.029913,39.75,0,0,0,0
63847125,63847105,1114122,2.519642,3.6897323,-6.3457656,39.75,0,0,0,0
64046630,64046613,1114122,2.3904297,3.4097722,-6.446264,39.5,0,0,0,0
64449262,64449245,1114122,2.2827528,3.6035907,-6.338587,39.625,0,0,0,0
65147128,65147108,1114122,2.6919253,3.7112677,-6.5036917,39.75,0,0,0,0
65243620,65243603,1114122,2.4765713,3.6753755,-6.467799,39.625,0,0,0,0
65349727,65349707,1114122,2.3114667,3.6466615,-6.23091,39.75,0,0,0,0
65849972,65849953,1114122,2.3545375,3.452843,-6.195018,39.625,0,0,0,0
65948175,65948158,1114122,2.4478574,3.5892339,-6.3170514,39.75,0,0,0,0
66047544,66047527,1114122,2.4119651,3.775874,-6.5467625,39.625,0,0,0,0
66547922,66547899,1114122,2.3832512,3.2733812,-6.2380886,39.75,0,0,0,0
66645373,66645354,1114122,2.4909282,3.6251261,-6.32423,39.75,0,0,0,0
66747899,66747882,1114122,2.5052853,3.4456644,-6.2237315,39.75,0,0,0,0
66848115,66848090,1114122,2.4622145,3.3236306,-6.1591253,39.625,0,0,0,0
67243201,67243185,1114122,2.2540388,3.5030923,-6.3457656,39.75,0,0,0,0
67746830,67746806,1114122,2.3401804,3.5533416,-6.6257257,39.75,0,0,0,0
67845926,67845909,1114122,2.4335005,3.5102706,-6.431907,39.75,0,0,0,0
67948496,67948479,1114122,2.4622145,3.4959137,-6.029913,39.875,0,0,0,0
68046080,68046064,1114122,2.318645,3.5964124,-6.259624,39.75,0,0,0,0
68143687,68143655,1114122,2.57707,3.546163,-6.41755,39.75,0,0,0,0
68248807,68248783,1114122,2.5555346,3.574877,-6.259624,39.875,0,0,0,0
68441922,68441903,1114122,2.656033,3.6610186,-6.3170514,39.875,0,0,0,0
68548766,68548750,1114122,2.3042881,3.6969109,-6.0083776,39.875,0,0,0,0
68846439,68846422,1114122,2.548356,3.330809,-6.04427,39.625,0,0,0,0
68946576,68946553,1114122,2.5698915,3.6969109,-6.446264,39.75,0,0,0,0
69046722,69046705,1114122,2.1894326,3.6179478,-6.2739806,39.75,0,0,0,0
69146575,69146558,1114122,2.5052853,3.4671998,-6.403193,39.75,0,0,0,0
69347024,69347007,1114122,2.5411775,3.8261232,-6.474978,39.875,0,0,0,0
69447839,69447823,1114122,2.117648,3.4600215,-6.13759,39.875,0,0,0,0
69545472,69545454,1114122,2.3042881,3.6897323,-6.1734824,39.875,0,0,0,0
69647384,69647368,1114122,2.4909282,3.775874,-6.23091,39.875,0,0,0,0
70047037,70047021,1114122,2.1966112,3.481557,-6.2093744,39.875,0,0,0,0
70447183,70447166,1114122,2.2612174,3.452843,-6.1016974,39.75,0,0,0,0
70549769,70549753,1114122,2.4693928,3.7040894,-6.3170514,39.875,0,0,0,0
70647323,70647307,1114122,2.2468605,3.6610186,-6.3170514,39.75,0,0,0,0
70848544,70848521,1114122,2.5339992,3.316452,-6.2811594,39.875,0,0,0,0
70946173,70946153,1114122,2.6632116,3.682554,-6.6185474,39.75,0,0,0,0
71245108,71245091,1114122,2.1607187,3.7974093,-6.3170514,39.75,0,0,0,0
71348348,71348325,1114122,2.376073,3.4887352,-6.3744793,39.875,0,0,0,0
71746272,71746253,1114122,2.2540388,3.4959137,-6.144768,39.875,0,0,0,0
71845456,71845439,1114122,2.734996,3.5030923,-6.2093744,40.0,0,0,0,0
71948070,71948038,1114122,2.3976083,3.7974093,-6.51087,40.0,0,0,0,0
72345756,72345733,1114122,2.5914268,3.330809,-6.539584,39.875,0,0,0,0
72448722,72448705,1114122,2.3904297,3.4959137,-6.632904,39.875,0,0,0,0
72548301,72548284,1114122,2.2755742,3.7399817,-6.23091,39.875,0,0,0,0
72846067,72846039,1114122,2.4909282,3.4743783,-6.2883377,39.875,0,0,0,0
72944355,72944329,1114122,2.519642,3.5389845,-6.4821563,39.875,0,0,0,0
73048519,73048503,1114122,2.4765713,3.574877,-6.51087,39.875,0,0,0,0
73146973,73146956,1114122,2.2540388,3.7543385,-6.3170514,40.0,0,0,0,0
73248581,73248557,1114122,2.426322,3.4887352,-6.740581,40.0,0,0,0,0
73446286,73446264,1114122,2.5052853,3.5964124,-6.51087,40.0,0,0,0,0
73548807,73548783,1114122,2.3401804,3.330809,-6.1663036,39.875,0,0,0,0
73648880,73648863,1114122,2.6057837,3.5964124,-6.259624,39.875,0,0,0,0
73848882,73848866,1114122,2.3114667,3.4313076,-6.5036917,40.125,0,0,0,0
73946503,73946480,1114122,2.57707,3.7686956,-6.410372,40.0,0,0,0,0
74046861,74046838,1114122,2.4693928,3.6466615,-6.597012,40.0,0,0,0,0
74149063,74149040,1114122,2.2827528,3.9553356,-6.431907,40.0,0,0,0,0
74246648,74246631,1114122,2.2827528,3.8835511,-6.3457656,39.875,0,0,0,0
74348171,74348155,1114122,2.333002,3.7112677,-6.5036917,39.875,0,0,0,0
74748222,74748205,1114122,2.1248264,3.7112677,-6.1591253,40.0,0,0,0,0
75049563,75049547,1114122,2.5124638,3.4456644,-6.187839,39.875,0,0,0,0
75144533,75144516,1114122,2.3401804,3.3667014,-6.295516,40.0,0,0,0,0
75648070,75648053,1114122,2.4909282,3.4959137,-6.460621,40.125,0,0,0,0
75744887,75744868,1114122,2.347359,3.4313076,-6.187839,40.0,0,0,0,0
76150061,76150045,1114122,2.376073,3.6610186,-6.41755,40.125,0,0,0,0
76347843,76347811,1114122,2.5698915,3.6323047,-6.108876,40.0,0,0,0,0
76450279,76450259,1114122,2.3976083,3.6466615,-6.338587,40.0,0,0,0,0
76645593,76645567,1114122,2.426322,3.6610186,-6.2739806,40.0,0,0,0,0
76747955,76747939,1114122,2.426322,3.531806,-6.460621,40.125,0,0,0,0
76844021,76844004,1114122,2.67039,3.5102706,-6.403193,39.875,0,0,0,0
76948032,76948016,1114122,2.3545375,3.452843,-6.6257257,39.875,0,0,0,0
77046687,77046664,1114122,2.3688943,3.56052,-6.431907,40.125,0,0,0,0
77144365,77144341,1114122,2.5052853,3.531806,-6.5467625,39.875,0,0,0,0
77248207,77248191,1114122,2.6344976,3.531806,-6.3744793,40.0,0,0,0,0
77448820,77448803,1114122,2.562713,3.3810582,-6.144768,40.0,0,0,0,0
77546491,77546468,1114122,2.333002,3.668197,-6.2093744,40.0,0,0,0,0
77945946,77945929,1114122,2.2325034,3.790231,-6.123233,40.0,0,0,0,0
78246841,78246817,1114122,2.318645,3.6897323,-5.958128,40.0,0,0,0,0
78348834,78348810,1114122,2.4119651,3.7112677,-6.5036917,40.0,0,0,0,0
78446305,78446281,1114122,2.548356,3.6035907,-6.3744793,40.125,0,0,0,0
78548787,78548767,1114122,2.376073,3.5102706,-6.23091,40.0,0,0,0,0
78848909,78848893,1114122,2.67039,3.4097722,-6.4893346,40.125,0,0,0,0
78945082,78945065,1114122,2.3545375,3.6323047,-6.3170514,40.125,0,0,0,0
79046473,79046456,1114122,2.1607187,3.4097722,-5.9294143,40.125,0,0,0,0
79347256,79347229,1114122,2.4837499,3.452843,-6.108876,40.125,0,0,0,0
79449281,79449259,1114122,2.4909282,3.56052,-6.2883377,40.0,0,0,0,0
79544291,79544258,1114122,2.3617158,3.5389845,-6.3170514,40.125,0,0,0,0
79748367,79748351,1114122,2.6775684,3.574877,-6.352944,40.125,0,0,0,0
79845976,79845959,1114122,2.6775684,3.7256248,-6.597012,40.0,0,0,0,0
80345774,80345757,1114122,2.2612174,3.869194,-6.3960147,40.125,0,0,0,0
80747930,80747914,1114122,2.5698915,3.6969109,-6.3170514,40.125,0,0,0,0
80848747,80848724,1114122,2.1750758,3.5964124,-6.32423,40.0,0,0,0,0
80945074,80945050,1114122,2.2755742,3.7040894,-6.3170514,40.25,0,0,0,0
81048235,81048216,1114122,2.4909282,3.6610186,-6.41755,40.125,0,0,0,0
81147614,81147588,1114122,2.4765713,3.6897323,-6.403193,40.125,0,0,0,0
81348548,81348514,1114122,2.4622145,3.5820553,-6.309873,40.125,0,0,0,0
81445254,81445235,1114122,2.6129622,3.4025936,-6.352944,40.125,0,0,0,0
81547844,81547821,1114122,2.3617158,3.6969109,-6.2093744,40.125,0,0,0,0
81647955,81647928,1114122,2.4765713,3.6610186,-6.2883377,40.375,0,0,0,0
81847909,81847893,1114122,2.4478574,3.6035907,-6.2093744,40.125,0,0,0,0
82148109,82148083,1114122,2.548356,3.546163,-6.202196,40.25,0,0,0,0
82346033,82346017,1114122,2.1750758,3.531806,-5.972485,40.25,0,0,0,0
82448201,82448184,1114122,2.3976083,3.438486,-6.2811594,40.125,0,0,0,0
82545888,82545864,1114122,2.3042881,3.5389845,-6.094519,40.125,0,0,0,0
82647408,82647392,1114122,2.182254,3.7112677,-6.1734824,40.125,0,0,0,0
82841619,82841603,1114122,2.132005,3.4887352,-6.4965134,40.125,0,0,0,0
82948538,82948521,1114122,2.5914268,3.3810582,-6.2739806,40.125,0,0,0,0
83145086,83145069,1114122,2.3904297,3.56052,-6.015556,40.25,0,0,0,0
83546379,83546363,1114122,2.4622145,3.790231,-6.3170514,40.0,0,0,0,0
83646398,83646381,1114122,2.7206392,3.3810582,-6.4534426,40.375,0,0,0,0
83749014,83748991,1114122,2.6488545,3.6107693,-6.195018,40.125,0,0,0,0
83944122,83944105,1114122,2.3545375,3.6179478,-6.360122,40.25,0,0,0,0
84744420,84744396,1114122,2.57707,3.5964124,-6.6185474,40.375,0,0,0,0
84849476,84849457,1114122,2.440679,3.5964124,-6.41755,40.375,0,0,0,0
84945843,84945820,1114122,2.5268207,3.424129,-5.986842,40.25,0,0,0,0
85045574,85045555,1114122,2.455036,3.5030923,-6.1160545,40.25,0,0,0,0
85148502,85148483,1114122,2.376073,3.4600215,-6.41755,40.25,0,0,0,0
85246139,85246113,1114122,2.4765713,3.682554,-6.6113687,40.25,0,0,0,0
85349659,85349643,1114122,2.376073,3.6610186,-6.259624,40.25,0,0,0,0
85448801,85448785,1114122,2.5052853,3.668197,-6.460621,40.25,0,0,0,0
85544761,85544745,1114122,2.5986054,3.6179478,-6.144768,40.375,0,0,0,0
85649869,85649852,1114122,2.333002,3.424129,-6.216553,40.25,0,0,0,0
85747446,85747429,1114122,2.3114667,3.7399817,-6.309873,40.375,0,0,0,0
86046293,86046267,1114122,2.4119651,3.481557,-6.51087,40.25,0,0,0,0
86148072,86148055,1114122,2.4622145,3.7184463,-6.640083,40.25,0,0,0,0
86248894,86248877,1114122,2.57707,3.5389845,-6.087341,40.375,0,0,0,0
86545317,86545301,1114122,2.519642,3.5964124,-6.410372,40.25,0,0,0,0
86642861,86642845,1114122,2.562713,3.4600215,-6.2380886,40.375,0,0,0,0
86747942,86747923,1114122,2.3976083,3.438486,-6.1591253,40.25,0,0,0,0
86846334,86846317,1114122,2.455036,3.4887352,-6.460621,40.375,0,0,0,0
86945494,86945478,1114122,2.318645,3.4169507,-6.1160545,40.25,0,0,0,0
87048183,87048160,1114122,2.333002,3.5964124,-6.4821563,40.25,0,0,0,0
87248247,87248220,1114122,2.5842483,3.7112677,-6.080162,40.25,0,0,0,0
87348303,87348286,1114122,2.3904297,3.4959137,-6.338587,40.25,0,0,0,0
87444827,87444810,1114122,2.347359,3.3595228,-6.245267,40.375,0,0,0,0
87548396,87548372,1114122,2.519642,3.6323047,-6.302695,40.375,0,0,0,0
87645914,87645891,1114122,2.3617158,3.65384,-6.3314085,40.375,0,0,0,0
88048631,88048615,1114122,2.3688943,3.4600215,-6.2811594,40.375,0,0,0,0
88147313,88147280,1114122,2.4622145,3.682554,-6.360122,40.5,0,0,0,0
88243870,88243853,1114122,2.3545375,3.6610186,-6.202196,40.375,0,0,0,0
88548948,88548915,1114122,2.5842483,3.574877,-6.3888364,40.375,0,0,0,0
88746447,88746431,1114122,2.4622145,3.668197,-6.2739806,40.375,0,0,0,0
88849056,88849040,1114122,2.519642,3.3595228,-6.553941,40.375,0,0,0,0
89044086,89044069,1114122,2.6344976,3.6610186,-6.144768,40.375,0,0,0,0
89448247,89448218,1114122,2.3114667,3.7040894,-6.3314085,40.375,0,0,0,0
89546957,89546934,1114122,2.5052853,3.8117664,-6.338587,40.375,0,0,0,0
89644570,89644553,1114122,2.376073,3.546163,-6.108876,40.375,0,0,0,0
89747474,89747454,1114122,2.5052853,3.56052,-6.661618,40.375,0,0,0,0
89846963,89846947,1114122,2.3976083,3.5389845,-6.41755,40.375,0,0,0,0
89948040,89948016,1114122,2.5555346,3.7112677,-6.2739806,40.375,0,0,0,0
90147281,90147247,1114122,2.2253249,3.4887352,-6.2668023,40.625,0,0,0,0
90248399,90248370,1114122,2.3401804,3.65384,-6.259624,40.375,0,0,0,0
90447369,90447352,1114122,2.2899313,3.5964124,-6.23091,40.375,0,0,0,0
90548648,90548622,1114122,2.2899313,3.8261232,-6.474978,40.5,0,0,0,0
91342740,91342723,1114122,2.2899313,3.5174491,-6.446264,40.5,0,0,0,0
91845640,91845617,1114122,2.4909282,3.6969109,-6.403193,40.5,0,0,0,0
92048147,92048125,1114122,2.2181466,3.6969109,-6.3888364,40.5,0,0,0,0
92145693,92145676,1114122,2.318645,3.5102706,-6.3888364,40.5,0,0,0,0
92246489,92246466,1114122,2.4478574,3.8117664,-6.1734824,40.375,0,0,0,0
92548360,92548343,1114122,2.57707,3.6466615,-6.460621,40.5,0,0,0,0
92848512,92848496,1114122,2.76371,3.4456644,-6.4893346,40.5,0,0,0,0
93246278,93246253,1114122,2.5268207,3.424129,-6.4893346,40.375,0,0,0,0
93346869,93346853,1114122,2.6632116,3.6323047,-6.5036917,40.625,0,0,0,0
93447673,93447657,1114122,2.3545375,3.5820553,-6.3314085,40.5,0,0,0,0
93545367,93545351,1114122,2.4191437,3.7256248,-6.1734824,40.5,0,0,0,0
93747972,93747955,1114122,2.5124638,3.5174491,-6.2883377,40.5,0,0,0,0
93844582,93844562,1114122,2.4837499,3.531806,-6.13759,40.375,0,0,0,0
93949083,93949066,1114122,2.3545375,3.7830524,-6.1591253,40.5,0,0,0,0
94046695,94046676,1114122,2.3688943,3.5820553,-6.3170514,40.5,0,0,0,0
94146980,94146963,1114122,2.132005,3.668197,-6.3888364,40.5,0,0,0,0
94247771,94247755,1114122,2.1463618,3.5102706,-6.3888364,40.5,0,0,0,0
94449507,94449490,1114122,2.5268207,3.5030923,-6.23091,40.5,0,0,0,0
94547069,94547052,1114122,2.2612174,3.452843,-5.9653068,40.5,0,0,0,0
95047247,95047230,1114122,2.6129622,3.5246277,-6.309873,40.625,0,0,0,0
95144771,95144754,1114122,2.4622145,3.65384,-6.195018,40.5,0,0,0,0
95249801,95249785,1114122,2.3042881,3.4097722,-6.123233,40.5,0,0,0,0
95347371,95347352,1114122,2.2253249,3.6610186,-6.2093744,40.5,0,0,0,0
95447922,95447903,1114122,2.548356,3.8907294,-6.661618,40.5,0,0,0,0
95750015,95749998,1114122,2.318645,3.5246277,-6.2883377,40.5,0,0,0,0
95849033,95849017,1114122,2.5411775,3.4313076,-6.5467625,40.625,0,0,0,0
95945241,95945212,1114122,2.4765713,3.546163,-6.41755,40.5,0,0,0,0
96047710,96047693,1114122,2.5411775,3.37388,-6.2739806,40.625,0,0,0,0
96144071,96144054,1114122,2.4981067,3.481557,-6.216553,40.625,0,0,0,0
96247762,96247745,1114122,2.3904297,3.452843,-6.1160545,40.75,0,0,0,0
96948136,96948120,1114122,2.3258235,3.546163,-6.360122,40.625,0,0,0,0
97148273,97148256,1114122,2.376073,3.3236306,-6.2739806,40.625,0,0,0,0
97245905,97245881,1114122,2.4693928,3.5102706,-6.467799,40.75,0,0,0,0
97344256,97344239,1114122,2.3688943,3.6107693,-6.187839,40.625,0,0,0,0
97546868,97546852,1114122,2.3617158,3.5174491,-6.1806607,40.5,0,0,0,0
97748689,97748662,1114122,2.562713,3.6035907,-6.6113687,40.5,0,0,0,0
97845080,97845054,1114122,2.2899313,3.452843,-6.259624,40.5,0,0,0,0
97948653,97948637,1114122,2.4837499,3.4887352,-6.2883377,40.75,0,0,0,0
98143825,98143808,1114122,2.4191437,3.6323047,-6.467799,40.5,0,0,0,0
98248849,98248832,1114122,2.5914268,3.5030923,-6.525227,40.75,0,0,0,0
98645182,98645166,1114122,2.5339992,3.5892339,-6.029913,40.75,0,0,0,0
98747089,98747066,1114122,2.376073,3.4600215,-6.1734824,40.625,0,0,0,0
98849167,98849151,1114122,2.3258235,3.56052,-6.4821563,40.5,0,0,0,0
100247475,100247459,1114122,2.4622145,3.3954153,-6.0514483,40.5,0,0,0,0
100648589,100648573,1114122,2.2468605,3.6251261,-6.2739806,40.75,0,0,0,0
100745172,100745153,1114122,2.4981067,3.3236306,-6.216553,40.625,0,0,0,0
100847781,100847753,1114122,2.440679,3.4169507,-6.3888364,40.625,0,0,0,0
101045340,101045324,1114122,2.6991038,3.6035907,-6.6257257,40.75,0,0,0,0
101148389,101148361,1114122,2.376073,3.4313076,-6.41755,40.625,0,0,0,0
101342986,101342957,1114122,2.3042881,3.6107693,-6.0370913,40.625,0,0,0,0
101448676,101448659,1114122,2.2755742,3.316452,-6.3170514,40.875,0,0,0,0
101548133,101548112,1114122,2.333002,3.4959137,-6.245267,40.75,0,0,0,0
101945765,101945749,1114122,2.1966112,3.5389845,-6.2739806,40.625,0,0,0,0
102048353,102048334,1114122,2.3545375,3.7399817,-6.5467625,40.75,0,0,0,0
102146923,102146907,1114122,2.5268207,3.6035907,-6.41755,40.625,0,0,0,0
102348518,102348498,1114122,2.4981067,3.6753755,-6.460621,40.75,0,0,0,0
102746306,102746283,1114122,2.440679,3.5676985,-6.4821563,40.75,0,0,0,0
103047858,103047835,1114122,2.2971096,3.4671998,-6.1160545,40.75,0,0,0,0
103148897,103148880,1114122,2.4335005,3.574877,-6.338587,40.75,0,0,0,0
103945586,103945562,1114122,2.4335005,3.6753755,-6.302695,40.875,0,0,0,0
104047424,104047408,1114122,2.376073,3.574877,-6.2811594,40.875,0,0,0,0
104244458,104244441,1114122,2.4909282,3.5892339,-6.41755,40.875,0,0,0,0
104347722,104347706,1114122,2.562713,3.4456644,-6.1591253,40.75,0,0,0,0
104544620,104544603,1114122,2.376073,3.481557,-6.2237315,40.625,0,0,0,0
104648021,104648004,1114122,2.2899313,3.574877,-6.360122,40.875,0,0,0,0
105346275,105346259,1114122,2.5986054,3.6035907,-6.309873,40.75,0,0,0,0
105448120,105448103,1114122,2.0386848,3.4313076,-6.32423,40.875,0,0,0,0
105548921,105548904,1114122,2.4335005,3.3954153,-6.015556,40.875,0,0,0,0
105642692,105642676,1114122,2.318645,3.574877,-6.2093744,40.75,0,0,0,0
106047943,106047926,1114122,2.57707,3.6323047,-6.245267,41.0,0,0,0,0
106248010,106247993,1114122,2.4335005,3.4025936,-6.4390855,40.875,0,0,0,0
106346918,106346901,1114122,2.3545375,3.5820553,-6.474978,40.875,0,0,0,0
106444589,106444572,1114122,2.3401804,3.574877,-6.144768,40.875,0,0,0,0
106647218,106647201,1114122,2.4765713,3.5174491,-6.2739806,40.875,0,0,0,0
106848326,106848309,1114122,2.376073,3.6466615,-6.553941,41.0,0,0,0,0
107048466,107048450,1114122,2.4981067,3.56052,-6.431907,40.875,0,0,0,0
107147029,107147010,1114122,2.3617158,3.5964124,-6.259624,40.875,0,0,0,0
107244670,107244653,1114122,2.2325034,3.668197,-6.460621,40.75,0,0,0,0
107448779,107448751,1114122,2.6344976,3.4887352,-6.216553,40.875,0,0,0,0
107544973,107544955,1114122,2.6129622,3.5030923,-6.704689,41.0,0,0,0,0
107947131,107947112,1114122,2.6488545,3.6179478,-6.661618,40.875,0,0,0,0
108047929,108047912,1114122,2.347359,3.6394832,-6.3744793,40.875,0,0,0,0
108446666,108446644,1114122,2.2827528,3.7686956,-6.23091,41.0,0,0,0,0
108549233,108549197,1114122,2.074577,3.6323047,-6.403193,41.0,0,0,0,0
108645373,108645356,1114122,2.1894326,3.4743783,-6.6831536,41.0,0,0,0,0
108745126,108745106,1114122,2.318645,3.424129,-6.0370913,41.0,0,0,0,0
108945673,108945657,1114122,2.4119651,3.4025936,-6.216553,41.0,0,0,0,0
109047063,109047040,1114122,2.3904297,3.6466615,-6.3960147,41.0,0,0,0,0
109949950,109949934,1114122,2.2827528,3.6035907,-6.2811594,40.875,0,0,0,0
110247662,110247646,1114122,2.2612174,3.438486,-6.360122,40.875,0,0,0,0
110748518,110748502,1114122,2.4622145,3.5389845,-6.001199,41.0,0,0,0,0
111048095,111048079,1114122,2.1607187,3.546163,-6.151947,41.125,0,0,0,0
111245667,111245651,1114122,2.3904297,3.574877,-6.5324054,40.875,0,0,0,0
111348296,111348279,1114122,2.4693928,3.452843,-6.087341,41.0,0,0,0,0
111446770,111446753,1114122,2.4478574,3.7471602,-6.1591253,41.0,0,0,0,0
111648413,111648397,1114122,2.3904297,3.4671998,-6.2811594,41.0,0,0,0,0
112246874,112246855,1114122,2.376073,3.8117664,-6.1016974,41.125,0,0,0,0
112343777,112343750,1114122,2.318645,3.682554,-6.0729837,40.875,0,0,0,0
112548892,112548876,1114122,2.318645,3.5030923,-6.23091,41.0,0,0,0,0
112646403,112646386,1114122,2.6057837,3.4169507,-6.5467625,41.0,0,0,0,0
112749081,112749057,1114122,2.4622145,3.438486,-6.1016974,41.0,0,0,0,0
113448074,113448058,1114122,2.4909282,3.56052,-6.2380886,41.125,0,0,0,0
113547837,113547820,1114122,2.5555346,3.5389845,-6.352944,41.25,0,0,0,0
113746985,113746969,1114122,2.4047866,3.481557,-6.3744793,41.0,0,0,0,0
114547466,114547450,1114122,2.440679,3.6897323,-6.3314085,41.125,0,0,0,0
114645093,114645076,1114122,2.4335005,3.4671998,-6.2668023,41.125,0,0,0,0
115247842,115247822,1114122,2.3042881,3.775874,-6.302695,41.0,0,0,0,0
115346525,115346501,1114122,2.2612174,3.4887352,-6.259624,41.375,0,0,0,0
115548073,115548056,1114122,1.9884355,3.2518458,-5.9437714,41.125,0,0,0,0
115646813,115646796,1114122,2.6057837,3.4887352,-6.2739806,41.125,0,0,0,0
115748100,115748084,1114122,2.0673988,3.732803,-6.403193,41.0,0,0,0,0
115848124,115848107,1114122,2.4765713,3.7399817,-6.5611196,41.125,0,0,0,0
115943212,115943196,1114122,2.57707,3.8548372,-6.3816576,41.125,0,0,0,0
116048286,116048260,1114122,2.6201408,3.4887352,-6.518049,41.0,0,0,0,0
116146607,116146590,1114122,2.4119651,3.6323047,-6.1734824,41.0,0,0,0,0
116243422,116243402,1114122,2.426322,3.6969109,-6.245267,41.125,0,0,0,0
116448496,116448480,1114122,2.57707,3.6179478,-6.123233,41.125,0,0,0,0
116648638,116648621,1114122,2.2827528,3.4743783,-6.1591253,41.125,0,0,0,0
116746188,116746159,1114122,2.103291,3.4025936,-6.0658054,41.125,0,0,0,0
117043804,117043787,1114122,2.3042881,3.6179478,-6.202196,41.25,0,0,0,0
117148877,117148861,1114122,2.4119651,3.5892339,-6.2883377,41.25,0,0,0,0
117545170,117545154,1114122,2.024328,3.4313076,-6.245267,41.125,0,0,0,0
117647029,117647010,1114122,2.3976083,3.7040894,-6.41755,41.125,0,0,0,0
117845528,117845502,1114122,2.57707,3.6610186,-6.403193,41.25,0,0,0,0
117946807,117946791,1114122,2.4837499,3.6323047,-6.0729837,41.125,0,0,0,0
118048121,118048102,1114122,2.5555346,3.574877,-6.4821563,41.25,0,0,0,0
118347002,118346986,1114122,2.3042881,3.5246277,-6.13759,41.125,0,0,0,0
118747430,118747414,1114122,2.5411775,3.2590244,-6.1663036,41.125,0,0,0,0
119047416,119047397,1114122,2.4478574,3.6466615,-6.2883377,41.25,0,0,0,0
119148518,119148502,1114122,2.6344976,3.6179478,-6.338587,41.25,0,0,0,0
119246171,119246154,1114122,2.4119651,3.4169507,-6.4893346,41.375,0,0,0,0
119448818,119448802,1114122,2.562713,3.6179478,-6.04427,41.25,0,0,0,0
119546496,119546473,1114122,2.5914268,3.5389845,-6.302695,41.25,0,0,0,0
119647716,119647699,1114122,2.5842483,3.56052,-6.647261,41.25,0,0,0,0
120045456,120045436,1114122,2.4191437,3.7112677,-6.3457656,41.375,0,0,0,0
120448171,120448154,1114122,2.103291,3.6753755,-6.2739806,41.25,0,0,0,0
120548234,120548212,1114122,2.5411775,3.3667014,-6.410372,41.25,0,0,0,0
120644797,120644765,1114122,2.2827528,3.5964124,-6.5467625,41.375,0,0,0,0
120748329,120748312,1114122,2.1750758,3.7040894,-6.403193,41.25,0,0,0,0
120847426,120847409,1114122,2.3904297,3.5246277,-6.108876,41.25,0,0,0,0
121246419,121246403,1114122,2.347359,3.6179478,-6.245267,41.375,0,0,0,0
121444873,121444854,1114122,2.1894326,3.56052,-6.4965134,41.5,0,0,0,0
121647526,121647509,1114122,2.4981067,3.7543385,-6.5467625,41.375,0,0,0,0
121743923,121743900,1114122,2.2899313,3.6466615,-6.2380886,41.25,0,0,0,0
121947838,121947822,1114122,2.2181466,3.4671998,-6.553941,41.375,0,0,0,0
122147370,122147351,1114122,2.2827528,3.531806,-6.7334027,41.375,0,0,0,0
122246615,122246598,1114122,2.3545375,3.2805598,-6.295516,41.375,0,0,0,0
122346847,122346831,1114122,2.2899313,3.6610186,-6.1304116,41.375,0,0,0,0
122447622,122447606,1114122,2.2755742,3.7471602,-6.001199,41.375,0,0,0,0
122546762,122546746,1114122,2.3042881,3.7040894,-6.690332,41.375,0,0,0,0
122646817,122646801,1114122,2.2540388,3.5030923,-6.108876,41.375,0,0,0,0
122749461,122749444,1114122,2.376073,3.5820553,-6.3314085,41.375,0,0,0,0
122845574,122845558,1114122,2.3401804,3.7040894,-6.460621,41.375,0,0,0,0
123049608,123049589,1114122,2.4909282,3.424129,-6.2093744,41.25,0,0,0,0
123145872,123145856,1114122,2.268396,3.5676985,-6.1016974,41.375,0,0,0,0
123247725,123247706,1114122,2.4909282,3.6107693,-6.080162,41.375,0,0,0,0
123348540,123348515,1114122,2.3904297,3.5964124,-6.1806607,41.375,0,0,0,0
123949126,123949109,1114122,2.3258235,3.65384,-6.32423,41.5,0,0,0,0
124045156,124045137,1114122,2.2827528,3.223132,-6.403193,41.375,0,0,0,0
124150205,124150189,1114122,2.3545375,3.6466615,-6.1591253,41.5,0,0,0,0
124246299,124246276,1114122,2.2253249,3.3810582,-6.216553,41.5,0,0,0,0
124342870,124342853,1114122,2.57707,3.574877,-6.410372,41.5,0,0,0,0
124545431,124545411,1114122,2.5411775,3.6179478,-6.632904,41.375,0,0,0,0
124648089,124648066,1114122,2.4837499,3.5174491,-6.187839,41.625,0,0,0,0
124948158,124948134,1114122,2.4622145,3.4456644,-6.352944,41.5,0,0,0,0
125145744,125145728,1114122,2.3976083,3.6251261,-6.525227,41.375,0,0,0,0
125248313,125248297,1114122,2.4478574,3.7040894,-6.23091,41.5,0,0,0,0
125446001,125445978,1114122,2.5339992,3.6466615,-6.3314085,41.625,0,0,0,0
125544070,125544053,1114122,2.2827528,3.5030923,-6.1663036,41.5,0,0,0,0
126248950,126248934,1114122,2.440679,3.2733812,-6.2380886,41.5,0,0,0,0
126347338,126347315,1114122,2.6201408,3.7543385,-6.302695,41.5,0,0,0,0
126444042,126444026,1114122,2.2325034,3.5892339,-6.252445,41.625,0,0,0,0
126949301,126949284,1114122,2.5339992,3.7686956,-6.41755,41.5,0,0,0,0
127347082,127347059,1114122,2.4981067,3.6610186,-6.2380886,41.625,0,0,0,0
127648303,127648265,1114122,2.5268207,3.574877,-6.410372,41.75,0,0,0,0
127745927,127745908,1114122,2.1678972,3.438486,-6.202196,41.625,0,0,0,0
128144995,128144978,1114122,2.4478574,3.7399817,-6.13759,41.625,0,0,0,0
128247851,128247828,1114122,2.210968,3.5030923,-5.9294143,41.625,0,0,0,0
129143468,129143452,1114122,2.1463618,4.54397,-7.4799633,41.75,0,0,0,0
129248068,129248042,1114122,2.4981067,3.6897323,-6.3170514,41.625,0,0,0,0
129345630,129345613,1114122,2.333002,3.452843,-6.195018,41.625,0,0,0,0
129548172,129548155,1114122,2.4981067,3.6969109,-6.474978,41.625,0,0,0,0
129848419,129848396,1114122,2.318645,3.531806,-6.1806607,41.75,0,0,0,0
130247027,130247010,1114122,2.0889342,3.7686956,-6.2380886,41.75,0,0,0,0
130547370,130547353,1114122,2.5914268,3.4671998,-6.302695,41.625,0,0,0,0
131049019,131048999,1114122,2.268396,3.4671998,-6.252445,41.625,0,0,0,0
131347420,131347403,1114122,2.3617158,3.2662027,-6.1304116,41.75,0,0,0,0
131449406,131449383,1114122,2.4622145,3.424129,-5.8863435,41.625,0,0,0,0
131546912,131546895,1114122,2.5124638,3.345166,-6.216553,41.75,0,0,0,0
131846966,131846949,1114122,2.5339992,3.6035907,-6.1016974,41.75,0,0,0,0
132246291,132246268,1114122,2.426322,3.438486,-6.108876,41.625,0,0,0,0
132544971,132544944,1114122,2.4335005,3.6323047,-6.216553,41.875,0,0,0,0
132649903,132649887,1114122,2.5052853,3.531806,-6.0658054,41.625,0,0,0,0
133046349,133046333,1114122,2.5339992,3.790231,-6.3314085,41.625,0,0,0,0
133143980,133143961,1114122,2.0027926,3.7256248,-6.144768,41.75,0,0,0,0
133247847,133247823,1114122,2.4478574,3.2303104,-6.360122,41.75,0,0,0,0
133547997,133547974,1114122,2.4765713,3.3667014,-6.3888364,41.875,0,0,0,0
133646938,133646922,1114122,2.67039,3.6466615,-5.8719864,41.75,0,0,0,0
133743038,133743022,1114122,2.3401804,3.7686956,-6.518049,41.875,0,0,0,0
134345877,134345861,1114122,2.6201408,3.5102706,-6.13759,41.875,0,0,0,0
134647571,134647554,1114122,2.4765713,3.3810582,-6.467799,41.75,0,0,0,0
135148870,135148851,1114122,2.4478574,3.546163,-6.4390855,41.875,0,0,0,0
135245031,135245014,1114122,2.5411775,3.424129,-6.259624,41.75,0,0,0,0
135449047,135449028,1114122,2.656033,3.316452,-6.467799,42.0,0,0,0,0
135545320,135545304,1114122,2.2971096,3.7830524,-6.1016974,41.75,0,0,0,0
135645070,135645054,1114122,2.3042881,3.4456644,-6.4965134,41.75,0,0,0,0
135749327,135749304,1114122,2.2755742,3.5102706,-6.123233,42.0,0,0,0,0
135846850,135846826,1114122,2.333002,3.2590244,-6.0083776,41.75,0,0,0,0
136244453,136244436,1114122,2.3688943,3.56052,-6.23091,41.75,0,0,0,0
136448373,136448356,1114122,2.3688943,3.6323047,-6.0514483,42.0,0,0,0,0
136647826,136647810,1114122,2.6129622,3.3954153,-6.3816576,41.75,0,0,0,0
136747333,136747316,1114122,2.333002,3.330809,-6.41755,41.875,0,0,0,0
137348172,137348156,1114122,2.2540388,3.6035907,-6.360122,41.875,0,0,0,0
137448968,137448952,1114122,2.0315063,3.6179478,-6.13759,42.0,0,0,0,0
137545229,137545206,1114122,2.5555346,3.7543385,-6.2883377,41.875,0,0,0,0
137745325,137745308,1114122,2.5052853,3.546163,-6.2811594,42.0,0,0,0,0
137948039,137948012,1114122,2.6775684,3.6610186,-6.4965134,42.0,0,0,0,0
138045498,138045481,1114122,2.562713,3.5030923,-6.087341,42.0,0,0,0,0
138145562,138145546,1114122,2.4765713,3.6466615,-6.460621,41.875,0,0,0,0
138346728,138346711,1114122,2.440679,3.682554,-6.252445,42.0,0,0,0,0
138448241,138448220,1114122,2.4119651,3.6897323,-6.5324054,42.0,0,0,0,0
138548381,138548353,1114122,2.4191437,3.6107693,-6.087341,41.875,0,0,0,0
138645873,138645849,1114122,2.1607187,3.4959137,-6.1591253,41.875,0,0,0,0
139044984,139044954,1114122,2.3617158,3.438486,-6.1160545,42.0,0,0,0,0
139148684,139148660,1114122,2.4622145,3.546163,-6.446264,42.125,0,0,0,0
139345273,139345257,1114122,2.4765713,3.481557,-6.144768,41.75,0,0,0,0
139448837,139448813,1114122,2.2612174,3.5246277,-6.360122,41.875,0,0,0,0
139548886,139548856,1114122,2.426322,3.4313076,-6.087341,42.0,0,0,0,0
139944073,139944056,1114122,2.2755742,3.6466615,-6.1734824,42.125,0,0,0,0
140147475,140147458,1114122,2.455036,3.4743783,-6.259624,42.0,0,0,0,0
140246698,140246682,1114122,2.2037895,3.7830524,-6.5754766,41.875,0,0,0,0
140348024,140348008,1114122,2.6201408,3.5676985,-6.1663036,42.0,0,0,0,0
140545464,140545441,1114122,2.6488545,3.6179478,-6.41755,41.875,0,0,0,0
140647290,140647267,1114122,2.4478574,3.546163,-6.3888364,42.0,0,0,0,0
141049699,141049682,1114122,2.4191437,3.7256248,-6.403193,42.125,0,0,0,0
141146021,141146001,1114122,2.1463618,3.5030923,-5.915057,42.0,0,0,0,0
141550062,141550039,1114122,2.4047866,3.6610186,-6.202196,42.0,0,0,0,0
141747670,141747653,1114122,2.347359,3.7471602,-6.23091,42.125,0,0,0,0
141947661,141947644,1114122,2.5052853,3.6179478,-6.3314085,42.125,0,0,0,0
142045274,142045258,1114122,2.2612174,3.6179478,-6.144768,42.0,0,0,0,0
142345461,142345442,1114122,2.2181466,3.6323047,-6.3744793,42.0,0,0,0,0
142445468,142445452,1114122,2.4335005,3.6753755,-6.1734824,42.125,0,0,0,0
142548043,142548026,1114122,2.376073,3.65384,-6.1591253,42.125,0,0,0,0
142645699,142645676,1114122,2.2755742,3.6035907,-6.087341,42.0,0,0,0,0
142848364,142848340,1114122,2.4478574,3.7830524,-6.4534426,42.125,0,0,0,0
142946769,142946753,1114122,2.519642,3.5964124,-6.41755,42.125,0,0,0,0
143043367,143043350,1114122,2.4478574,3.37388,-6.1734824,42.125,0,0,0,0
143346020,143346001,1114122,2.1535404,3.330809,-6.2883377,42.125,0,0,0,0
143446089,143446069,1114122,2.4622145,3.424129,-6.2739806,42.125,0,0,0,0
143548620,143548604,1114122,2.548356,3.4887352,-6.302695,42.0,0,0,0,0
143848889,143848866,1114122,2.3401804,3.926622,-6.195018,42.0,0,0,0,0
144249001,144248985,1114122,2.376073,3.5892339,-6.195018,42.25,0,0,0,0
144345373,144345356,1114122,2.2827528,3.6610186,-6.5324054,42.125,0,0,0,0
144646741,144646725,1114122,2.4909282,3.4887352,-6.23091,42.0,0,0,0,0
144742322,144742296,1114122,2.4047866,3.5533416,-6.216553,42.125,0,0,0,0
145248371,145248354,1114122,2.426322,3.6969109,-6.3888364,42.125,0,0,0,0
145346031,145346012,1114122,2.210968,3.6179478,-6.202196,42.125,0,0,0,0
146148238,146148213,1114122,2.426322,3.6251261,-6.0729837,42.125,0,0,0,0
146247696,146247673,1114122,2.3114667,3.5676985,-6.1591253,42.125,0,0,0,0
146546170,146546153,1114122,2.3904297,3.6753755,-6.259624,42.25,0,0,0,0
146640695,146640678,1114122,2.4047866,3.5246277,-6.2883377,42.25,0,0,0,0
147048214,147048190,1114122,2.0027926,3.5246277,-6.0514483,42.25,0,0,0,0
147146772,147146755,1114122,2.426322,3.5820553,-6.2739806,42.25,0,0,0,0
147244420,147244404,1114122,2.440679,3.7112677,-6.2237315,42.25,0,0,0,0
147348255,147348238,1114122,2.4622145,3.6323047,-6.108876,42.25,0,0,0,0
147544725,147544709,1114122,2.4478574,3.546163,-6.001199,42.25,0,0,0,0
147648433,147648417,1114122,2.5052853,3.5820553,-6.460621,42.125,0,0,0,0
147748512,147748495,1114122,2.2037895,3.7471602,-6.202196,42.125,0,0,0,0
147946874,147946857,1114122,2.57707,3.4671998,-6.2739806,42.25,0,0,0,0
148048807,148048784,1114122,2.333002,3.531806,-6.2380886,42.25,0,0,0,0
148146235,148146215,1114122,2.426322,3.5892339,-6.2811594,42.25,0,0,0,0
148749191,148749168,1114122,2.4047866,3.5246277,-6.151947,42.25,0,0,0,0
148846600,148846584,1114122,2.318645,3.5892339,-6.216553,42.375,0,0,0,0
148947520,148947503,1114122,2.4622145,3.6610186,-6.080162,42.125,0,0,0,0
149049315,149049291,1114122,2.2181466,3.65384,-6.1016974,42.125,0,0,0,0
149544516,149544500,1114122,2.4765713,3.6323047,-6.403193,42.125,0,0,0,0
149647901,149647885,1114122,2.6057837,3.7543385,-6.460621,42.25,0,0,0,0
149749727,149749710,1114122,2.2827528,3.7686956,-6.5611196,42.125,0,0,0,0
149950329,149950289,1114122,2.6057837,3.4671998,-6.2883377,42.25,0,0,0,0
150147364,150147348,1114122,2.3976083,3.574877,-6.23091,42.25,0,0,0,0
150249948,150249932,1114122,2.6057837,3.6179478,-6.022734,42.25,0,0,0,0
150449037,150449020,1114122,2.5339992,3.6107693,-6.431907,42.25,0,0,0,0
150545208,150545185,1114122,2.1894326,3.56052,-5.972485,42.25,0,0,0,0
150648521,150648504,1114122,2.3976083,3.5964124,-6.4390855,42.25,0,0,0,0
151045465,151045448,1114122,2.2540388,3.5030923,-6.252445,42.25,0,0,0,0
151144140,151144114,1114122,2.4981067,3.4313076,-5.972485,42.125,0,0,0,0
151248096,151248080,1114122,2.3976083,3.5820553,-5.9365926,42.25,0,0,0,0
151346768,151346751,1114122,2.2755742,3.5892339,-6.5611196,42.125,0,0,0,0
151548147,151548130,1114122,2.0530417,3.481557,-5.9294143,42.25,0,0,0,0
151647077,151647061,1114122,2.6344976,3.5964124,-6.518049,42.25,0,0,0,0
151744731,151744715,1114122,2.3976083,3.5102706,-6.5611196,42.25,0,0,0,0
151948412,151948395,1114122,2.4335005,3.6394832,-6.1591253,42.25,0,0,0,0
152046036,152046004,1114122,2.2540388,3.6610186,-6.1591253,42.25,0,0,0,0
152148996,152148980,1114122,2.4693928,3.7974093,-6.3314085,42.25,0,0,0,0
152248542,152248525,1114122,2.2468605,3.6323047,-6.259624,42.125,0,0,0,0
152346091,152346074,1114122,2.5914268,3.4097722,-6.403193,42.125,0,0,0,0
152647721,152647704,1114122,2.3904297,3.6969109,-6.5324054,42.25,0,0,0,0
152745414,152745369,1114122,2.3832512,3.6323047,-6.5324054,42.125,0,0,0,0
153246673,153246654,1114122,2.4478574,3.5964124,-6.2883377,42.125,0,0,0,0
153344919,153344903,1114122,2.4909282,3.668197,-5.972485,42.125,0,0,0,0
153449261,153449244,1114122,2.2899313,3.5174491,-6.123233,42.25,0,0,0,0
153545506,153545489,1114122,2.3688943,3.4025936,-6.080162,42.25,0,0,0,0
153748120,153748104,1114122,2.6488545,3.5030923,-6.4893346,42.25,0,0,0,0
153945529,153945512,1114122,2.3617158,3.4887352,-6.403193,42.375,0,0,0,0
154048424,154048404,1114122,2.519642,3.4959137,-6.431907,42.25,0,0,0,0
154243718,154243702,1114122,2.3042881,3.6107693,-6.2739806,42.25,0,0,0,0
154348721,154348705,1114122,2.5986054,3.3882368,-5.972485,42.375,0,0,0,0
154447420,154447404,1114122,2.1966112,3.4313076,-6.1591253,42.375,0,0,0,0
154647991,154647974,1114122,2.103291,3.6251261,-6.2883377,42.25,0,0,0,0
155047690,155047673,1114122,2.3617158,3.6179478,-6.029913,42.25,0,0,0,0
155347884,155347865,1114122,2.6057837,3.4959137,-6.2739806,42.375,0,0,0,0
155547993,155547974,1114122,2.3401804,3.4671998,-6.144768,42.25,0,0,0,0
155648056,155648036,1114122,2.5914268,3.3954153,-6.553941,42.375,0,0,0,0
156045749,156045732,1114122,2.1391833,3.6251261,-6.4893346,42.25,0,0,0,0
156443483,156443466,1114122,2.3904297,3.6466615,-6.1663036,42.25,0,0,0,0
156548665,156548642,1114122,2.1535404,3.8117664,-6.525227,42.25,0,0,0,0
156646122,156646103,1114122,2.3401804,3.6610186,-6.1806607,42.25,0,0,0,0
156948906,156948883,1114122,2.3976083,3.65384,-6.0729837,42.375,0,0,0,0
157043801,157043784,1114122,2.2755742,3.3667014,-6.568298,42.25,0,0,0,0
157148963,157148939,1114122,2.318645,3.5892339,-6.3314085,42.25,0,0,0,0
157646799,157646771,1114122,2.2612174,3.3954153,-6.403193,42.375,0,0,0,0
157749311,157749287,1114122,2.5268207,3.5174491,-6.360122,42.25,0,0,0,0
157847349,157847332,1114122,2.2540388,3.4169507,-6.2739806,42.25,0,0,0,0
157946806,157946790,1114122,2.4119651,3.574877,-5.986842,42.25,0,0,0,0
158647420,158647403,1114122,2.4622145,3.6035907,-6.0514483,42.375,0,0,0,0
158749802,158749785,1114122,2.3832512,3.5030923,-6.431907,42.375,0,0,0,0
158944924,158944907,1114122,2.376073,3.56052,-6.2883377,42.375,0,0,0,0
159845573,159845550,1114122,2.6201408,3.452843,-6.403193,42.25,0,0,0,0
159947982,159947965,1114122,2.4335005,3.4097722,-6.4534426,42.375,0,0,0,0
160146835,160146812,1114122,2.2037895,3.6969109,-6.1591253,42.375,0,0,0,0
160648368,160648351,1114122,2.3042881,3.7543385,-6.309873,42.5,0,0,0,0
160748468,160748452,1114122,2.3688943,3.4600215,-6.474978,42.5,0,0,0,0
160846120,160846103,1114122,2.656033,3.3667014,-6.4534426,42.375,0,0,0,0
160946183,160946142,1114122,2.1966112,3.5246277,-6.2380886,42.375,0,0,0,0
161048614,161048597,1114122,2.1248264,3.6466615,-6.2380886,42.375,0,0,0,0
161243750,161243734,1114122,2.4909282,3.6610186,-6.2380886,42.375,0,0,0,0
161348772,161348755,1114122,2.4047866,3.4959137,-6.1734824,42.375,0,0,0,0
161447783,161447756,1114122,2.239682,3.5820553,-6.094519,42.375,0,0,0,0
161543987,161543970,1114122,2.2468605,3.7830524,-6.1016974,42.375,0,0,0,0
161648939,161648923,1114122,2.656033,3.4743783,-6.539584,42.375,0,0,0,0
162144266,162144249,1114122,2.4478574,3.775874,-6.2811594,42.375,0,0,0,0
162249286,162249263,1114122,2.268396,3.4313076,-6.087341,42.5,0,0,0,0
162347637,162347614,1114122,2.548356,3.6323047,-6.144768,42.5,0,0,0,0
162446991,162446954,1114122,2.519642,3.6035907,-6.4390855,42.5,0,0,0,0
162547120,162547104,1114122,2.3258235,3.546163,-6.0729837,42.5,0,0,0,0
162649595,162649579,1114122,2.4191437,3.316452,-6.216553,42.375,0,0,0,0
162745570,162745553,1114122,2.4909282,3.4959137,-6.1663036,42.375,0,0,0,0
162844675,162844659,1114122,2.103291,3.56052,-6.13759,42.5,0,0,0,0
163045869,163045853,1114122,2.4047866,3.869194,-6.259624,42.375,0,0,0,0
163348274,163348258,1114122,2.1535404,3.6753755,-6.216553,42.375,0,0,0,0
163447523,163447507,1114122,2.2325034,3.6179478,-6.123233,42.375,0,0,0,0
163647742,163647714,1114122,2.2899313,3.682554,-6.1016974,42.375,0,0,0,0
163745303,163745265,1114122,2.5339992,3.682554,-6.2739806,42.375,0,0,0,0
164045446,164045415,1114122,2.2971096,3.4600215,-6.431907,42.5,0,0,0,0
164147915,164147899,1114122,2.1750758,3.732803,-6.04427,42.375,0,0,0,0
164546399,164546383,1114122,2.3904297,3.7040894,-6.2380886,42.375,0,0,0,0
165248545,165248529,1114122,2.5339992,3.3810582,-6.1663036,42.5,0,0,0,0
165646348,165646321,1114122,2.3042881,3.574877,-6.474978,42.5,0,0,0,0
166648456,166648439,1114122,2.5411775,3.6035907,-6.6041903,42.375,0,0,0,0
167146127,167146104,1114122,2.2468605,3.438486,-6.04427,42.625,0,0,0,0
167249814,167249791,1114122,2.3545375,3.5533416,-6.4893346,42.5,0,0,0,0
168045173,168045156,1114122,2.2827528,4.249653,-6.647261,42.375,0,0,0,0
168347948,168347915,1114122,2.132005,4.0271206,-6.51087,42.5,0,0,0,0
169148414,169148391,1114122,1.8233308,4.091727,-7.21436,42.5,0,0,0,0
169448605,169448565,1114122,2.1535404,3.3379874,-6.029913,42.5,0,0,0,0
169548688,169548665,1114122,2.0386848,3.4959137,-6.0586267,42.375,0,0,0,0
169646170,169646153,1114122,2.440679,3.6251261,-6.360122,42.375,0,0,0,0
169946243,169946220,1114122,2.4693928,3.2590244,-6.029913,42.25,0,0,0,0
170048924,170048892,1114122,2.5411775,3.5389845,-6.259624,42.375,0,0,0,0
