timestamp,gps_hvel[0],gps_hvel[1],gps_vvel,gps_hpos[0],gps_hpos[1],gps_vpos,ev_hvel[0],ev_hvel[1],ev_vvel,ev_hpos[0],ev_hpos[1],ev_vpos,fake_hvel[0],fake_hvel[1],fake_vvel,fake_hpos[0],fake_hpos[1],fake_vpos,rng_vpos,baro_vpos,aux_hvel[0],aux_hvel[1],aux_vvel,flow[0],flow[1],heading,mag_field[0],mag_field[1],mag_field[2],drag[0],drag[1],airspeed,beta,hagl
4063340,0.0,0.002993077,0.0,0.0,0.2027113,0.0,0.0,6.125182,0.0,0.0,9.995915e-07,0.0,nan,nan,nan,nan,nan,nan,0.0,4.1669136e-05,0.0,0.0,nan,0.0,5.689834e-39,3.4888067e-06,0.0,4.1667716e-34,2.5439512e-29,0.0,0.0,0.0,0.0,0.0
4073338,0.0,0.0029955206,0.0,0.0,0.2027755,0.0,0.0,6.125324,0.0,0.0,9.995915e-07,0.0,nan,nan,nan,nan,nan,nan,0.0,4.1669136e-05,0.0,0.0,nan,0.0,1.2628199e-05,3.4888067e-06,0.0,0.99912244,0.01,0.0,0.0,0.0,0.0,0.0
4863663,0.0,0.0008814969,0.0,7.012624e-10,0.22940208,0.0,0.0,0.808812,0.0,0.0,7.2902463e-07,0.0,nan,nan,nan,nan,nan,nan,0.0,5.35415e-07,0.0,0.0,nan,0.0,7.044e-42,5.5405454e-08,0.0,0.0,2.5439512e-29,0.0,0.0,0.0,0.0,0.0
5263832,0.0,0.0008748299,0.0,6.200735e-09,0.25321025,0.0,0.0,0.5980672,0.0,0.0,4.81059e-07,0.0,nan,nan,nan,nan,nan,nan,0.0,0.00014468777,0.0,0.0,nan,0.0,2.532102e-29,2.2330913e-07,0.0,7e-45,0.0,0.0,0.0,0.0,0.0,0.0
5463913,0.0,0.0008704349,0.0,1.19178765e-08,0.26773062,0.0,0.0,0.57873493,0.0,0.0,3.8403266e-07,0.0,nan,nan,nan,nan,nan,nan,0.0,0.00017877964,0.0,0.0,nan,0.0,0.0,1.1821984e-07,0.0,0.0,0.0,0.0,0.0,0.0,0.0,0.0
5864078,0.0,0.0007980597,0.0,1.976135e-08,0.2894352,0.0,0.0,0.5409061,0.0,0.0,2.3739747e-07,0.0,nan,nan,nan,nan,nan,nan,0.0,0.0001444022,0.0,0.0,nan,0.0,1.0,5.02671e-07,0.0,0.01628582,0.061897486,0.0,0.0,0.0,0.0,0.0
6064161,0.0,0.00074329984,0.0,1.9699556e-08,0.302324,0.0,0.0,0.5645351,0.0,0.0,1.859265e-07,0.0,nan,nan,nan,nan,nan,nan,0.0,0.00018084768,0.0,0.0,nan,0.0,1.0842046e-19,3.3758567e-08,0.0,0.0,2.5439512e-29,0.0,0.0,0.0,0.0,0.0
6464339,0.0,0.0006635798,0.0,1.3840629e-08,0.3095193,0.0,0.0,0.5778801,0.0,0.0,1.2032504e-07,0.0,nan,nan,nan,nan,nan,nan,0.0,0.0010359637,0.0,0.0,nan,0.0,1.0,5.413144e-09,0.0,0.01628582,0.06207277,0.0,0.0,0.0,0.0,0.0
7064592,0.0,0.0005683041,0.0,7.76362e-09,0.30652738,0.0,0.0,0.6323465,0.0,0.0,6.8257954e-08,0.0,nan,nan,nan,nan,nan,nan,0.0,1.1986965e-07,0.0,0.0,nan,0.0,1.0842046e-19,4.321233e-06,0.0,0.0,2.5439512e-29,0.0,0.0,0.0,0.0,0.0
8065009,0.0,0.00044860557,0.0,2.6423588e-09,0.27237225,0.0,0.0,0.6921109,0.0,0.0,3.123921e-08,0.0,nan,nan,nan,nan,nan,nan,0.0,1.4624614e-05,0.0,0.0,nan,0.0,0.061820216,3.887466e-08,0.0,0.0,2.5439512e-29,0.0,0.0,0.0,0.0,0.0
8665252,0.0,0.0003909516,0.0,1.2640597e-09,0.23584627,0.0,0.0,0.65608793,0.0,0.0,2.0880373e-08,0.0,nan,nan,nan,nan,nan,nan,0.0,0.00013518945,0.0,0.0,nan,0.0,0.0,9.581843e-06,0.0,0.0,2.5439512e-29,0.0,0.0,0.0,0.0,0.0
8865336,0.0,0.0003727004,0.0,1.1851807e-09,0.23312621,0.0,0.0,0.6778681,0.0,0.0,1.8378868e-08,0.0,nan,nan,nan,nan,nan,nan,0.0,0.00019182164,0.0,0.0,nan,0.0,0.0,1.0490434e-06,0.0,0.0,2.5439512e-29,0.0,0.0,0.0,0.0,0.0
9265510,0.0,0.00034614705,0.0,1.432375e-09,0.21112183,0.0,0.0,0.64634335,0.0,0.0,1.4623198e-08,0.0,nan,nan,nan,nan,nan,nan,0.0,0.00021334736,0.0,0.0,nan,0.0,0.0,1.0435235e-05,0.0,0.0,2.5439512e-29,0.0,0.0,0.0,0.0,0.0
9465601,0.0,0.00033670274,0.0,1.3846957e-09,0.20854822,0.0,0.0,0.6648815,0.0,0.0,1.3196394e-08,0.0,nan,nan,nan,nan,nan,nan,0.0,7.52643e-06,0.0,0.0,nan,0.0,0.061908726,3.058141e-06,0.0,-0.02587031,2.5439512e-29,0.0,0.0,0.0,0.0,0.0
9865757,0.0,0.00031475924,0.0,1.1176019e-09,0.18835711,0.0,0.0,0.6291171,0.0,0.0,1.074103e-08,0.0,nan,nan,nan,nan,nan,nan,0.0,4.019619e-05,0.0,0.0,nan,0.0,1e-06,2.6433332e-08,0.0,0.0,2.5439512e-29,0.0,0.0,0.0,0.0,0.0
10265931,0.0,0.0011209516,0.0,8.055958e-10,0.1769706,0.0,0.0,0.62772506,0.0,0.0,9.988013e-09,0.0,nan,nan,nan,nan,nan,nan,0.0,2.2948556e-05,0.0,0.0,nan,0.0,0.62772506,8.238443e-06,0.0,0.0,0.0,0.0,0.0,0.0,0.0,0.0
11266351,0.0,0.0003416525,0.0,8.8009156e-10,0.14415972,0.0,0.0,0.57906,0.0,0.0,9.87132e-09,0.0,nan,nan,nan,nan,nan,nan,0.0,1.5552067e-06,0.0,0.0,nan,0.0,0.57906,4.2982583e-06,0.0,0.0,0.0,0.0,0.0,0.0,0.0,0.0
11466435,0.0,0.0003070086,0.0,1.0024351e-09,0.14214502,0.0,0.0,0.5919969,0.0,0.0,9.816584e-09,0.0,nan,nan,nan,nan,nan,nan,0.0,2.4749795e-06,0.0,0.0,nan,0.0,0.5919969,3.2371545e-07,0.0,0.0,0.0,0.0,0.0,0.0,0.0,0.0
11866622,0.0,0.00025796585,0.0,8.7399693e-10,0.12931974,0.0,0.0,0.56305015,0.0,0.0,9.653607e-09,0.0,nan,nan,nan,nan,nan,nan,0.0,4.4502715e-07,0.0,0.0,nan,0.0,0.56305015,4.025228e-07,0.0,0.0,0.0,0.0,0.0,0.0,0.0,0.0
12066687,0.0,0.00024044362,0.0,9.299781e-10,0.12335599,0.0,0.0,0.54931796,0.0,0.0,9.539594e-09,0.0,nan,nan,nan,nan,nan,nan,0.0,2.2275295e-05,0.0,0.0,nan,0.0,0.54931796,2.8066157e-07,0.0,0.0,0.0,0.0,0.0,0.0,0.0,0.0
12466863,0.0,0.00022078257,0.0,1.3523983e-09,0.11593252,0.0,0.0,0.5473631,0.0,0.0,9.281736e-09,0.0,nan,nan,nan,nan,nan,nan,0.0,0.00063616113,0.0,0.0,nan,0.0,0.5473631,2.9704388e-06,0.0,0.0,0.0,0.0,0.0,0.0,0.0,0.0
12867032,0.0,0.00020787463,0.0,1.3860132e-09,0.108876355,0.0,0.0,0.5449194,0.0,0.0,8.936159e-09,0.0,nan,nan,nan,nan,nan,nan,0.0,8.394895e-06,0.0,0.0,nan,0.0,0.5449194,6.893611e-06,0.0,0.0,0.0,0.0,0.0,0.0,0.0,0.0
13067141,0.0,0.00020285058,0.0,1.2419269e-09,0.103826575,0.0,0.0,0.5316323,0.0,0.0,8.72595e-09,0.0,nan,nan,nan,nan,nan,nan,0.0,4.605977e-05,0.0,0.0,nan,0.0,0.5316323,5.9648684e-08,0.0,0.0,0.0,0.0,0.0,0.0,0.0,0.0
13467292,0.0,0.0001978536,0.0,1.0127957e-09,0.09722531,0.0,0.0,0.52747184,0.0,0.0,8.279237e-09,0.0,nan,nan,nan,nan,nan,nan,0.0,4.7635487e-05,0.0,0.0,nan,0.0,0.52747184,1.0557737e-05,0.0,0.0,0.0,0.0,0.0,0.0,0.0,0.0
14867889,0.0,0.00019549952,0.0,7.7365406e-11,0.07443938,0.0,0.0,0.48348072,0.0,0.0,6.4436776e-09,0.0,nan,nan,nan,nan,nan,nan,0.0,8.31474e-06,0.0,0.0,nan,0.0,0.48348072,3.1141672e-06,0.0,0.0,0.0,0.0,0.0,0.0,0.0,0.0
15268058,0.0,0.00019527104,0.0,1.00118774e-10,0.06806728,0.0,0.0,0.46185645,0.0,0.0,5.9000587e-09,0.0,nan,nan,nan,nan,nan,nan,0.0,9.545346e-05,0.0,0.0,nan,0.0,0.46185645,2.987986e-07,0.0,0.0,0.0,0.0,0.0,0.0,0.0,0.0
15868325,0.0,0.00019492037,0.0,3.260798e-10,0.061191574,0.0,0.0,0.44742352,0.0,0.0,5.1346483e-09,0.0,nan,nan,nan,nan,nan,nan,0.0,1.3081684e-05,0.0,0.0,nan,0.0,0.44742352,1.5631747e-05,0.0,0.0,0.0,0.0,0.0,0.0,0.0,0.0
16068405,0.0,0.00019338999,0.0,5.2341453e-10,0.060132436,0.0,0.0,0.45361716,0.0,0.0,4.8760675e-09,0.0,nan,nan,nan,nan,nan,nan,0.0,4.658893e-05,0.0,0.0,nan,0.0,0.45361716,1.8347672e-06,0.0,0.0,0.0,0.0,0.0,0.0,0.0,0.0
16268497,0.0,0.00019339428,0.0,8.753278e-10,0.057585455,0.0,0.0,0.4434263,0.0,0.0,4.6513757e-09,0.0,nan,nan,nan,nan,nan,nan,0.0,5.5117074e-05,0.0,0.0,nan,0.0,0.4434263,8.798034e-06,0.0,0.0,0.0,0.0,0.0,0.0,0.0,0.0
16458587,0.0,0.00019250481,0.0,1.4529441e-09,0.05643937,0.0,0.0,0.44668144,0.0,0.0,4.4345123e-09,0.0,nan,nan,nan,nan,nan,nan,0.0,6.137874e-06,0.0,0.0,nan,0.0,0.44668144,2.1547298e-06,0.0,0.0,0.0,0.0,0.0,0.0,0.0,0.0
16658665,0.0,0.00019057744,0.0,2.3176518e-09,0.054014895,0.0,0.0,0.43612418,0.0,0.0,4.2032724e-09,0.0,nan,nan,nan,nan,nan,nan,0.0,0.00021791316,0.0,0.0,nan,0.0,0.43612418,3.0962733e-06,0.0,0.0,0.0,0.0,0.0,0.0,0.0,0.0
16858768,0.0,0.00019015429,0.0,3.0550509e-09,0.05172374,0.0,0.0,0.42593768,0.0,0.0,4.0041086e-09,0.0,nan,nan,nan,nan,nan,nan,0.0,1.6014277e-05,0.0,0.0,nan,0.0,0.42593768,2.7539554e-07,0.0,0.0,0.0,0.0,0.0,0.0,0.0,0.0
17058830,0.0,0.00018799903,0.0,3.6716425e-09,0.05083037,0.0,0.0,0.43100074,0.0,0.0,3.7926933e-09,0.0,nan,nan,nan,nan,nan,nan,0.0,9.717328e-07,0.0,0.0,nan,0.0,0.43100074,1.2468684e-05,0.0,0.0,0.0,0.0,0.0,0.0,0.0,0.0
17258917,0.0,0.00018731394,0.0,4.1911146e-09,0.0487422,0.0,0.0,0.42123464,0.0,0.0,3.6111962e-09,0.0,nan,nan,nan,nan,nan,nan,0.0,7.723529e-07,0.0,0.0,nan,0.0,0.42123464,1.6417862e-07,0.0,0.0,0.0,0.0,0.0,0.0,0.0,0.0
17459008,0.0,0.00018650765,0.0,4.461522e-09,0.046781346,0.0,0.0,0.41194165,0.0,0.0,3.4380512e-09,0.0,nan,nan,nan,nan,nan,nan,0.0,0.000188449,0.0,0.0,nan,0.0,0.41194165,2.4560592e-05,0.0,0.0,0.0,0.0,0.0,0.0,0.0,0.0
17659094,0.0,0.00018407506,0.0,4.6627666e-09,0.04494515,0.0,0.0,0.40315384,0.0,0.0,3.2554313e-09,0.0,nan,nan,nan,nan,nan,nan,0.0,1.1298034e-07,0.0,0.0,nan,0.0,0.40315384,5.127466e-06,0.0,0.0,0.0,0.0,0.0,0.0,0.0,0.0
18259361,0.0,0.00017941336,0.0,4.725839e-09,0.041840144,0.0,0.0,0.4034301,0.0,0.0,2.7957923e-09,0.0,nan,nan,nan,nan,nan,nan,0.0,0.00014747304,0.0,0.0,nan,0.0,0.4034301,1.16342406e-07,0.0,0.0,0.0,0.0,0.0,0.0,0.0,0.0
18459441,0.0,0.0001767915,0.0,5.3842135e-09,0.040263988,0.0,0.0,0.3949323,0.0,0.0,2.6487728e-09,0.0,nan,nan,nan,nan,nan,nan,0.0,2.9814288e-05,0.0,0.0,nan,0.0,0.3949323,1.13162315e-07,0.0,0.0,0.0,0.0,0.0,0.0,0.0,0.0
18659535,0.0,0.00017554424,0.0,6.1854473e-09,0.038772583,0.0,0.0,0.38675404,0.0,0.0,2.5238347e-09,0.0,nan,nan,nan,nan,nan,nan,0.0,0.00027299122,0.0,0.0,nan,0.0,0.38675404,2.0192535e-06,0.0,0.0,0.0,0.0,0.0,0.0,0.0,0.0
18859613,0.0,0.0001728992,0.0,6.8841577e-09,0.03737223,0.0,0.0,0.3789981,0.0,0.0,2.392719e-09,0.0,nan,nan,nan,nan,nan,nan,0.0,0.0005778532,0.0,0.0,nan,0.0,0.3789981,1.1568878e-08,0.0,0.0,0.0,0.0,0.0,0.0,0.0,0.0
19059704,0.0,0.00017158165,0.0,7.9773645e-09,0.036831662,0.0,0.0,0.38307205,0.0,0.0,2.2813806e-09,0.0,nan,nan,nan,nan,nan,nan,0.0,4.520266e-06,0.0,0.0,nan,0.0,0.38307205,1.0900823e-05,0.0,0.0,0.0,0.0,0.0,0.0,0.0,0.0
19259808,0.0,0.00016894494,0.0,8.712392e-09,0.03551668,0.0,0.0,0.3752922,0.0,0.0,2.1646442e-09,0.0,nan,nan,nan,nan,nan,nan,0.0,0.00020592469,0.0,0.0,nan,0.0,0.3752922,2.8047683e-07,0.0,0.0,0.0,0.0,0.0,0.0,0.0,0.0
19860050,0.0,0.00016359772,0.0,7.7414e-09,0.032679074,0.0,0.0,0.364637,0.0,0.0,1.8734607e-09,0.0,nan,nan,nan,nan,nan,nan,0.0,8.473034e-05,0.0,0.0,nan,0.0,0.364637,6.0319217e-06,0.0,0.0,0.0,0.0,0.0,0.0,0.0,0.0
21260668,0.0,0.0001495753,0.0,4.820117e-09,0.027236387,0.0,0.0,0.3390564,0.0,0.0,1.3484796e-09,0.0,nan,nan,nan,nan,nan,nan,0.0,7.103911e-10,0.0,0.0,nan,0.0,0.3390564,7.933291e-07,0.0,0.0,0.0,0.0,0.0,0.0,0.0,0.0
21460765,0.0,0.0001482299,0.0,5.856495e-09,0.026979957,0.0,0.0,0.34242404,0.0,0.0,1.2926715e-09,0.0,nan,nan,nan,nan,nan,nan,0.0,1.6140755e-05,0.0,0.0,nan,0.0,0.34242404,1.7613844e-05,0.0,0.0,0.0,0.0,0.0,0.0,0.0,0.0
22061016,0.0,0.00014237275,0.0,9.165517e-09,0.025366988,0.0,0.0,0.3338579,0.0,0.0,1.1313619e-09,0.0,nan,nan,nan,nan,nan,nan,0.0,0.000104340084,0.0,0.0,nan,0.0,0.3338579,1.2027543e-08,0.0,0.0,0.0,0.0,0.0,0.0,0.0,0.0
22861386,0.0,0.00013641252,0.0,1.7002588e-08,0.023554131,0.0,0.0,0.32071593,0.0,0.0,9.607953e-10,0.0,nan,nan,nan,nan,nan,nan,0.0,9.0494854e-05,0.0,0.0,nan,0.0,0.32071593,7.386744e-10,0.0,0.0,0.0,0.0,0.0,0.0,0.0,0.0
23261549,0.0,0.00013236787,0.0,2.1427272e-08,0.023045411,0.0,0.0,0.31890732,0.0,0.0,8.8226676e-10,0.0,nan,nan,nan,nan,nan,nan,0.0,0.0003693758,0.0,0.0,nan,0.0,0.31890732,3.993495e-08,0.0,0.0,0.0,0.0,0.0,0.0,0.0,0.0
23461646,0.0,0.00013118728,0.0,2.374745e-08,0.022637041,0.0,0.0,0.3140528,0.0,0.0,8.4966995e-10,0.0,nan,nan,nan,nan,nan,nan,0.0,2.8706017e-05,0.0,0.0,nan,0.0,0.3140528,4.6868367e-06,0.0,0.0,0.0,0.0,0.0,0.0,0.0,0.0
23861820,0.0,0.00012812966,0.0,2.6475472e-08,0.021925623,0.0,0.0,0.3050032,0.0,0.0,7.858405e-10,0.0,nan,nan,nan,nan,nan,nan,0.0,7.5226217e-06,0.0,0.0,nan,0.0,0.3050032,8.510045e-06,0.0,0.0,0.0,0.0,0.0,0.0,0.0,0.0
24061909,0.0,0.00012700292,0.0,2.736018e-08,0.021972967,0.0,0.0,0.30839065,0.0,0.0,7.578049e-10,0.0,nan,nan,nan,nan,nan,nan,0.0,0.00017135004,0.0,0.0,nan,0.0,0.30839065,5.5604806e-07,0.0,0.0,0.0,0.0,0.0,0.0,0.0,0.0
24662180,0.0,0.00012233875,0.0,2.679846e-08,0.021516163,0.0,0.0,0.30359307,0.0,0.0,6.758281e-10,0.0,nan,nan,nan,nan,nan,nan,0.0,1.4006573e-05,0.0,0.0,nan,0.0,0.30359307,1.6217552e-06,0.0,0.0,0.0,0.0,0.0,0.0,0.0,0.0
24862278,0.0,0.000121286,0.0,2.6135606e-08,0.021294927,0.0,0.0,0.2997639,0.0,0.0,6.527966e-10,0.0,nan,nan,nan,nan,nan,nan,0.0,0.00015767709,0.0,0.0,nan,0.0,0.2997639,2.698223e-07,0.0,0.0,0.0,0.0,0.0,0.0,0.0,0.0
25062348,0.0,0.000119605094,0.0,2.5736238e-08,0.021095634,0.0,0.0,0.29610246,0.0,0.0,6.2839556e-10,0.0,nan,nan,nan,nan,nan,nan,0.0,2.2171847e-05,0.0,0.0,nan,0.0,0.29610246,2.2115119e-06,0.0,0.0,0.0,0.0,0.0,0.0,0.0,0.0
25462525,0.0,0.000116977804,0.0,2.7374773e-08,0.02107324,0.0,0.0,0.29628065,0.0,0.0,5.8529714e-10,0.0,nan,nan,nan,nan,nan,nan,0.0,3.1323554e-05,0.0,0.0,nan,0.0,0.29628065,5.5765e-07,0.0,0.0,0.0,0.0,0.0,0.0,0.0,0.0
25662616,0.0,0.000115999916,0.0,2.9223143e-08,0.02092196,0.0,0.0,0.2929243,0.0,0.0,5.662566e-10,0.0,nan,nan,nan,nan,nan,nan,0.0,0.00019124981,0.0,0.0,nan,0.0,0.2929243,1.5834631e-07,0.0,0.0,0.0,0.0,0.0,0.0,0.0,0.0
25862701,0.0,0.00011444823,0.0,3.100608e-08,0.020788778,0.0,0.0,0.2897453,0.0,0.0,5.4604515e-10,0.0,nan,nan,nan,nan,nan,nan,0.0,9.854415e-05,0.0,0.0,nan,0.0,0.2897453,3.1783355e-07,0.0,0.0,0.0,0.0,0.0,0.0,0.0,0.0
26062790,0.0,0.00011350763,0.0,3.2953785e-08,0.02097365,0.0,0.0,0.29351786,0.0,0.0,5.286921e-10,0.0,nan,nan,nan,nan,nan,nan,0.0,4.8228694e-06,0.0,0.0,nan,0.0,0.29351786,5.5736064e-06,0.0,0.0,0.0,0.0,0.0,0.0,0.0,0.0
26663062,0.0,0.000109677036,0.0,3.7544005e-08,0.0209548,0.0,0.0,0.29124278,0.0,0.0,4.7754367e-10,0.0,nan,nan,nan,nan,nan,nan,0.0,4.593504e-05,0.0,0.0,nan,0.0,0.29124278,2.7192152e-06,0.0,0.0,0.0,0.0,0.0,0.0,0.0,0.0
27263330,0.0,0.0001065904,0.0,4.6556135e-08,0.021007074,0.0,0.0,0.2896303,0.0,0.0,4.3434709e-10,0.0,nan,nan,nan,nan,nan,nan,0.0,0.00041439955,0.0,0.0,nan,0.0,0.2896303,5.07626e-06,0.0,0.0,0.0,0.0,0.0,0.0,0.0,0.0
27463416,0.0,0.00010526794,0.0,4.940104e-08,0.0209313,0.0,0.0,0.28692067,0.0,0.0,4.2020357e-10,0.0,nan,nan,nan,nan,nan,nan,0.0,0.0012731671,0.0,0.0,nan,0.0,0.28692067,2.6519217e-07,0.0,0.0,0.0,0.0,0.0,0.0,0.0,0.0
27663510,0.0,0.000104461054,0.0,5.4088563e-08,0.020862661,0.0,0.0,0.2843306,0.0,0.0,4.0802203e-10,0.0,nan,nan,nan,nan,nan,nan,0.0,0.00017541072,0.0,0.0,nan,0.0,0.2843306,1.8995034e-06,0.0,0.0,0.0,0.0,0.0,0.0,0.0,0.0
28063685,0.0,0.00010240925,0.0,6.4992e-08,0.021041479,0.0,0.0,0.2860604,0.0,0.0,3.8382578e-10,0.0,nan,nan,nan,nan,nan,nan,0.0,0.00028460153,0.0,0.0,nan,0.0,0.2860604,9.181399e-07,0.0,0.0,0.0,0.0,0.0,0.0,0.0,0.0
28263787,0.0,0.00010118203,0.0,6.79023e-08,0.02128623,0.0,0.0,0.29037073,0.0,0.0,3.7186668e-10,0.0,nan,nan,nan,nan,nan,nan,0.0,0.00024289821,0.0,0.0,nan,0.0,0.29037073,6.478328e-06,0.0,0.0,0.0,0.0,0.0,0.0,0.0,0.0
28463869,0.0,0.00010043266,0.0,7.228098e-08,0.02121209,0.0,0.0,0.2877504,0.0,0.0,3.6155845e-10,0.0,nan,nan,nan,nan,nan,nan,0.0,0.0003389655,0.0,0.0,nan,0.0,0.2877504,1.1911667e-07,0.0,0.0,0.0,0.0,0.0,0.0,0.0,0.0
29064146,0.0,9.7817974e-05,0.0,9.001426e-08,0.021318866,0.0,0.0,0.28714514,0.0,0.0,3.318912e-10,0.0,nan,nan,nan,nan,nan,nan,0.0,0.000115198825,0.0,0.0,nan,0.0,0.28714514,4.8414972e-06,0.0,0.0,0.0,0.0,0.0,0.0,0.0,0.0
29264233,0.0,9.669668e-05,0.0,9.686947e-08,0.0212578,0.0,0.0,0.28485388,0.0,0.0,3.2210062e-10,0.0,nan,nan,nan,nan,nan,nan,0.0,0.00040552844,0.0,0.0,nan,0.0,0.28485388,4.6328214e-06,0.0,0.0,0.0,0.0,0.0,0.0,0.0,0.0
29664417,0.0,9.492727e-05,0.0,1.1523788e-07,0.02144723,0.0,0.0,0.2871494,0.0,0.0,3.0459152e-10,0.0,nan,nan,nan,nan,nan,nan,0.0,1.0132705e-06,0.0,0.0,nan,0.0,0.2871494,7.738945e-06,0.0,0.0,0.0,0.0,0.0,0.0,0.0,0.0
29864496,0.0,9.426424e-05,0.0,1.2425868e-07,0.021390447,0.0,0.0,0.28504762,0.0,0.0,2.967703e-10,0.0,nan,nan,nan,nan,nan,nan,0.0,2.8580826e-05,0.0,0.0,nan,0.0,0.28504762,6.737059e-07,0.0,0.0,0.0,0.0,0.0,0.0,0.0,0.0
30064605,0.0,9.322031e-05,0.0,1.3488054e-07,0.021331826,0.0,0.0,0.28298333,0.0,0.0,2.8838384e-10,0.0,nan,nan,nan,nan,nan,nan,0.0,3.2738833e-05,0.0,0.0,nan,0.0,0.28298333,3.2798576e-05,0.0,0.0,0.0,0.0,0.0,0.0,0.0,0.0
31065049,0.0,8.9385576e-05,0.0,1.9616066e-07,0.021625528,0.0,0.0,0.28620085,0.0,0.0,2.5318134e-10,0.0,nan,nan,nan,nan,nan,nan,0.0,0.00013214316,0.0,0.0,nan,0.0,0.28620085,1.30064245e-05,0.0,0.0,0.0,0.0,0.0,0.0,0.0,0.0
31265129,0.0,8.8796405e-05,0.0,2.0873894e-07,0.021551369,0.0,0.0,0.28418744,0.0,0.0,2.471501e-10,0.0,nan,nan,nan,nan,nan,nan,0.0,0.00023077888,0.0,0.0,nan,0.0,0.28418744,1.7235336e-05,0.0,0.0,0.0,0.0,0.0,0.0,0.0,0.0
31465241,0.0,8.78691e-05,0.0,2.1910576e-07,0.021478914,0.0,0.0,0.28224698,0.0,0.0,2.4066552e-10,0.0,nan,nan,nan,nan,nan,nan,0.0,0.0011121165,0.0,0.0,nan,0.0,0.28224698,3.756221e-06,0.0,0.0,0.0,0.0,0.0,0.0,0.0,0.0
31665312,0.0,8.730095e-05,0.0,2.3015639e-07,0.021715425,0.0,0.0,0.28694153,0.0,0.0,2.3505703e-10,0.0,nan,nan,nan,nan,nan,nan,0.0,0.0006449858,0.0,0.0,nan,0.0,0.28694153,1.6218317e-05,0.0,0.0,0.0,0.0,0.0,0.0,0.0,0.0
31865405,0.0,8.6405846e-05,0.0,2.423867e-07,0.02163991,0.0,0.0,0.28501695,0.0,0.0,2.2902175e-10,0.0,nan,nan,nan,nan,nan,nan,0.0,0.00021608993,0.0,0.0,nan,0.0,0.28501695,1.2335114e-05,0.0,0.0,0.0,0.0,0.0,0.0,0.0,0.0
32065496,0.0,8.5857115e-05,0.0,2.5625337e-07,0.021563487,0.0,0.0,0.2831256,0.0,0.0,2.23799e-10,0.0,nan,nan,nan,nan,nan,nan,0.0,0.00064446696,0.0,0.0,nan,0.0,0.2831256,2.4918456e-06,0.0,0.0,0.0,0.0,0.0,0.0,0.0,0.0
32465674,0.0,8.446372e-05,0.0,2.8202726e-07,0.021716865,0.0,0.0,0.28598332,0.0,0.0,2.1330744e-10,0.0,nan,nan,nan,nan,nan,nan,0.0,0.0005623334,0.0,0.0,nan,0.0,0.28598332,1.7290013e-05,0.0,0.0,0.0,0.0,0.0,0.0,0.0,0.0
33466129,0.0,8.103456e-05,0.0,3.4489372e-07,0.02190921,0.0,0.0,0.28978923,0.0,0.0,1.897943e-10,0.0,nan,nan,nan,nan,nan,nan,0.0,0.00075882586,0.0,0.0,nan,0.0,0.28978923,1.0511511e-05,0.0,0.0,0.0,0.0,0.0,0.0,0.0,0.0
33666230,0.0,8.055677e-05,0.0,3.5449528e-07,0.021812253,0.0,0.0,0.28778535,0.0,0.0,1.8582441e-10,0.0,nan,nan,nan,nan,nan,nan,0.0,5.9673075e-05,0.0,0.0,nan,0.0,0.28778535,8.652742e-06,0.0,0.0,0.0,0.0,0.0,0.0,0.0,0.0
33866316,0.0,7.980033e-05,0.0,3.6285425e-07,0.021715656,0.0,0.0,0.28580856,0.0,0.0,1.8153586e-10,0.0,nan,nan,nan,nan,nan,nan,0.0,3.404415e-05,0.0,0.0,nan,0.0,0.28580856,2.6528587e-05,0.0,0.0,0.0,0.0,0.0,0.0,0.0,0.0
34466585,0.0,7.815946e-05,0.0,3.801197e-07,0.021745766,0.0,0.0,0.28668627,0.0,0.0,1.7032203e-10,0.0,nan,nan,nan,nan,nan,nan,0.0,4.9029884e-05,0.0,0.0,nan,0.0,0.28668627,3.8649778e-05,0.0,0.0,0.0,0.0,0.0,0.0,0.0,0.0
35066860,0.0,7.633089e-05,0.0,3.8424707e-07,0.02177031,0.0,0.0,0.28754902,0.0,0.0,1.597534e-10,0.0,nan,nan,nan,nan,nan,nan,0.0,3.138655e-05,0.0,0.0,nan,0.0,0.28754902,2.609102e-05,0.0,0.0,0.0,0.0,0.0,0.0,0.0,0.0
35266978,0.0,7.591316e-05,0.0,3.7617974e-07,0.021672187,0.0,0.0,0.2855974,0.0,0.0,1.5668918e-10,0.0,nan,nan,nan,nan,nan,nan,0.0,0.00010756131,0.0,0.0,nan,0.0,0.2855974,1.1705705e-05,0.0,0.0,0.0,0.0,0.0,0.0,0.0,0.0
35667139,0.0,7.484272e-05,0.0,3.6081155e-07,0.021777224,0.0,0.0,0.28819457,0.0,0.0,1.5048866e-10,0.0,nan,nan,nan,nan,nan,nan,0.0,0.00042434531,0.0,0.0,nan,0.0,0.28819457,5.523378e-06,0.0,0.0,0.0,0.0,0.0,0.0,0.0,0.0
36267429,0.0,7.341551e-05,0.0,3.3746804e-07,0.021779845,0.0,0.0,0.28875053,0.0,0.0,1.4202393e-10,0.0,nan,nan,nan,nan,nan,nan,0.0,7.411666e-05,0.0,0.0,nan,0.0,0.28875053,2.3888904e-05,0.0,0.0,0.0,0.0,0.0,0.0,0.0,0.0
36467505,0.0,7.279532e-05,0.0,3.3182795e-07,0.021677906,0.0,0.0,0.28671837,0.0,0.0,1.391651e-10,0.0,nan,nan,nan,nan,nan,nan,0.0,2.1152544e-05,0.0,0.0,nan,0.0,0.28671837,1.6408144e-08,0.0,0.0,0.0,0.0,0.0,0.0,0.0,0.0
36667594,0.0,7.241972e-05,0.0,3.2879578e-07,0.021577455,0.0,0.0,0.2847118,0.0,0.0,1.366879e-10,0.0,nan,nan,nan,nan,nan,nan,0.0,2.7080336e-05,0.0,0.0,nan,0.0,0.2847118,1.2563814e-06,0.0,0.0,0.0,0.0,0.0,0.0,0.0,0.0
37067789,0.0,7.145333e-05,0.0,3.281744e-07,0.021693114,0.0,0.0,0.2873892,0.0,0.0,1.3165949e-10,0.0,nan,nan,nan,nan,nan,nan,0.0,0.00033150113,0.0,0.0,nan,0.0,0.2873892,2.0422793e-05,0.0,0.0,0.0,0.0,0.0,0.0,0.0,0.0
37267874,0.0,7.086885e-05,0.0,3.2684366e-07,0.021592623,0.0,0.0,0.2853652,0.0,0.0,1.2911913e-10,0.0,nan,nan,nan,nan,nan,nan,0.0,0.00013381467,0.0,0.0,nan,0.0,0.2853652,1.4748183e-06,0.0,0.0,0.0,0.0,0.0,0.0,0.0,0.0
37467956,0.0,7.05164e-05,0.0,3.2437137e-07,0.02181152,0.0,0.0,0.2901059,0.0,0.0,1.2691875e-10,0.0,nan,nan,nan,nan,nan,nan,0.0,8.850097e-05,0.0,0.0,nan,0.0,0.2901059,1.9378294e-06,0.0,0.0,0.0,0.0,0.0,0.0,0.0,0.0
37868147,0.0,6.9607304e-05,0.0,3.1265682e-07,0.021597333,0.0,0.0,0.28583524,0.0,0.0,1.2244665e-10,0.0,nan,nan,nan,nan,nan,nan,0.0,0.00011275028,0.0,0.0,nan,0.0,0.28583524,7.252403e-06,0.0,0.0,0.0,0.0,0.0,0.0,0.0,0.0
38268334,0.0,6.872372e-05,0.0,2.9914148e-07,0.021706522,0.0,0.0,0.28836364,0.0,0.0,1.1822181e-10,0.0,nan,nan,nan,nan,nan,nan,0.0,0.00030418084,0.0,0.0,nan,0.0,0.28836364,7.630798e-06,0.0,0.0,0.0,0.0,0.0,0.0,0.0,0.0
38668516,0.0,6.786507e-05,0.0,2.971742e-07,0.021505464,0.0,0.0,0.28422716,0.0,0.0,1.14228675e-10,0.0,nan,nan,nan,nan,nan,nan,0.0,0.0005412723,0.0,0.0,nan,0.0,0.28422716,3.562912e-06,0.0,0.0,0.0,0.0,0.0,0.0,0.0,0.0
38858622,0.0,6.747076e-05,0.0,2.9376687e-07,0.021666152,0.0,0.0,0.2876692,0.0,0.0,1.1241439e-10,0.0,nan,nan,nan,nan,nan,nan,0.0,0.0005403828,0.0,0.0,nan,0.0,0.2876692,2.269799e-07,0.0,0.0,0.0,0.0,0.0,0.0,0.0,0.0
39658987,0.0,6.584547e-05,0.0,2.674222e-07,0.021597551,0.0,0.0,0.28628305,0.0,0.0,1.0525201e-10,0.0,nan,nan,nan,nan,nan,nan,0.0,8.2486426e-05,0.0,0.0,nan,0.0,0.28628305,5.849507e-06,0.0,0.0,0.0,0.0,0.0,0.0,0.0,0.0
40059164,0.0,6.525503e-05,0.0,2.5626224e-07,0.021720316,0.0,0.0,0.28893194,0.0,0.0,1.02141975e-10,0.0,nan,nan,nan,nan,nan,nan,0.0,6.506041e-06,0.0,0.0,nan,0.0,0.28893194,2.6057462e-08,0.0,0.0,0.0,0.0,0.0,0.0,0.0,0.0
40659441,0.0,6.402636e-05,0.0,2.5120244e-07,0.02173259,0.0,0.0,0.28932127,0.0,0.0,9.740932e-11,0.0,nan,nan,nan,nan,nan,nan,0.0,0.00010411282,0.0,0.0,nan,0.0,0.28932127,1.215028e-06,0.0,0.0,0.0,0.0,0.0,0.0,0.0,0.0
40859534,0.0,6.374969e-05,0.0,2.639279e-07,0.02163496,0.0,0.0,0.2872394,0.0,0.0,9.603086e-11,0.0,nan,nan,nan,nan,nan,nan,0.0,0.00010698856,0.0,0.0,nan,0.0,0.2872394,3.166662e-06,0.0,0.0,0.0,0.0,0.0,0.0,0.0,0.0
41059639,0.0,6.3297026e-05,0.0,2.7720967e-07,0.02153484,0.0,0.0,0.28513384,0.0,0.0,9.451729e-11,0.0,nan,nan,nan,nan,nan,nan,0.0,0.00010654687,0.0,0.0,nan,0.0,0.28513384,1.5072105e-06,0.0,0.0,0.0,0.0,0.0,0.0,0.0,0.0
41659905,0.0,6.232768e-05,0.0,3.0138676e-07,0.02153742,0.0,0.0,0.28533027,0.0,0.0,9.053351e-11,0.0,nan,nan,nan,nan,nan,nan,0.0,1.0304319e-06,0.0,0.0,nan,0.0,0.28533027,1.0161233e-05,0.0,0.0,0.0,0.0,0.0,0.0,0.0,0.0
42260180,0.0,6.122891e-05,0.0,3.0842168e-07,0.021545136,0.0,0.0,0.2855614,0.0,0.0,8.669593e-11,0.0,nan,nan,nan,nan,nan,nan,0.0,4.8663146e-06,0.0,0.0,nan,0.0,0.2855614,1.4822829e-05,0.0,0.0,0.0,0.0,0.0,0.0,0.0,0.0
43260653,0.0,5.9712507e-05,0.0,3.166939e-07,0.021661801,0.0,0.0,0.28810832,0.0,0.0,8.110204e-11,0.0,nan,nan,nan,nan,nan,nan,0.0,0.00010689855,0.0,0.0,nan,0.0,0.28810832,1.0837864e-05,0.0,0.0,0.0,0.0,0.0,0.0,0.0,0.0
43860942,0.0,5.8879574e-05,0.0,3.0244954e-07,0.021664508,0.0,0.0,0.28820074,0.0,0.0,7.808756e-11,0.0,nan,nan,nan,nan,nan,nan,0.0,0.0001323692,0.0,0.0,nan,0.0,0.28820074,1.7147171e-05,0.0,0.0,0.0,0.0,0.0,0.0,0.0,0.0
44061034,0.0,5.850689e-05,0.0,2.9890936e-07,0.021562098,0.0,0.0,0.2860077,0.0,0.0,7.7048555e-11,0.0,nan,nan,nan,nan,nan,nan,0.0,0.00027194052,0.0,0.0,nan,0.0,0.2860077,1.4964686e-05,0.0,0.0,0.0,0.0,0.0,0.0,0.0,0.0
44261125,0.0,5.8291105e-05,0.0,2.9413985e-07,0.0217797,0.0,0.0,0.29062396,0.0,0.0,7.6156e-11,0.0,nan,nan,nan,nan,nan,nan,0.0,3.0598276e-05,0.0,0.0,nan,0.0,0.29062396,5.244561e-06,0.0,0.0,0.0,0.0,0.0,0.0,0.0,0.0
45061503,0.0,5.7159825e-05,0.0,2.6924974e-07,0.021678552,0.0,0.0,0.28846392,0.0,0.0,7.256247e-11,0.0,nan,nan,nan,nan,nan,nan,0.0,3.2523963e-05,0.0,0.0,nan,0.0,0.28846392,3.4249933e-06,0.0,0.0,0.0,0.0,0.0,0.0,0.0,0.0
45461691,0.0,5.6615627e-05,0.0,2.636336e-07,0.021795437,0.0,0.0,0.29090077,0.0,0.0,7.0890085e-11,0.0,nan,nan,nan,nan,nan,nan,0.0,0.00017901917,0.0,0.0,nan,0.0,0.29090077,1.5980264e-05,0.0,0.0,0.0,0.0,0.0,0.0,0.0,0.0
45661775,0.0,5.627763e-05,0.0,2.6283544e-07,0.021689544,0.0,0.0,0.28864077,0.0,0.0,7.0030495e-11,0.0,nan,nan,nan,nan,nan,nan,0.0,0.001074432,0.0,0.0,nan,0.0,0.28864077,1.8090292e-05,0.0,0.0,0.0,0.0,0.0,0.0,0.0,0.0
45861869,0.0,5.6084908e-05,0.0,2.6049088e-07,0.02158445,0.0,0.0,0.28640336,0.0,0.0,6.929475e-11,0.0,nan,nan,nan,nan,nan,nan,0.0,5.309546e-06,0.0,0.0,nan,0.0,0.28640336,3.7095368e-05,0.0,0.0,0.0,0.0,0.0,0.0,0.0,0.0
47062437,0.0,5.457681e-05,0.0,3.467421e-07,0.02160164,0.0,0.0,0.28668684,0.0,0.0,6.493651e-11,0.0,nan,nan,nan,nan,nan,nan,0.0,0.0007705728,0.0,0.0,nan,0.0,0.28668684,4.5116623e-05,0.0,0.0,0.0,0.0,0.0,0.0,0.0,0.0
47662717,0.0,5.3800217e-05,0.0,4.3195638e-07,0.021614568,0.0,0.0,0.28689098,0.0,0.0,6.292922e-11,0.0,nan,nan,nan,nan,nan,nan,0.0,0.000505952,0.0,0.0,nan,0.0,0.28689098,2.0062085e-05,0.0,0.0,0.0,0.0,0.0,0.0,0.0,0.0
47862812,0.0,5.3633306e-05,0.0,4.6334787e-07,0.021832332,0.0,0.0,0.29151875,0.0,0.0,6.2347676e-11,0.0,nan,nan,nan,nan,nan,nan,0.0,0.00018304482,0.0,0.0,nan,0.0,0.29151875,2.0534577e-05,0.0,0.0,0.0,0.0,0.0,0.0,0.0,0.0
48663190,0.0,5.273594e-05,0.0,6.066804e-07,0.02173217,0.0,0.0,0.2893742,0.0,0.0,5.998258e-11,0.0,nan,nan,nan,nan,nan,nan,0.0,0.0005041126,0.0,0.0,nan,0.0,0.2893742,6.0705966e-05,0.0,0.0,0.0,0.0,0.0,0.0,0.0,0.0
48863293,0.0,5.245705e-05,0.0,6.4384295e-07,0.02163243,0.0,0.0,0.28720945,0.0,0.0,5.938404e-11,0.0,nan,nan,nan,nan,nan,nan,0.0,0.00025374017,0.0,0.0,nan,0.0,0.28720945,3.4776123e-05,0.0,0.0,0.0,0.0,0.0,0.0,0.0,0.0
49663746,0.0,5.173465e-05,0.0,7.897368e-07,0.021531006,0.0,0.0,0.28508106,0.0,0.0,5.734447e-11,0.0,nan,nan,nan,nan,nan,nan,0.0,9.363518e-06,0.0,0.0,nan,0.0,0.28508106,2.9516475e-05,0.0,0.0,0.0,0.0,0.0,0.0,0.0,0.0
50063872,0.0,5.1326977e-05,0.0,8.5872966e-07,0.021647144,0.0,0.0,0.28749803,0.0,0.0,5.6352895e-11,0.0,nan,nan,nan,nan,nan,nan,0.0,0.00019798508,0.0,0.0,nan,0.0,0.28749803,3.0599676e-05,0.0,0.0,0.0,0.0,0.0,0.0,0.0,0.0
50464047,0.0,5.0929037e-05,0.0,9.3057594e-07,0.021731745,0.0,0.0,0.28950098,0.0,0.0,5.5403345e-11,0.0,nan,nan,nan,nan,nan,nan,0.0,0.00040431568,0.0,0.0,nan,0.0,0.28950098,4.0113842e-05,0.0,0.0,0.0,0.0,0.0,0.0,0.0,0.0
50664139,0.0,5.0676143e-05,0.0,9.656175e-07,0.021618826,0.0,0.0,0.287148,0.0,0.0,5.490924e-11,0.0,nan,nan,nan,nan,nan,nan,0.0,7.0441005e-05,0.0,0.0,nan,0.0,0.287148,8.8320965e-05,0.0,0.0,0.0,0.0,0.0,0.0,0.0,0.0
50864252,0.0,5.054044e-05,0.0,9.962373e-07,0.02182695,0.0,0.0,0.29163748,0.0,0.0,5.449392e-11,0.0,nan,nan,nan,nan,nan,nan,0.0,7.4093564e-06,0.0,0.0,nan,0.0,0.29163748,6.6154535e-05,0.0,0.0,0.0,0.0,0.0,0.0,0.0,0.0
51064331,0.0,5.0406146e-05,0.0,1.0230941e-06,0.021716325,0.0,0.0,0.2892961,0.0,0.0,5.4087027e-11,0.0,nan,nan,nan,nan,nan,nan,0.0,0.0005879687,0.0,0.0,nan,0.0,0.2892961,3.9606442e-05,0.0,0.0,0.0,0.0,0.0,0.0,0.0,0.0
52064808,0.0,4.9428065e-05,0.0,1.1067585e-06,0.021803651,0.0,0.0,0.29126397,0.0,0.0,5.198726e-11,0.0,nan,nan,nan,nan,nan,nan,0.0,0.00046857446,0.0,0.0,nan,0.0,0.29126397,6.673168e-05,0.0,0.0,0.0,0.0,0.0,0.0,0.0,0.0
52665111,0.0,4.895438e-05,0.0,1.0944289e-06,0.021771228,0.0,0.0,0.29076552,0.0,0.0,5.0878416e-11,0.0,nan,nan,nan,nan,nan,nan,0.0,5.684413e-06,0.0,0.0,nan,0.0,0.29076552,3.395212e-05,0.0,0.0,0.0,0.0,0.0,0.0,0.0,0.0
53665572,0.0,4.8166923e-05,0.0,1.0127478e-06,0.021850998,0.0,0.0,0.29252216,0.0,0.0,4.9159617e-11,0.0,nan,nan,nan,nan,nan,nan,0.0,2.2550455e-05,0.0,0.0,nan,0.0,0.29252216,2.9168208e-05,0.0,0.0,0.0,0.0,0.0,0.0,0.0,0.0
53865667,0.0,4.795354e-05,0.0,9.800679e-07,0.021737978,0.0,0.0,0.29010305,0.0,0.0,4.880376e-11,0.0,nan,nan,nan,nan,nan,nan,0.0,0.00014312656,0.0,0.0,nan,0.0,0.29010305,2.2085525e-05,0.0,0.0,0.0,0.0,0.0,0.0,0.0,0.0
54065763,0.0,4.7844776e-05,0.0,9.4852356e-07,0.021628909,0.0,0.0,0.28775057,0.0,0.0,4.850999e-11,0.0,nan,nan,nan,nan,nan,nan,0.0,0.00013144627,0.0,0.0,nan,0.0,0.28775057,2.700429e-05,0.0,0.0,0.0,0.0,0.0,0.0,0.0,0.0
54265887,0.0,4.7636036e-05,0.0,9.2440825e-07,0.021523459,0.0,0.0,0.28546122,0.0,0.0,4.8168195e-11,0.0,nan,nan,nan,nan,nan,nan,0.0,0.00012534569,0.0,0.0,nan,0.0,0.28546122,5.7038185e-05,0.0,0.0,0.0,0.0,0.0,0.0,0.0,0.0
54666051,0.0,4.7325648e-05,0.0,8.8935883e-07,0.021638656,0.0,0.0,0.2877683,0.0,0.0,4.7558155e-11,0.0,nan,nan,nan,nan,nan,nan,0.0,7.025672e-05,0.0,0.0,nan,0.0,0.2877683,4.018746e-05,0.0,0.0,0.0,0.0,0.0,0.0,0.0,0.0
54866147,0.0,4.7222667e-05,0.0,8.7060033e-07,0.021530809,0.0,0.0,0.28545573,0.0,0.0,4.728823e-11,0.0,nan,nan,nan,nan,nan,nan,0.0,1.8279741e-06,0.0,0.0,nan,0.0,0.28545573,3.089811e-05,0.0,0.0,0.0,0.0,0.0,0.0,0.0,0.0
55066254,0.0,4.7022197e-05,0.0,8.495235e-07,0.021741785,0.0,0.0,0.28993538,0.0,0.0,4.6972547e-11,0.0,nan,nan,nan,nan,nan,nan,0.0,0.00011623865,0.0,0.0,nan,0.0,0.28993538,3.4925524e-05,0.0,0.0,0.0,0.0,0.0,0.0,0.0,0.0
55666541,0.0,4.662911e-05,0.0,7.94898e-07,0.021752203,0.0,0.0,0.28999272,0.0,0.0,4.6162733e-11,0.0,nan,nan,nan,nan,nan,nan,0.0,5.533026e-05,0.0,0.0,nan,0.0,0.28999272,1.1064767e-05,0.0,0.0,0.0,0.0,0.0,0.0,0.0,0.0
56066724,0.0,4.6342742e-05,0.0,7.6835187e-07,0.021559596,0.0,0.0,0.2856949,0.0,0.0,4.5633542e-11,0.0,nan,nan,nan,nan,nan,nan,0.0,8.0614336e-05,0.0,0.0,nan,0.0,0.2856949,2.4957786e-05,0.0,0.0,0.0,0.0,0.0,0.0,0.0,0.0
57267305,0.0,4.5524954e-05,0.0,6.449023e-07,0.021635545,0.0,0.0,0.2867574,0.0,0.0,4.417043e-11,0.0,nan,nan,nan,nan,nan,nan,0.0,2.1666406e-06,0.0,0.0,nan,0.0,0.2867574,1.1084366e-07,0.0,0.0,0.0,0.0,0.0,0.0,0.0,0.0
57467402,0.0,4.5348595e-05,0.0,6.2303747e-07,0.021544857,0.0,0.0,0.28474864,0.0,0.0,4.392132e-11,0.0,nan,nan,nan,nan,nan,nan,0.0,0.00023926266,0.0,0.0,nan,0.0,0.28474864,1.5137938e-06,0.0,0.0,0.0,0.0,0.0,0.0,0.0,0.0
57667505,0.0,4.5265624e-05,0.0,6.0518056e-07,0.021455172,0.0,0.0,0.2827713,0.0,0.0,4.3721318e-11,0.0,nan,nan,nan,nan,nan,nan,0.0,0.00012918508,0.0,0.0,nan,0.0,0.2827713,8.0349255e-06,0.0,0.0,0.0,0.0,0.0,0.0,0.0,0.0
58267801,0.0,4.493342e-05,0.0,5.494427e-07,0.021504486,0.0,0.0,0.28358597,0.0,0.0,4.3102334e-11,0.0,nan,nan,nan,nan,nan,nan,0.0,0.00017871955,0.0,0.0,nan,0.0,0.28358597,5.1003085e-06,0.0,0.0,0.0,0.0,0.0,0.0,0.0,0.0
59068175,0.0,4.4449585e-05,0.0,4.6348126e-07,0.021777062,0.0,0.0,0.28919667,0.0,0.0,4.230522e-11,0.0,nan,nan,nan,nan,nan,nan,0.0,5.618911e-05,0.0,0.0,nan,0.0,0.28919667,4.523364e-09,0.0,0.0,0.0,0.0,0.0,0.0,0.0,0.0
59268300,0.0,4.4288394e-05,0.0,4.448062e-07,0.021680009,0.0,0.0,0.28714964,0.0,0.0,4.2095345e-11,0.0,nan,nan,nan,nan,nan,nan,0.0,6.887313e-05,0.0,0.0,nan,0.0,0.28714964,7.787637e-08,0.0,0.0,0.0,0.0,0.0,0.0,0.0,0.0
59668473,0.0,4.405838e-05,0.0,4.1473146e-07,0.021802701,0.0,0.0,0.28981644,0.0,0.0,4.172807e-11,0.0,nan,nan,nan,nan,nan,nan,0.0,2.5184586e-06,0.0,0.0,nan,0.0,0.28981644,2.4255171e-09,0.0,0.0,0.0,0.0,0.0,0.0,0.0,0.0
59858566,0.0,4.3953267e-05,0.0,4.0555958e-07,0.021646913,0.0,0.0,0.28652126,0.0,0.0,4.1559672e-11,0.0,nan,nan,nan,nan,nan,nan,0.0,0.000501828,0.0,0.0,nan,0.0,0.28652126,1.9156417e-08,0.0,0.0,0.0,0.0,0.0,0.0,0.0,0.0
60058654,0.0,4.3884786e-05,0.0,3.9971994e-07,0.021551058,0.0,0.0,0.28450927,0.0,0.0,4.1404494e-11,0.0,nan,nan,nan,nan,nan,nan,0.0,2.6705384e-05,0.0,0.0,nan,0.0,0.28450927,2.1606128e-07,0.0,0.0,0.0,0.0,0.0,0.0,0.0,0.0
60258750,0.0,4.3731627e-05,0.0,3.9356487e-07,0.021772185,0.0,0.0,0.28922483,0.0,0.0,4.121349e-11,0.0,nan,nan,nan,nan,nan,nan,0.0,0.00014347608,0.0,0.0,nan,0.0,0.28922483,2.360684e-06,0.0,0.0,0.0,0.0,0.0,0.0,0.0,0.0
60859058,0.0,4.345023e-05,0.0,3.7728904e-07,0.021492109,0.0,0.0,0.28329206,0.0,0.0,4.0738024e-11,0.0,nan,nan,nan,nan,nan,nan,0.0,0.00028608055,0.0,0.0,nan,0.0,0.28329206,8.8028645e-07,0.0,0.0,0.0,0.0,0.0,0.0,0.0,0.0
61059141,0.0,4.3302913e-05,0.0,3.7455922e-07,0.021714559,0.0,0.0,0.28801697,0.0,0.0,4.0560697e-11,0.0,nan,nan,nan,nan,nan,nan,0.0,4.8836602e-05,0.0,0.0,nan,0.0,0.28801697,4.363379e-06,0.0,0.0,0.0,0.0,0.0,0.0,0.0,0.0
62459832,0.0,4.264221e-05,0.0,3.6124757e-07,0.02166191,0.0,0.0,0.28718948,0.0,0.0,3.955441e-11,0.0,nan,nan,nan,nan,nan,nan,0.0,0.0002309653,0.0,0.0,nan,0.0,0.28718948,4.7382144e-08,0.0,0.0,0.0,0.0,0.0,0.0,0.0,0.0
62659920,0.0,4.258697e-05,0.0,3.6632466e-07,0.021565357,0.0,0.0,0.2851643,0.0,0.0,3.9436794e-11,0.0,nan,nan,nan,nan,nan,nan,0.0,0.00062935206,0.0,0.0,nan,0.0,0.2851643,8.558386e-06,0.0,0.0,0.0,0.0,0.0,0.0,0.0,0.0
62860020,0.0,4.2451986e-05,0.0,3.7162965e-07,0.021778617,0.0,0.0,0.2897815,0.0,0.0,3.9286675e-11,0.0,nan,nan,nan,nan,nan,nan,0.0,0.00019767358,0.0,0.0,nan,0.0,0.2897815,2.3251869e-05,0.0,0.0,0.0,0.0,0.0,0.0,0.0,0.0
63060115,0.0,4.239857e-05,0.0,3.7798748e-07,0.021672886,0.0,0.0,0.28761315,0.0,0.0,3.917405e-11,0.0,nan,nan,nan,nan,nan,nan,0.0,0.000111823014,0.0,0.0,nan,0.0,0.28761315,9.969933e-06,0.0,0.0,0.0,0.0,0.0,0.0,0.0,0.0
63260215,0.0,4.226615e-05,0.0,3.86777e-07,0.021571651,0.0,0.0,0.28551218,0.0,0.0,3.902932e-11,0.0,nan,nan,nan,nan,nan,nan,0.0,7.145232e-05,0.0,0.0,nan,0.0,0.28551218,9.012029e-06,0.0,0.0,0.0,0.0,0.0,0.0,0.0,0.0
63460316,0.0,4.2214688e-05,0.0,3.9747056e-07,0.02178554,0.0,0.0,0.29013166,0.0,0.0,3.8921432e-11,0.0,nan,nan,nan,nan,nan,nan,0.0,0.00028381072,0.0,0.0,nan,0.0,0.29013166,2.4831726e-05,0.0,0.0,0.0,0.0,0.0,0.0,0.0,0.0
63860509,0.0,4.2034793e-05,0.0,4.2566012e-07,0.0215846,0.0,0.0,0.28591746,0.0,0.0,3.8678498e-11,0.0,nan,nan,nan,nan,nan,nan,0.0,0.00026395882,0.0,0.0,nan,0.0,0.28591746,1.9462896e-05,0.0,0.0,0.0,0.0,0.0,0.0,0.0,0.0
65261193,0.0,4.1476767e-05,0.0,5.2880284e-07,0.021792041,0.0,0.0,0.2907942,0.0,0.0,3.7915778e-11,0.0,nan,nan,nan,nan,nan,nan,0.0,2.8498316e-05,0.0,0.0,nan,0.0,0.2907942,3.690703e-05,0.0,0.0,0.0,0.0,0.0,0.0,0.0,0.0
65861515,0.0,4.119814e-05,0.0,5.7837644e-07,0.021773802,0.0,0.0,0.29063994,0.0,0.0,3.7597966e-11,0.0,nan,nan,nan,nan,nan,nan,0.0,0.00013858419,0.0,0.0,nan,0.0,0.29063994,8.331815e-06,0.0,0.0,0.0,0.0,0.0,0.0,0.0,0.0
66061610,0.0,4.1157633e-05,0.0,5.970928e-07,0.021664795,0.0,0.0,0.2883476,0.0,0.0,3.751686e-11,0.0,nan,nan,nan,nan,nan,nan,0.0,5.2673397e-05,0.0,0.0,nan,0.0,0.2883476,3.3775334e-05,0.0,0.0,0.0,0.0,0.0,0.0,0.0,0.0
66461782,0.0,4.100411e-05,0.0,6.391533e-07,0.021765115,0.0,0.0,0.29056862,0.0,0.0,3.7329122e-11,0.0,nan,nan,nan,nan,nan,nan,0.0,4.8029782e-05,0.0,0.0,nan,0.0,0.29056862,2.5210096e-05,0.0,0.0,0.0,0.0,0.0,0.0,0.0,0.0
66661881,0.0,4.0891344e-05,0.0,6.6320763e-07,0.021655045,0.0,0.0,0.28824833,0.0,0.0,3.7222735e-11,0.0,nan,nan,nan,nan,nan,nan,0.0,0.0002478777,0.0,0.0,nan,0.0,0.28824833,3.1458905e-05,0.0,0.0,0.0,0.0,0.0,0.0,0.0,0.0
66861979,0.0,4.085419e-05,0.0,6.9134035e-07,0.021546412,0.0,0.0,0.2859565,0.0,0.0,3.7148673e-11,0.0,nan,nan,nan,nan,nan,nan,0.0,0.00030126885,0.0,0.0,nan,0.0,0.2859565,5.303401e-05,0.0,0.0,0.0,0.0,0.0,0.0,0.0,0.0
67262197,0.0,4.0708004e-05,0.0,7.4264204e-07,0.021655293,0.0,0.0,0.28824642,0.0,0.0,3.6975287e-11,0.0,nan,nan,nan,nan,nan,nan,0.0,0.00016855964,0.0,0.0,nan,0.0,0.28824642,4.9927778e-05,0.0,0.0,0.0,0.0,0.0,0.0,0.0,0.0
68062571,0.0,4.0427014e-05,0.0,8.559492e-07,0.021581508,0.0,0.0,0.28641507,0.0,0.0,3.664885e-11,0.0,nan,nan,nan,nan,nan,nan,0.0,3.2275955e-05,0.0,0.0,nan,0.0,0.28641507,4.25975e-05,0.0,0.0,0.0,0.0,0.0,0.0,0.0,0.0
68262670,0.0,4.0322655e-05,0.0,8.834253e-07,0.021487506,0.0,0.0,0.28433535,0.0,0.0,3.6556744e-11,0.0,nan,nan,nan,nan,nan,nan,0.0,0.0002324573,0.0,0.0,nan,0.0,0.28433535,3.7771315e-05,0.0,0.0,0.0,0.0,0.0,0.0,0.0,0.0
68462768,0.0,4.029203e-05,0.0,8.9950777e-07,0.021709226,0.0,0.0,0.28898254,0.0,0.0,3.6495376e-11,0.0,nan,nan,nan,nan,nan,nan,0.0,9.3139635e-05,0.0,0.0,nan,0.0,0.28898254,3.0240999e-05,0.0,0.0,0.0,0.0,0.0,0.0,0.0,0.0
68662868,0.0,4.018969e-05,0.0,9.067462e-07,0.021609858,0.0,0.0,0.28682527,0.0,0.0,3.640655e-11,0.0,nan,nan,nan,nan,nan,nan,0.0,0.00030596278,0.0,0.0,nan,0.0,0.28682527,2.1595206e-05,0.0,0.0,0.0,0.0,0.0,0.0,0.0,0.0
68862975,0.0,4.0160336e-05,0.0,9.057653e-07,0.021817215,0.0,0.0,0.2913124,0.0,0.0,3.634805e-11,0.0,nan,nan,nan,nan,nan,nan,0.0,6.39601e-06,0.0,0.0,nan,0.0,0.2913124,1.4858234e-05,0.0,0.0,0.0,0.0,0.0,0.0,0.0,0.0
69263164,0.0,4.003224e-05,0.0,8.9163785e-07,0.02159898,0.0,0.0,0.28671086,0.0,0.0,3.62065e-11,0.0,nan,nan,nan,nan,nan,nan,0.0,8.316509e-05,0.0,0.0,nan,0.0,0.28671086,3.0050618e-05,0.0,0.0,0.0,0.0,0.0,0.0,0.0,0.0
69463266,0.0,3.9933715e-05,0.0,8.8616866e-07,0.021811401,0.0,0.0,0.2912571,0.0,0.0,3.61238e-11,0.0,nan,nan,nan,nan,nan,nan,0.0,3.514929e-07,0.0,0.0,nan,0.0,0.2912571,4.708872e-05,0.0,0.0,0.0,0.0,0.0,0.0,0.0,0.0
69663365,0.0,3.9907183e-05,0.0,8.810557e-07,0.021707514,0.0,0.0,0.28901562,0.0,0.0,3.6070643e-11,0.0,nan,nan,nan,nan,nan,nan,0.0,1.3857907e-07,0.0,0.0,nan,0.0,0.28901562,5.8110825e-05,0.0,0.0,0.0,0.0,0.0,0.0,0.0,0.0
70463778,0.0,3.9666786e-05,0.0,8.456588e-07,0.02162996,0.0,0.0,0.28717265,0.0,0.0,3.581494e-11,0.0,nan,nan,nan,nan,nan,nan,0.0,9.750079e-06,0.0,0.0,nan,0.0,0.28717265,8.746174e-06,0.0,0.0,0.0,0.0,0.0,0.0,0.0,0.0
70663868,0.0,3.9573388e-05,0.0,8.339454e-07,0.021534728,0.0,0.0,0.28508273,0.0,0.0,3.5740487e-11,0.0,nan,nan,nan,nan,nan,nan,0.0,4.9856433e-05,0.0,0.0,nan,0.0,0.28508273,4.3173557e-05,0.0,0.0,0.0,0.0,0.0,0.0,0.0,0.0
70863957,0.0,3.9550916e-05,0.0,8.2623774e-07,0.021756949,0.0,0.0,0.28975436,0.0,0.0,3.569461e-11,0.0,nan,nan,nan,nan,nan,nan,0.0,2.8580296e-05,0.0,0.0,nan,0.0,0.28975436,2.2209797e-05,0.0,0.0,0.0,0.0,0.0,0.0,0.0,0.0
71664413,0.0,3.9328384e-05,0.0,7.8393003e-07,0.021671893,0.0,0.0,0.28787273,0.0,0.0,3.5467983e-11,0.0,nan,nan,nan,nan,nan,nan,0.0,4.705999e-05,0.0,0.0,nan,0.0,0.28787273,1.1233714e-05,0.0,0.0,0.0,0.0,0.0,0.0,0.0,0.0
71864456,0.0,3.924031e-05,0.0,7.740059e-07,0.021573441,0.0,0.0,0.28575057,0.0,0.0,3.540086e-11,0.0,nan,nan,nan,nan,nan,nan,0.0,2.9788303e-05,0.0,0.0,nan,0.0,0.28575057,5.824692e-06,0.0,0.0,0.0,0.0,0.0,0.0,0.0,0.0
72464765,0.0,3.911712e-05,0.0,7.33726e-07,0.021585658,0.0,0.0,0.28601387,0.0,0.0,3.525909e-11,0.0,nan,nan,nan,nan,nan,nan,0.0,8.741584e-06,0.0,0.0,nan,0.0,0.28601387,2.395486e-05,0.0,0.0,0.0,0.0,0.0,0.0,0.0,0.0
72664852,0.0,3.9099934e-05,0.0,7.1583577e-07,0.021800902,0.0,0.0,0.29061395,0.0,0.0,3.5222592e-11,0.0,nan,nan,nan,nan,nan,nan,0.0,8.6690605e-05,0.0,0.0,nan,0.0,0.29061395,2.2000098e-05,0.0,0.0,0.0,0.0,0.0,0.0,0.0,0.0
72864951,0.0,3.9015315e-05,0.0,6.9827786e-07,0.021698192,0.0,0.0,0.28842288,0.0,0.0,3.5160874e-11,0.0,nan,nan,nan,nan,nan,nan,0.0,5.1639192e-05,0.0,0.0,nan,0.0,0.28842288,2.0176058e-05,0.0,0.0,0.0,0.0,0.0,0.0,0.0,0.0
73065081,0.0,3.8931703e-05,0.0,6.7690297e-07,0.021599948,0.0,0.0,0.28630453,0.0,0.0,3.510033e-11,0.0,nan,nan,nan,nan,nan,nan,0.0,1.0729479e-05,0.0,0.0,nan,0.0,0.28630453,4.8111287e-05,0.0,0.0,0.0,0.0,0.0,0.0,0.0,0.0
73465253,0.0,3.8901737e-05,0.0,6.3507565e-07,0.02171065,0.0,0.0,0.2886968,0.0,0.0,3.5034024e-11,0.0,nan,nan,nan,nan,nan,nan,0.0,0.00021974795,0.0,0.0,nan,0.0,0.2886968,2.2734093e-05,0.0,0.0,0.0,0.0,0.0,0.0,0.0,0.0
73665350,0.0,3.8820053e-05,0.0,6.200422e-07,0.0216063,0.0,0.0,0.28649557,0.0,0.0,3.4976418e-11,0.0,nan,nan,nan,nan,nan,nan,0.0,4.6996578e-05,0.0,0.0,nan,0.0,0.28649557,2.1207032e-05,0.0,0.0,0.0,0.0,0.0,0.0,0.0,0.0
74065571,0.0,3.8725924e-05,0.0,5.921936e-07,0.021719247,0.0,0.0,0.2889144,0.0,0.0,3.4889612e-11,0.0,nan,nan,nan,nan,nan,nan,0.0,0.000121044635,0.0,0.0,nan,0.0,0.2889144,2.4618592e-05,0.0,0.0,0.0,0.0,0.0,0.0,0.0,0.0
74265651,0.0,3.8713297e-05,0.0,5.791125e-07,0.021619638,0.0,0.0,0.28677526,0.0,0.0,3.4860274e-11,0.0,nan,nan,nan,nan,nan,nan,0.0,0.000104615065,0.0,0.0,nan,0.0,0.28677526,4.996771e-05,0.0,0.0,0.0,0.0,0.0,0.0,0.0,0.0
74665871,0.0,3.862291e-05,0.0,5.462089e-07,0.021743339,0.0,0.0,0.28934798,0.0,0.0,3.4778697e-11,0.0,nan,nan,nan,nan,nan,nan,0.0,0.00013430078,0.0,0.0,nan,0.0,0.28934798,7.196597e-05,0.0,0.0,0.0,0.0,0.0,0.0,0.0,0.0
75066067,0.0,3.853471e-05,0.0,5.1377e-07,0.021551745,0.0,0.0,0.28519642,0.0,0.0,3.4700538e-11,0.0,nan,nan,nan,nan,nan,nan,0.0,1.4269878e-05,0.0,0.0,nan,0.0,0.28519642,1.8894258e-05,0.0,0.0,0.0,0.0,0.0,0.0,0.0,0.0
75266149,0.0,3.84586e-05,0.0,4.9657706e-07,0.021458447,0.0,0.0,0.28317416,0.0,0.0,3.465021e-11,0.0,nan,nan,nan,nan,nan,nan,0.0,1.0449633e-05,0.0,0.0,nan,0.0,0.28317416,3.301802e-05,0.0,0.0,0.0,0.0,0.0,0.0,0.0,0.0
75666352,0.0,3.8374114e-05,0.0,4.683635e-07,0.021577416,0.0,0.0,0.28568506,0.0,0.0,3.457685e-11,0.0,nan,nan,nan,nan,nan,nan,0.0,0.00023010917,0.0,0.0,nan,0.0,0.28568506,2.5585696e-05,0.0,0.0,0.0,0.0,0.0,0.0,0.0,0.0
75866514,0.0,3.8365586e-05,0.0,4.5859892e-07,0.021793753,0.0,0.0,0.29031217,0.0,0.0,3.4553662e-11,0.0,nan,nan,nan,nan,nan,nan,0.0,6.9537064e-06,0.0,0.0,nan,0.0,0.29031217,4.9127535e-05,0.0,0.0,0.0,0.0,0.0,0.0,0.0,0.0
76666862,0.0,3.8205166e-05,0.0,4.3758453e-07,0.021713883,0.0,0.0,0.28860378,0.0,0.0,3.441853e-11,0.0,nan,nan,nan,nan,nan,nan,0.0,6.5964116e-07,0.0,0.0,nan,0.0,0.28860378,3.2310545e-05,0.0,0.0,0.0,0.0,0.0,0.0,0.0,0.0
76866977,0.0,3.8198916e-05,0.0,4.361057e-07,0.021600908,0.0,0.0,0.28630728,0.0,0.0,3.4398682e-11,0.0,nan,nan,nan,nan,nan,nan,0.0,3.478377e-05,0.0,0.0,nan,0.0,0.28630728,5.8372745e-05,0.0,0.0,0.0,0.0,0.0,0.0,0.0,0.0
77067055,0.0,3.812816e-05,0.0,4.3637883e-07,0.021805573,0.0,0.0,0.2907804,0.0,0.0,3.4355113e-11,0.0,nan,nan,nan,nan,nan,nan,0.0,4.6737805e-06,0.0,0.0,nan,0.0,0.2907804,5.0640236e-05,0.0,0.0,0.0,0.0,0.0,0.0,0.0,0.0
77667363,0.0,3.798435e-05,0.0,4.3470058e-07,0.02179549,0.0,0.0,0.29075077,0.0,0.0,3.4253034e-11,0.0,nan,nan,nan,nan,nan,nan,0.0,0.0001529459,0.0,0.0,nan,0.0,0.29075077,0.000103116115,0.0,0.0,0.0,0.0,0.0,0.0,0.0,0.0
78067564,0.0,3.797722e-05,0.0,4.3862073e-07,0.021882161,0.0,0.0,0.29282424,0.0,0.0,3.4220297e-11,0.0,nan,nan,nan,nan,nan,nan,0.0,2.6309384e-05,0.0,0.0,nan,0.0,0.29282424,2.9006856e-05,0.0,0.0,0.0,0.0,0.0,0.0,0.0,0.0
78467755,0.0,3.790749e-05,0.0,4.4368034e-07,0.021643605,0.0,0.0,0.2879307,0.0,0.0,3.4165767e-11,0.0,nan,nan,nan,nan,nan,nan,0.0,0.000105406514,0.0,0.0,nan,0.0,0.2879307,5.4160355e-05,0.0,0.0,0.0,0.0,0.0,0.0,0.0,0.0
79868466,0.0,3.764518e-05,0.0,3.7948928e-07,0.02150044,0.0,0.0,0.28507036,0.0,0.0,3.3980443e-11,0.0,nan,nan,nan,nan,nan,nan,0.0,1.1468937e-05,0.0,0.0,nan,0.0,0.28507036,9.697991e-05,0.0,0.0,0.0,0.0,0.0,0.0,0.0,0.0
80858960,0.0,3.7496568e-05,0.0,3.395745e-07,0.021828175,0.0,0.0,0.29222077,0.0,0.0,3.3873303e-11,0.0,nan,nan,nan,nan,nan,nan,0.0,4.6457746e-05,0.0,0.0,nan,0.0,0.29222077,0.000115274,0.0,0.0,0.0,0.0,0.0,0.0,0.0,0.0
81059077,0.0,3.7498856e-05,0.0,3.3555992e-07,0.021717288,0.0,0.0,0.28982714,0.0,0.0,3.386455e-11,0.0,nan,nan,nan,nan,nan,nan,0.0,0.0001078766,0.0,0.0,nan,0.0,0.28982714,0.00015428878,0.0,0.0,0.0,0.0,0.0,0.0,0.0,0.0
81859469,0.0,3.7386453e-05,0.0,3.5039997e-07,0.021627633,0.0,0.0,0.28761557,0.0,0.0,3.378743e-11,0.0,nan,nan,nan,nan,nan,nan,0.0,0.00010168472,0.0,0.0,nan,0.0,0.28761557,0.000107076645,0.0,0.0,0.0,0.0,0.0,0.0,0.0,0.0
82059574,0.0,3.739051e-05,0.0,3.608242e-07,0.021531174,0.0,0.0,0.28545678,0.0,0.0,3.3780662e-11,0.0,nan,nan,nan,nan,nan,nan,0.0,4.832698e-06,0.0,0.0,nan,0.0,0.28545678,9.220734e-05,0.0,0.0,0.0,0.0,0.0,0.0,0.0,0.0
82259668,0.0,3.7332622e-05,0.0,3.7314078e-07,0.021750582,0.0,0.0,0.29005465,0.0,0.0,3.375139e-11,0.0,nan,nan,nan,nan,nan,nan,0.0,1.3827507e-07,0.0,0.0,nan,0.0,0.29005465,8.923569e-05,0.0,0.0,0.0,0.0,0.0,0.0,0.0,0.0
82459790,0.0,3.7337304e-05,0.0,3.864358e-07,0.021649536,0.0,0.0,0.2878317,0.0,0.0,3.3745416e-11,0.0,nan,nan,nan,nan,nan,nan,0.0,2.6769278e-05,0.0,0.0,nan,0.0,0.2878317,0.00010645828,0.0,0.0,0.0,0.0,0.0,0.0,0.0,0.0
82859973,0.0,3.728588e-05,0.0,4.186844e-07,0.021743236,0.0,0.0,0.28989312,0.0,0.0,3.3711808e-11,0.0,nan,nan,nan,nan,nan,nan,0.0,0.00012928565,0.0,0.0,nan,0.0,0.28989312,4.772114e-05,0.0,0.0,0.0,0.0,0.0,0.0,0.0,0.0
83660381,0.0,3.7187387e-05,0.0,4.969196e-07,0.02162856,0.0,0.0,0.28741804,0.0,0.0,3.364903e-11,0.0,nan,nan,nan,nan,nan,nan,0.0,1.2872839e-05,0.0,0.0,nan,0.0,0.28741804,7.363689e-05,0.0,0.0,0.0,0.0,0.0,0.0,0.0,0.0
84460789,0.0,3.7094178e-05,0.0,6.1284317e-07,0.021806205,0.0,0.0,0.29138452,0.0,0.0,3.3591657e-11,0.0,nan,nan,nan,nan,nan,nan,0.0,1.8514e-05,0.0,0.0,nan,0.0,0.29138452,6.4037165e-05,0.0,0.0,0.0,0.0,0.0,0.0,0.0,0.0
84660887,0.0,3.7041158e-05,0.0,6.49963e-07,0.021696564,0.0,0.0,0.28902403,0.0,0.0,3.3566934e-11,0.0,nan,nan,nan,nan,nan,nan,0.0,1.2091483e-05,0.0,0.0,nan,0.0,0.28902403,3.4732024e-05,0.0,0.0,0.0,0.0,0.0,0.0,0.0,0.0
85061090,0.0,3.699748e-05,0.0,7.1820955e-07,0.02178956,0.0,0.0,0.29105544,0.0,0.0,3.354095e-11,0.0,nan,nan,nan,nan,nan,nan,0.0,0.00011035208,0.0,0.0,nan,0.0,0.29105544,3.3389755e-05,0.0,0.0,0.0,0.0,0.0,0.0,0.0,0.0
85261192,0.0,3.7006615e-05,0.0,7.51495e-07,0.0216781,0.0,0.0,0.2886693,0.0,0.0,3.3539543e-11,0.0,nan,nan,nan,nan,nan,nan,0.0,6.28542e-06,0.0,0.0,nan,0.0,0.2886693,5.2961703e-05,0.0,0.0,0.0,0.0,0.0,0.0,0.0,0.0
85461300,0.0,3.7016052e-05,0.0,7.8635077e-07,0.021570385,0.0,0.0,0.28634772,0.0,0.0,3.3538387e-11,0.0,nan,nan,nan,nan,nan,nan,0.0,0.00016241572,0.0,0.0,nan,0.0,0.28634772,2.664528e-05,0.0,0.0,0.0,0.0,0.0,0.0,0.0,0.0
85661404,0.0,3.6964662e-05,0.0,8.23329e-07,0.021783387,0.0,0.0,0.29086173,0.0,0.0,3.3515128e-11,0.0,nan,nan,nan,nan,nan,nan,0.0,1.7813381e-05,0.0,0.0,nan,0.0,0.29086173,4.7449194e-05,0.0,0.0,0.0,0.0,0.0,0.0,0.0,0.0
85861502,0.0,3.6974376e-05,0.0,8.574893e-07,0.021681558,0.0,0.0,0.28861034,0.0,0.0,3.3514393e-11,0.0,nan,nan,nan,nan,nan,nan,0.0,6.9036505e-05,0.0,0.0,nan,0.0,0.28861034,4.5687415e-05,0.0,0.0,0.0,0.0,0.0,0.0,0.0,0.0
86061603,0.0,3.6923437e-05,0.0,8.8964e-07,0.021573985,0.0,0.0,0.28629932,0.0,0.0,3.3491657e-11,0.0,nan,nan,nan,nan,nan,nan,0.0,9.738015e-06,0.0,0.0,nan,0.0,0.28629932,1.4600657e-05,0.0,0.0,0.0,0.0,0.0,0.0,0.0,0.0
86261705,0.0,3.6933772e-05,0.0,9.212146e-07,0.021784998,0.0,0.0,0.29079172,0.0,0.0,3.3491487e-11,0.0,nan,nan,nan,nan,nan,nan,0.0,8.652799e-07,0.0,0.0,nan,0.0,0.29079172,2.7680031e-05,0.0,0.0,0.0,0.0,0.0,0.0,0.0,0.0
86461804,0.0,3.6883524e-05,0.0,9.5336867e-07,0.021668682,0.0,0.0,0.28835094,0.0,0.0,3.3469266e-11,0.0,nan,nan,nan,nan,nan,nan,0.0,2.1250626e-05,0.0,0.0,nan,0.0,0.28835094,4.6059882e-05,0.0,0.0,0.0,0.0,0.0,0.0,0.0,0.0
87262220,0.0,3.6867325e-05,0.0,1.095578e-06,0.021858402,0.0,0.0,0.29247597,0.0,0.0,3.344938e-11,0.0,nan,nan,nan,nan,nan,nan,0.0,0.00036100045,0.0,0.0,nan,0.0,0.29247597,3.1404932e-05,0.0,0.0,0.0,0.0,0.0,0.0,0.0,0.0
87462318,0.0,3.681834e-05,0.0,1.1388848e-06,0.021745618,0.0,0.0,0.29006448,0.0,0.0,3.3428343e-11,0.0,nan,nan,nan,nan,nan,nan,0.0,1.4133927e-05,0.0,0.0,nan,0.0,0.29006448,2.005459e-05,0.0,0.0,0.0,0.0,0.0,0.0,0.0,0.0
87662419,0.0,3.6830104e-05,0.0,1.1828062e-06,0.02163465,0.0,0.0,0.28769144,0.0,0.0,3.342956e-11,0.0,nan,nan,nan,nan,nan,nan,0.0,1.333237e-05,0.0,0.0,nan,0.0,0.28769144,2.885871e-05,0.0,0.0,0.0,0.0,0.0,0.0,0.0,0.0
87862519,0.0,3.6781603e-05,0.0,1.2210712e-06,0.021527389,0.0,0.0,0.28538296,0.0,0.0,3.340889e-11,0.0,nan,nan,nan,nan,nan,nan,0.0,1.1530003e-05,0.0,0.0,nan,0.0,0.28538296,7.3153424e-05,0.0,0.0,0.0,0.0,0.0,0.0,0.0,0.0
88062621,0.0,3.67939e-05,0.0,1.2525627e-06,0.021740867,0.0,0.0,0.28989294,0.0,0.0,3.3410556e-11,0.0,nan,nan,nan,nan,nan,nan,0.0,1.4507344e-07,0.0,0.0,nan,0.0,0.28989294,7.385267e-06,0.0,0.0,0.0,0.0,0.0,0.0,0.0,0.0
88462826,0.0,3.6758796e-05,0.0,1.3071192e-06,0.021829499,0.0,0.0,0.29187366,0.0,0.0,3.3392514e-11,0.0,nan,nan,nan,nan,nan,nan,0.0,5.4280135e-06,0.0,0.0,nan,0.0,0.29187366,3.0797946e-05,0.0,0.0,0.0,0.0,0.0,0.0,0.0,0.0
88662931,0.0,3.67116e-05,0.0,1.3371812e-06,0.02171246,0.0,0.0,0.28940588,0.0,0.0,3.3372888e-11,0.0,nan,nan,nan,nan,nan,nan,0.0,1.8453915e-05,0.0,0.0,nan,0.0,0.28940588,3.717609e-05,0.0,0.0,0.0,0.0,0.0,0.0,0.0,0.0
89263280,0.0,3.6692196e-05,0.0,1.4095168e-06,0.02169814,0.0,0.0,0.2890877,0.0,0.0,3.3359177e-11,0.0,nan,nan,nan,nan,nan,nan,0.0,5.4180935e-05,0.0,0.0,nan,0.0,0.2890877,5.2138017e-05,0.0,0.0,0.0,0.0,0.0,0.0,0.0,0.0
89463341,0.0,3.6646226e-05,0.0,1.4300531e-06,0.02159401,0.0,0.0,0.28680834,0.0,0.0,3.3340483e-11,0.0,nan,nan,nan,nan,nan,nan,0.0,4.9497026e-05,0.0,0.0,nan,0.0,0.28680834,4.4279273e-05,0.0,0.0,0.0,0.0,0.0,0.0,0.0,0.0
89663464,0.0,3.6660498e-05,0.0,1.4487298e-06,0.021492867,0.0,0.0,0.28458622,0.0,0.0,3.3343817e-11,0.0,nan,nan,nan,nan,nan,nan,0.0,6.876646e-05,0.0,0.0,nan,0.0,0.28458622,3.0596293e-05,0.0,0.0,0.0,0.0,0.0,0.0,0.0,0.0
89863543,0.0,3.667503e-05,0.0,1.4647686e-06,0.021708075,0.0,0.0,0.28911176,0.0,0.0,3.3347256e-11,0.0,nan,nan,nan,nan,nan,nan,0.0,1.4863413e-05,0.0,0.0,nan,0.0,0.28911176,4.4264973e-05,0.0,0.0,0.0,0.0,0.0,0.0,0.0,0.0
91064183,0.0,3.6587233e-05,0.0,1.4869518e-06,0.021740364,0.0,0.0,0.28945056,0.0,0.0,3.3306424e-11,0.0,nan,nan,nan,nan,nan,nan,0.0,4.3068143e-05,0.0,0.0,nan,0.0,0.28945056,5.208108e-05,0.0,0.0,0.0,0.0,0.0,0.0,0.0,0.0
91464367,0.0,3.6559562e-05,0.0,1.4491138e-06,0.021541638,0.0,0.0,0.28511113,0.0,0.0,3.3294128e-11,0.0,nan,nan,nan,nan,nan,nan,0.0,1.072084e-06,0.0,0.0,nan,0.0,0.28511113,2.4085495e-05,0.0,0.0,0.0,0.0,0.0,0.0,0.0,0.0
91864585,0.0,3.6533052e-05,0.0,1.3906865e-06,0.02165012,0.0,0.0,0.28740808,0.0,0.0,3.32825e-11,0.0,nan,nan,nan,nan,nan,nan,0.0,1.834977e-05,0.0,0.0,nan,0.0,0.28740808,5.5843215e-05,0.0,0.0,0.0,0.0,0.0,0.0,0.0,0.0
92264810,0.0,3.65072e-05,0.0,1.3253905e-06,0.021748248,0.0,0.0,0.28958344,0.0,0.0,3.3271507e-11,0.0,nan,nan,nan,nan,nan,nan,0.0,8.274992e-06,0.0,0.0,nan,0.0,0.28958344,0.00010493272,0.0,0.0,0.0,0.0,0.0,0.0,0.0,0.0
92464895,0.0,3.646504e-05,0.0,1.292487e-06,0.021636898,0.0,0.0,0.28725243,0.0,0.0,3.3255423e-11,0.0,nan,nan,nan,nan,nan,nan,0.0,3.0256704e-05,0.0,0.0,nan,0.0,0.28725243,2.1813852e-05,0.0,0.0,0.0,0.0,0.0,0.0,0.0,0.0
92865086,0.0,3.6440368e-05,0.0,1.2299456e-06,0.021732775,0.0,0.0,0.2893876,0.0,0.0,3.324515e-11,0.0,nan,nan,nan,nan,nan,nan,0.0,3.0306628e-05,0.0,0.0,nan,0.0,0.2893876,5.9310813e-05,0.0,0.0,0.0,0.0,0.0,0.0,0.0,0.0
93065194,0.0,3.6457906e-05,0.0,1.1957793e-06,0.021620812,0.0,0.0,0.28704354,0.0,0.0,3.3250964e-11,0.0,nan,nan,nan,nan,nan,nan,0.0,0.00073988514,0.0,0.0,nan,0.0,0.28704354,3.8300735e-05,0.0,0.0,0.0,0.0,0.0,0.0,0.0,0.0
93465404,0.0,3.643426e-05,0.0,1.1177539e-06,0.021721836,0.0,0.0,0.28923443,0.0,0.0,3.324148e-11,0.0,nan,nan,nan,nan,nan,nan,0.0,0.00019716551,0.0,0.0,nan,0.0,0.28923443,5.1788975e-05,0.0,0.0,0.0,0.0,0.0,0.0,0.0,0.0
93665527,0.0,3.639325e-05,0.0,1.0798798e-06,0.02161521,0.0,0.0,0.2869596,0.0,0.0,3.322616e-11,0.0,nan,nan,nan,nan,nan,nan,0.0,0.0001752078,0.0,0.0,nan,0.0,0.2869596,7.033698e-05,0.0,0.0,0.0,0.0,0.0,0.0,0.0,0.0
94065708,0.0,3.637106e-05,0.0,9.965505e-07,0.021718679,0.0,0.0,0.28918442,0.0,0.0,3.3217446e-11,0.0,nan,nan,nan,nan,nan,nan,0.0,0.00015412978,0.0,0.0,nan,0.0,0.28918442,0.000101551515,0.0,0.0,0.0,0.0,0.0,0.0,0.0,0.0
94465912,0.0,3.634963e-05,0.0,9.270084e-07,0.02182195,0.0,0.0,0.29141608,0.0,0.0,3.3209165e-11,0.0,nan,nan,nan,nan,nan,nan,0.0,2.5686812e-05,0.0,0.0,nan,0.0,0.29141608,8.255043e-05,0.0,0.0,0.0,0.0,0.0,0.0,0.0,0.0
94666019,0.0,3.636871e-05,0.0,8.926961e-07,0.021715103,0.0,0.0,0.2891245,0.0,0.0,3.3215906e-11,0.0,nan,nan,nan,nan,nan,nan,0.0,3.2497471e-06,0.0,0.0,nan,0.0,0.2891245,7.395164e-05,0.0,0.0,0.0,0.0,0.0,0.0,0.0,0.0
94866120,0.0,3.6328885e-05,0.0,8.6271444e-07,0.021613436,0.0,0.0,0.28691635,0.0,0.0,3.3201372e-11,0.0,nan,nan,nan,nan,nan,nan,0.0,1.0560241e-05,0.0,0.0,nan,0.0,0.28691635,2.1121317e-05,0.0,0.0,0.0,0.0,0.0,0.0,0.0,0.0
95066248,0.0,3.6348192e-05,0.0,8.381578e-07,0.021514233,0.0,0.0,0.2847572,0.0,0.0,3.32083e-11,0.0,nan,nan,nan,nan,nan,nan,0.0,5.254274e-06,0.0,0.0,nan,0.0,0.2847572,1.6169046e-05,0.0,0.0,0.0,0.0,0.0,0.0,0.0,0.0
95466436,0.0,3.6328456e-05,0.0,7.90526e-07,0.021636704,0.0,0.0,0.28723738,0.0,0.0,3.320118e-11,0.0,nan,nan,nan,nan,nan,nan,0.0,6.0812803e-05,0.0,0.0,nan,0.0,0.28723738,7.404931e-05,0.0,0.0,0.0,0.0,0.0,0.0,0.0,0.0
96066741,0.0,3.627125e-05,0.0,7.3613455e-07,0.021668527,0.0,0.0,0.2877136,0.0,0.0,3.3180673e-11,0.0,nan,nan,nan,nan,nan,nan,0.0,0.00049701525,0.0,0.0,nan,0.0,0.2877136,4.507823e-05,0.0,0.0,0.0,0.0,0.0,0.0,0.0,0.0
96266845,0.0,3.629173e-05,0.0,7.236535e-07,0.021577492,0.0,0.0,0.2856886,0.0,0.0,3.3188265e-11,0.0,nan,nan,nan,nan,nan,nan,0.0,0.00037358215,0.0,0.0,nan,0.0,0.2856886,3.0263316e-05,0.0,0.0,0.0,0.0,0.0,0.0,0.0,0.0
96466950,0.0,3.6253507e-05,0.0,7.119178e-07,0.021485554,0.0,0.0,0.2836687,0.0,0.0,3.3174553e-11,0.0,nan,nan,nan,nan,nan,nan,0.0,3.2301192e-05,0.0,0.0,nan,0.0,0.2836687,2.785103e-05,0.0,0.0,0.0,0.0,0.0,0.0,0.0,0.0
96867156,0.0,3.623637e-05,0.0,6.8542687e-07,0.021620138,0.0,0.0,0.2863753,0.0,0.0,3.3168725e-11,0.0,nan,nan,nan,nan,nan,nan,0.0,4.261209e-05,0.0,0.0,nan,0.0,0.2863753,4.5235312e-05,0.0,0.0,0.0,0.0,0.0,0.0,0.0,0.0
97067263,0.0,3.6257283e-05,0.0,6.7325004e-07,0.021529075,0.0,0.0,0.28438222,0.0,0.0,3.3176607e-11,0.0,nan,nan,nan,nan,nan,nan,0.0,0.00014621264,0.0,0.0,nan,0.0,0.28438222,5.7535624e-05,0.0,0.0,0.0,0.0,0.0,0.0,0.0,0.0
97267366,0.0,3.6278452e-05,0.0,6.6172026e-07,0.021441065,0.0,0.0,0.28244618,0.0,0.0,3.3184556e-11,0.0,nan,nan,nan,nan,nan,nan,0.0,0.000104138206,0.0,0.0,nan,0.0,0.28244618,6.108712e-05,0.0,0.0,0.0,0.0,0.0,0.0,0.0,0.0
97667571,0.0,3.6262445e-05,0.0,6.382946e-07,0.021577887,0.0,0.0,0.2852202,0.0,0.0,3.317929e-11,0.0,nan,nan,nan,nan,nan,nan,0.0,2.7737096e-06,0.0,0.0,nan,0.0,0.2852202,6.841782e-05,0.0,0.0,0.0,0.0,0.0,0.0,0.0,0.0
97867683,0.0,3.6225185e-05,0.0,6.297603e-07,0.021489587,0.0,0.0,0.28329545,0.0,0.0,3.316609e-11,0.0,nan,nan,nan,nan,nan,nan,0.0,3.07682e-05,0.0,0.0,nan,0.0,0.28329545,7.95088e-05,0.0,0.0,0.0,0.0,0.0,0.0,0.0,0.0
98267887,0.0,3.6209465e-05,0.0,6.197494e-07,0.021627821,0.0,0.0,0.2861271,0.0,0.0,3.3161113e-11,0.0,nan,nan,nan,nan,nan,nan,0.0,0.00010341843,0.0,0.0,nan,0.0,0.2861271,0.00012147336,0.0,0.0,0.0,0.0,0.0,0.0,0.0,0.0
98668091,0.0,3.6252753e-05,0.0,6.201429e-07,0.02175742,0.0,0.0,0.28888208,0.0,0.0,3.317754e-11,0.0,nan,nan,nan,nan,nan,nan,0.0,9.024741e-06,0.0,0.0,nan,0.0,0.28888208,4.4801465e-05,0.0,0.0,0.0,0.0,0.0,0.0,0.0,0.0
98858201,0.0,3.624706e-05,0.0,6.209142e-07,0.02160158,0.0,0.0,0.2855966,0.0,0.0,3.3175757e-11,0.0,nan,nan,nan,nan,nan,nan,0.0,0.0001804449,0.0,0.0,nan,0.0,0.2855966,0.00011912049,0.0,0.0,0.0,0.0,0.0,0.0,0.0,0.0
99268407,0.0,3.620151e-05,0.0,6.1928466e-07,0.021783357,0.0,0.0,0.28952107,0.0,0.0,3.315985e-11,0.0,nan,nan,nan,nan,nan,nan,0.0,5.0806335e-05,0.0,0.0,nan,0.0,0.28952107,0.00016849204,0.0,0.0,0.0,0.0,0.0,0.0,0.0,0.0
101059375,0.0,3.614264e-05,0.0,6.1548496e-07,0.02176383,0.0,0.0,0.2896231,0.0,0.0,3.3142752e-11,0.0,nan,nan,nan,nan,nan,nan,0.0,0.00014421224,0.0,0.0,nan,0.0,0.2896231,0.00016583102,0.0,0.0,0.0,0.0,0.0,0.0,0.0,0.0
101259446,0.0,3.6165613e-05,0.0,6.147782e-07,0.021646978,0.0,0.0,0.28729224,0.0,0.0,3.3151634e-11,0.0,nan,nan,nan,nan,nan,nan,0.0,1.3522268e-05,0.0,0.0,nan,0.0,0.28729224,0.00011266142,0.0,0.0,0.0,0.0,0.0,0.0,0.0,0.0
101459564,0.0,3.6130463e-05,0.0,6.15437e-07,0.021852408,0.0,0.0,0.29180527,0.0,0.0,3.3139345e-11,0.0,nan,nan,nan,nan,nan,nan,0.0,0.0002973273,0.0,0.0,nan,0.0,0.29180527,0.00022038598,0.0,0.0,0.0,0.0,0.0,0.0,0.0,0.0
102860292,0.0,3.6119265e-05,0.0,5.983996e-07,0.021714743,0.0,0.0,0.28938645,0.0,0.0,3.313908e-11,0.0,nan,nan,nan,nan,nan,nan,0.0,3.1035157e-07,0.0,0.0,nan,0.0,0.28938645,0.00015540364,0.0,0.0,0.0,0.0,0.0,0.0,0.0,0.0
103060404,0.0,3.6142872e-05,0.0,5.8991424e-07,0.021610001,0.0,0.0,0.28715903,0.0,0.0,3.3148224e-11,0.0,nan,nan,nan,nan,nan,nan,0.0,2.842574e-06,0.0,0.0,nan,0.0,0.28715903,0.00023197226,0.0,0.0,0.0,0.0,0.0,0.0,0.0,0.0
103860810,0.0,3.6121983e-05,0.0,5.834184e-07,0.021787979,0.0,0.0,0.29126796,0.0,0.0,3.3142836e-11,0.0,nan,nan,nan,nan,nan,nan,0.0,4.1431966e-05,0.0,0.0,nan,0.0,0.29126796,0.00016348728,0.0,0.0,0.0,0.0,0.0,0.0,0.0,0.0
104060913,0.0,3.60879e-05,0.0,5.9035904e-07,0.021673614,0.0,0.0,0.28886822,0.0,0.0,3.313094e-11,0.0,nan,nan,nan,nan,nan,nan,0.0,4.0586306e-06,0.0,0.0,nan,0.0,0.28886822,0.000188592,0.0,0.0,0.0,0.0,0.0,0.0,0.0,0.0
104461130,0.0,3.607793e-05,0.0,6.116655e-07,0.021778584,0.0,0.0,0.2910965,0.0,0.0,3.3128302e-11,0.0,nan,nan,nan,nan,nan,nan,0.0,4.0389572e-05,0.0,0.0,nan,0.0,0.2910965,0.00013494313,0.0,0.0,0.0,0.0,0.0,0.0,0.0,0.0
104861338,0.0,3.6068202e-05,0.0,6.3007735e-07,0.021556728,0.0,0.0,0.2863851,0.0,0.0,3.312575e-11,0.0,nan,nan,nan,nan,nan,nan,0.0,1.8871651e-05,0.0,0.0,nan,0.0,0.2863851,0.0002450567,0.0,0.0,0.0,0.0,0.0,0.0,0.0,0.0
105661774,0.0,3.610717e-05,0.0,6.930666e-07,0.021773627,0.0,0.0,0.2908811,0.0,0.0,3.3141937e-11,0.0,nan,nan,nan,nan,nan,nan,0.0,5.3010695e-05,0.0,0.0,nan,0.0,0.2908811,6.0972103e-05,0.0,0.0,0.0,0.0,0.0,0.0,0.0,0.0
105861863,0.0,3.607344e-05,0.0,7.08666e-07,0.02166688,0.0,0.0,0.28857234,0.0,0.0,3.313014e-11,0.0,nan,nan,nan,nan,nan,nan,0.0,9.935473e-06,0.0,0.0,nan,0.0,0.28857234,0.00017317948,0.0,0.0,0.0,0.0,0.0,0.0,0.0,0.0
107062496,0.0,3.6104568e-05,0.0,8.1599586e-07,0.02168114,0.0,0.0,0.28862974,0.0,0.0,3.3144324e-11,0.0,nan,nan,nan,nan,nan,nan,0.0,2.8472863e-05,0.0,0.0,nan,0.0,0.28862974,0.00011772411,0.0,0.0,0.0,0.0,0.0,0.0,0.0,0.0
107262611,0.0,3.6071073e-05,0.0,8.2960133e-07,0.021577153,0.0,0.0,0.2863796,0.0,0.0,3.313256e-11,0.0,nan,nan,nan,nan,nan,nan,0.0,9.768422e-05,0.0,0.0,nan,0.0,0.2863796,0.00014242486,0.0,0.0,0.0,0.0,0.0,0.0,0.0,0.0
107462705,0.0,3.6095666e-05,0.0,8.4638054e-07,0.021791743,0.0,0.0,0.2909326,0.0,0.0,3.314196e-11,0.0,nan,nan,nan,nan,nan,nan,0.0,0.00018617974,0.0,0.0,nan,0.0,0.2909326,0.00018952027,0.0,0.0,0.0,0.0,0.0,0.0,0.0,0.0
107662817,0.0,3.606227e-05,0.0,8.6342095e-07,0.021688668,0.0,0.0,0.2886848,0.0,0.0,3.3130217e-11,0.0,nan,nan,nan,nan,nan,nan,0.0,1.946623e-05,0.0,0.0,nan,0.0,0.2886848,0.00015981727,0.0,0.0,0.0,0.0,0.0,0.0,0.0,0.0
108063026,0.0,3.6053636e-05,0.0,8.92822e-07,0.021804081,0.0,0.0,0.2910669,0.0,0.0,3.312791e-11,0.0,nan,nan,nan,nan,nan,nan,0.0,8.867128e-05,0.0,0.0,nan,0.0,0.2910669,0.00022636814,0.0,0.0,0.0,0.0,0.0,0.0,0.0,0.0
108263135,0.0,3.6078418e-05,0.0,9.0854047e-07,0.021697763,0.0,0.0,0.28878236,0.0,0.0,3.3137326e-11,0.0,nan,nan,nan,nan,nan,nan,0.0,4.1569412e-05,0.0,0.0,nan,0.0,0.28878236,0.00023201019,0.0,0.0,0.0,0.0,0.0,0.0,0.0,0.0
108463240,0.0,3.6045214e-05,0.0,9.2878054e-07,0.021592367,0.0,0.0,0.28652373,0.0,0.0,3.312562e-11,0.0,nan,nan,nan,nan,nan,nan,0.0,0.00013773762,0.0,0.0,nan,0.0,0.28652373,0.00028367658,0.0,0.0,0.0,0.0,0.0,0.0,0.0,0.0
109063555,0.0,3.6061618e-05,0.0,1.0013947e-06,0.021605559,0.0,0.0,0.28669307,0.0,0.0,3.3132875e-11,0.0,nan,nan,nan,nan,nan,nan,0.0,2.646505e-07,0.0,0.0,nan,0.0,0.28669307,0.00019587971,0.0,0.0,0.0,0.0,0.0,0.0,0.0,0.0
110264198,0.0,3.603845e-05,0.0,1.0921375e-06,0.021622896,0.0,0.0,0.28695023,0.0,0.0,3.3126984e-11,0.0,nan,nan,nan,nan,nan,nan,0.0,4.356159e-05,0.0,0.0,nan,0.0,0.28695023,0.00011903255,0.0,0.0,0.0,0.0,0.0,0.0,0.0,0.0
110664420,0.0,3.6031655e-05,0.0,1.1052425e-06,0.021748431,0.0,0.0,0.2895062,0.0,0.0,3.312541e-11,0.0,nan,nan,nan,nan,nan,nan,0.0,4.3514665e-05,0.0,0.0,nan,0.0,0.2895062,8.990749e-05,0.0,0.0,0.0,0.0,0.0,0.0,0.0,0.0
111064633,0.0,3.602481e-05,0.0,1.1079677e-06,0.021560453,0.0,0.0,0.28536546,0.0,0.0,3.3123854e-11,0.0,nan,nan,nan,nan,nan,nan,0.0,0.0003428335,0.0,0.0,nan,0.0,0.28536546,0.00016597749,0.0,0.0,0.0,0.0,0.0,0.0,0.0,0.0
112265260,0.0,3.6006306e-05,0.0,1.1047852e-06,0.021646528,0.0,0.0,0.2868045,0.0,0.0,3.3119823e-11,0.0,nan,nan,nan,nan,nan,nan,0.0,1.4339258e-06,0.0,0.0,nan,0.0,0.2868045,0.00010014629,0.0,0.0,0.0,0.0,0.0,0.0,0.0,0.0
112665478,0.0,3.6000867e-05,0.0,1.0966913e-06,0.021470254,0.0,0.0,0.2829435,0.0,0.0,3.311873e-11,0.0,nan,nan,nan,nan,nan,nan,0.0,3.7460766e-05,0.0,0.0,nan,0.0,0.2829435,0.00010367105,0.0,0.0,0.0,0.0,0.0,0.0,0.0,0.0
113265830,0.0,3.596418e-05,0.0,1.0352447e-06,0.021517957,0.0,0.0,0.283829,0.0,0.0,3.310668e-11,0.0,nan,nan,nan,nan,nan,nan,0.0,4.2309115e-05,0.0,0.0,nan,0.0,0.283829,0.00014254401,0.0,0.0,0.0,0.0,0.0,0.0,0.0,0.0
113465930,0.0,3.599062e-05,0.0,1.0073892e-06,0.021742407,0.0,0.0,0.28857982,0.0,0.0,3.3116766e-11,0.0,nan,nan,nan,nan,nan,nan,0.0,1.4976557e-08,0.0,0.0,nan,0.0,0.28857982,8.026865e-05,0.0,0.0,0.0,0.0,0.0,0.0,0.0,0.0
114266338,0.0,3.598105e-05,0.0,9.2175424e-07,0.02167777,0.0,0.0,0.28728154,0.0,0.0,3.311493e-11,0.0,nan,nan,nan,nan,nan,nan,0.0,4.30771e-05,0.0,0.0,nan,0.0,0.28728154,0.00013196065,0.0,0.0,0.0,0.0,0.0,0.0,0.0,0.0
114666550,0.0,3.5976325e-05,0.0,9.2074595e-07,0.021484494,0.0,0.0,0.28325218,0.0,0.0,3.3114005e-11,0.0,nan,nan,nan,nan,nan,nan,0.0,2.8149574e-05,0.0,0.0,nan,0.0,0.28325218,8.095964e-05,0.0,0.0,0.0,0.0,0.0,0.0,0.0,0.0
115266876,0.0,3.599835e-05,0.0,9.145324e-07,0.021518672,0.0,0.0,0.2840071,0.0,0.0,3.3123164e-11,0.0,nan,nan,nan,nan,nan,nan,0.0,1.4682225e-06,0.0,0.0,nan,0.0,0.2840071,0.00016954604,0.0,0.0,0.0,0.0,0.0,0.0,0.0,0.0
115467013,0.0,3.5967223e-05,0.0,9.1279657e-07,0.021739487,0.0,0.0,0.2887205,0.0,0.0,3.3112138e-11,0.0,nan,nan,nan,nan,nan,nan,0.0,0.000126495,0.0,0.0,nan,0.0,0.2887205,0.00012839856,0.0,0.0,0.0,0.0,0.0,0.0,0.0,0.0
115867198,0.0,3.5962832e-05,0.0,9.10704e-07,0.021552725,0.0,0.0,0.2847702,0.0,0.0,3.3111253e-11,0.0,nan,nan,nan,nan,nan,nan,0.0,0.00014517814,0.0,0.0,nan,0.0,0.2847702,9.1245834e-05,0.0,0.0,0.0,0.0,0.0,0.0,0.0,0.0
116267415,0.0,3.5958645e-05,0.0,9.106944e-07,0.021686008,0.0,0.0,0.28759164,0.0,0.0,3.3110414e-11,0.0,nan,nan,nan,nan,nan,nan,0.0,3.4378805e-05,0.0,0.0,nan,0.0,0.28759164,0.00017839971,0.0,0.0,0.0,0.0,0.0,0.0,0.0,0.0
