timestamp,indicated_airspeed_m_s,true_airspeed_m_s,air_temperature_celsius,confidence
2950136,-3.5327291,-3.6264255,26.843035,1.0
2960954,-3.5318978,-3.625555,26.840176,1.0
3015158,-3.559602,-3.6542256,26.874477,1.0
3025989,-3.5647886,-3.6594887,26.864473,1.0
3036997,-3.5682418,-3.6629903,26.857327,1.0
3047753,-3.5691128,-3.663867,26.85447,1.0
3058539,-3.5621076,-3.6568818,26.883053,1.0
3069477,-3.5438378,-3.6379526,26.85447,1.0
3080249,-3.5176811,-3.6111872,26.868761,1.0
3091026,-3.4864926,-3.579144,26.864473,1.0
3102018,-3.450735,-3.5424416,26.861614,1.0
3112778,-3.4112709,-3.5018952,26.855898,1.0
3123554,-3.3693168,-3.4587193,26.837318,1.0
3145291,-3.284713,-3.3720555,26.87019,1.0
3156035,-3.2458937,-3.3321726,26.864473,1.0
3166998,-3.2120576,-3.2971885,26.823025,1.0
3177860,-3.1844432,-3.2690136,26.85447,1.0
3188617,-3.1627295,-3.247128,26.929304,1.0
3199548,-3.1468265,-3.2308161,26.932163,1.0
3210316,-3.1364148,-3.2201955,26.945026,1.0
3221050,-3.130267,-3.213907,26.946455,1.0
3232012,-3.1296024,-3.2132707,26.95503,1.0
3275393,-3.1351795,-3.2188444,26.923588,1.0
3286130,-3.1319346,-3.2155054,26.92216,1.0
3297039,-3.1243074,-3.2071526,26.824455,1.0
3307821,-3.114948,-3.1975598,26.827312,1.0
3318630,-3.1097343,-3.1922386,26.83303,1.0
3329591,-3.1081436,-3.190548,26.824455,1.0
3340372,-3.1082208,-3.190635,26.825884,1.0
3351149,-3.1119554,-3.1944377,26.820166,1.0
3362062,-3.1209495,-3.2036934,26.824455,1.0
3372894,-3.1336594,-3.2169166,26.857327,1.0
3383631,-3.14883,-3.2322745,26.817308,1.0
3394651,-3.1671798,-3.2516632,26.9193,1.0
3405464,-3.1885948,-3.2737434,26.936451,1.0
3416203,-3.2121098,-3.297776,26.916441,1.0
3427180,-3.237441,-3.3238568,26.935022,1.0
3438121,-3.2624333,-3.3494205,26.91787,1.0
3449091,-3.285462,-3.3730948,26.923588,1.0
3481627,-3.337255,-3.4262695,26.923588,1.0
3492419,-3.3495364,-3.4389312,26.935022,1.0
3503168,-3.358167,-3.4478085,26.93788,1.0
3514157,-3.3632872,-3.453016,26.929304,1.0
3524898,-3.367369,-3.4571903,26.926447,1.0
3535685,-3.3708425,-3.460817,26.926447,1.0
3546753,-3.3755682,-3.4656608,26.925016,1.0
3557527,-3.3831031,-3.4734135,26.927876,1.0
3579158,-3.4052124,-3.4960964,26.925016,1.0
3589943,-3.419089,-3.5103931,26.933592,1.0
3633217,-3.4835644,-3.5765307,26.923588,1.0
3644193,-3.5003538,-3.5937595,26.92216,1.0
3687439,-3.5480223,-3.642065,26.827312,1.0
3698262,-3.559232,-3.653731,26.844463,1.0
3709258,-3.5708208,-3.6655054,26.824455,1.0
3720007,-3.5832264,-3.6782315,26.823025,1.0
3730759,-3.5951257,-3.6904638,26.825884,1.0
3741718,-3.6049962,-3.7005432,26.817308,1.0
3752510,-3.6144786,-3.7104192,26.837318,1.0
3763278,-3.6243324,-3.7205698,26.843035,1.0
3774295,-3.634175,-3.7305582,26.824455,1.0
3785106,-3.6446176,-3.741896,26.923588,1.0
3795855,-3.6560395,-3.7535782,26.916441,1.0
3806761,-3.6684887,-3.7663774,26.9193,1.0
3817599,-3.6816554,-3.7798934,26.926447,1.0
3828362,-3.6951985,-3.7937436,26.91787,1.0
3839269,-3.707187,-3.8061874,26.93931,1.0
3850015,-3.7143285,-3.8133838,26.91787,1.0
3860819,-3.7154124,-3.8146787,26.945026,1.0
3871753,-3.7087448,-3.8077512,26.932163,1.0
3882505,-3.6932883,-3.791855,26.927876,1.0
3893328,-3.6721191,-3.7701657,26.935022,1.0
3904300,-3.647733,-3.7450657,26.925016,1.0
3947550,-3.535548,-3.6299586,26.930735,1.0
3958354,-3.514468,-3.6082637,26.92216,1.0
4012577,-3.4692824,-3.5618532,26.927876,1.0
4023390,-3.4747527,-3.567452,26.925016,1.0
4034353,-3.4824333,-3.5753205,26.92216,1.0
4045141,-3.4905515,-3.583664,26.923588,1.0
4055900,-3.4970276,-3.5903983,26.93788,1.0
4066842,-3.5016384,-3.5950468,26.923588,1.0
4077600,-3.503228,-3.596719,26.923588,1.0
4099359,-3.4960916,-3.588808,26.825884,1.0
4110148,-3.4930236,-3.5856504,26.824455,1.0
4120943,-3.4931574,-3.5857875,26.824455,1.0
4131883,-3.495541,-3.5884275,26.853039,1.0
4142635,-3.4989426,-3.5918338,26.838747,1.0
4164418,-3.5092247,-3.602303,26.824455,1.0
4175215,-3.5171285,-3.6104083,26.823025,1.0
4185960,-3.5265958,-3.6202195,26.844463,1.0
4196895,-3.5353093,-3.629035,26.823025,1.0
4207660,-3.542058,-3.6359882,26.827312,1.0
4218459,-3.548741,-3.6429007,26.835888,1.0
4229431,-3.5565703,-3.6509118,26.8316,1.0
4240260,-3.5654743,-3.659989,26.827312,1.0
4251012,-3.5756426,-3.6704094,26.824455,1.0
4305198,-3.62176,-3.7186396,26.962177,1.0
4316000,-3.6256676,-3.7225366,26.943598,1.0
4327003,-3.6280124,-3.7248554,26.929304,1.0
4337770,-3.633056,-3.7301579,26.949314,1.0
4348523,-3.6400418,-3.7372246,26.929304,1.0
4359480,-3.6473882,-3.7447314,26.923588,1.0
4391992,-3.6727026,-3.770673,26.915926,1.0
4402851,-3.6814568,-3.779155,26.841606,1.0
4413608,-3.688655,-3.7864358,26.824455,1.0
4424521,-3.6930642,-3.791043,26.837318,1.0
4435281,-3.6977115,-3.7959588,26.860186,1.0
4446054,-3.7048965,-3.80328,26.85161,1.0
4489524,-3.728685,-3.828079,26.908781,1.0
4500362,-3.7298782,-3.82924,26.898775,1.0
4511154,-3.7269182,-3.8258593,26.847322,1.0
4522030,-3.7209141,-3.8202143,26.92879,1.0
4532794,-3.7099798,-3.8084712,26.847322,1.0
4543600,-3.6935313,-3.7919655,26.90735,1.0
4576104,-3.6296248,-3.7259574,26.840176,1.0
4587084,-3.6077912,-3.7040823,26.92736,1.0
4597883,-3.585017,-3.6801481,26.837318,1.0
4619588,-3.53927,-3.6336665,26.918785,1.0
4630352,-3.512917,-3.6066365,26.923073,1.0
4641131,-3.4847057,-3.5771956,26.843035,1.0
4706164,-3.356773,-3.445896,26.847322,1.0
4717209,-3.3376348,-3.426109,26.81445,1.0
4727994,-3.3246567,-3.4127383,26.805874,1.0
4738747,-3.31668,-3.4045825,26.81159,1.0
4749630,-3.3071609,-3.3954017,26.915926,1.0
4760385,-3.289769,-3.3774328,26.895916,1.0
4782125,-3.2350953,-3.320885,26.828743,1.0
4792887,-3.202215,-3.2871716,26.835888,1.0
4803698,-3.1640606,-3.2481136,26.855898,1.0
4814703,-3.1231608,-3.2059212,26.817308,1.0
4825454,-3.0865026,-3.168131,26.778719,1.0
4836217,-3.0580826,-3.139498,26.881624,1.0
4857950,-3.0146987,-3.0943549,26.764425,1.0
4868782,-3.0040996,-3.083821,26.8316,1.0
4879707,-3.0028086,-3.0827603,26.893574,1.0
4890459,-3.0081758,-3.0886233,26.962177,1.0
4901268,-3.0180922,-3.0985465,26.912153,1.0
4912198,-3.0343978,-3.1149824,26.853554,1.0
4922962,-3.0581446,-3.1398609,26.949314,1.0
4933858,-3.082629,-3.1650598,26.960749,1.0
4944778,-3.1047072,-3.187291,26.88214,1.0
5020477,-3.2797766,-3.3668458,26.850182,1.0
5031333,-3.3050358,-3.3926136,26.821596,1.0
5042281,-3.3293555,-3.4176188,26.828743,1.0
5053018,-3.3552873,-3.4441147,26.807304,1.0
5074751,-3.4061468,-3.497034,26.923588,1.0
5085510,-3.42512,-3.5169241,26.99362,1.0
5096320,-3.4407244,-3.5324335,26.906437,1.0
5107281,-3.4540534,-3.5465317,26.976469,1.0
5118042,-3.4621456,-3.554935,26.986475,1.0
5128846,-3.4659247,-3.5586035,26.950743,1.0
5139794,-3.4698846,-3.5624235,26.909294,1.0
5150560,-3.4764407,-3.5692306,26.92216,1.0
5161366,-3.4842875,-3.5776362,26.980757,1.0
5172328,-3.489512,-3.5831883,27.012201,1.0
5183119,-3.4906754,-3.5840929,26.963606,1.0
5193866,-3.4905007,-3.5837088,26.929304,1.0
5204832,-3.4886837,-3.5822272,26.99362,1.0
5215574,-3.4813209,-3.5747266,27.003626,1.0
5226377,-3.4704502,-3.5631053,26.927876,1.0
5237378,-3.4591203,-3.5516336,26.95503,1.0
5248124,-3.4470556,-3.539044,26.920729,1.0
5269944,-3.4221494,-3.5137908,26.97504,1.0
5280805,-3.4029033,-3.4940968,26.983616,1.0
5291548,-3.3781538,-3.4682877,26.915012,1.0
5367366,-3.3126721,-3.4009326,26.896431,1.0
5378184,-3.3268197,-3.4154,26.886427,1.0
5388955,-3.3474572,-3.4363902,26.853554,1.0
5410750,-3.4034204,-3.494198,26.915012,1.0
5421503,-3.4306145,-3.522478,26.976469,1.0
5432405,-3.451271,-3.5432801,26.900719,1.0
5443207,-3.466162,-3.5586445,26.913584,1.0
5453993,-3.476943,-3.5697303,26.916441,1.0
5464940,-3.486029,-3.578854,26.88214,1.0
5508241,-3.5173163,-3.6112242,26.923588,1.0
5519005,-3.516585,-3.61074,26.967894,1.0
5529940,-3.5150933,-3.6088903,26.915012,1.0
5540718,-3.514966,-3.6090257,26.959318,1.0
5551506,-3.516886,-3.6105626,26.887856,1.0
5562523,-3.5214202,-3.6156056,26.952173,1.0
5573298,-3.5281081,-3.6221702,26.90215,1.0
5584037,-3.5366795,-3.631186,26.93788,1.0
5594996,-3.5461068,-3.6409435,26.950743,1.0
5627490,-3.5671308,-3.6618848,26.849266,1.0
5638374,-3.56607,-3.6612668,26.926447,1.0
5649150,-3.5570903,-3.6524382,26.990763,1.0
5725028,-3.3669999,-3.4575074,27.03078,1.0
5735801,-3.3352911,-3.4244814,26.949314,1.0
5768531,-3.248276,-3.3351188,26.949314,1.0
5779265,-3.2256143,-3.3117726,26.935022,1.0
5790054,-3.2041078,-3.2897851,26.952173,1.0
5800853,-3.184061,-3.2694206,26.992191,1.0
5811623,-3.1609194,-3.2456276,26.986475,1.0
5822558,-3.1300092,-3.2135522,26.923588,1.0
5833316,-3.0942001,-3.1766822,26.900719,1.0
5844134,-3.0532591,-3.134911,26.950743,1.0
5855101,-3.004108,-3.0842912,26.920729,1.0
5865843,-2.9508884,-3.0289993,26.791582,1.0
5876664,-2.9007175,-2.9776318,26.81588,1.0
5887592,-2.8560135,-2.931666,26.800158,1.0
5898400,-2.8147888,-2.889693,26.87162,1.0
5909207,-2.7767162,-2.8503902,26.825884,1.0
5920121,-2.7439551,-2.8171756,26.914497,1.0
5930867,-2.7173955,-2.7895012,26.817308,1.0
5941674,-2.6993,-2.7710114,26.835888,1.0
5952618,-2.693092,-2.764691,26.847322,1.0
5963431,-2.69957,-2.7712553,26.828743,1.0
5974193,-2.7152448,-2.7873929,26.838747,1.0
6060981,-2.9644682,-3.0433793,26.868761,1.0
6071739,-2.9951777,-3.0747013,26.828743,1.0
6082658,-3.0330563,-3.113348,26.783007,1.0
6115276,-3.1669703,-3.251172,26.847322,1.0
6126016,-3.2087479,-3.2939107,26.820166,1.0
6136759,-3.249401,-3.33585,26.857327,1.0
6147695,-3.2884965,-3.3757925,26.823025,1.0
6158444,-3.3265445,-3.4148736,26.8316,1.0
6169262,-3.3637085,-3.4530573,26.837318,1.0
6180288,-3.3992584,-3.4895847,26.843035,1.0
6191110,-3.4326372,-3.523884,26.848751,1.0
6201849,-3.463478,-3.5555756,26.850182,1.0
6212738,-3.492271,-3.5849888,26.825884,1.0
6223507,-3.521589,-3.6152318,26.850182,1.0
6234316,-3.5524607,-3.646959,26.855898,1.0
6245269,-3.5824656,-3.6775696,26.824455,1.0
6277880,-3.6481898,-3.7456539,26.923073,1.0
6288634,-3.6551661,-3.7525666,26.883053,1.0
6299382,-3.654177,-3.7515419,26.881624,1.0
6386260,-3.6280863,-3.7246103,26.855898,1.0
6397017,-3.6266637,-3.722884,26.81302,1.0
6407833,-3.6236005,-3.7199519,26.847322,1.0
6429387,-3.616093,-3.7120168,26.818737,1.0
6440338,-3.6161892,-3.7121778,26.828743,1.0
6451095,-3.6219053,-3.718713,26.936451,1.0
6461887,-3.629691,-3.726804,26.952173,1.0
6472875,-3.6360981,-3.7334573,26.967894,1.0
6483640,-3.6408603,-3.73816,26.93788,1.0
6505364,-3.6479354,-3.7453885,26.932163,1.0
6516139,-3.646845,-3.7442245,26.925016,1.0
6526917,-3.6409304,-3.7382991,26.932163,1.0
6548664,-3.6191452,-3.7159758,26.93931,1.0
6559431,-3.6010187,-3.6968677,26.858757,1.0
6570414,-3.5740259,-3.669113,26.85161,1.0
6602889,-3.470695,-3.5625265,26.771572,1.0
6613633,-3.4432187,-3.5346515,26.827312,1.0
6624450,-3.4225373,-3.5134463,26.8316,1.0
6635531,-3.4046562,-3.4955988,26.915926,1.0
6646326,-3.3866258,-3.4767637,26.860186,1.0
6657087,-3.36968,-3.4598148,26.93788,1.0
6667955,-3.3560407,-3.445827,26.940739,1.0
6949604,-3.4550443,-3.5473108,26.925016,1.0
6960546,-3.4264774,-3.5180626,26.932163,1.0
6971301,-3.3963375,-3.4871254,26.933592,1.0
6982105,-3.3648148,-3.454719,26.926447,1.0
6993043,-3.332119,-3.4212313,26.940739,1.0
7003841,-3.299858,-3.3880754,26.935022,1.0
7025589,-3.2475684,-3.3344674,26.947886,1.0
7036389,-3.2284234,-3.3147311,26.933592,1.0
7047135,-3.213999,-3.2999842,26.945026,1.0
7058073,-3.2040174,-3.2897222,26.933592,1.0
7068918,-3.196596,-3.282102,26.933592,1.0
7079652,-3.1898942,-3.2752442,26.93788,1.0
7112195,-3.1869497,-3.272198,26.933592,1.0
7123108,-3.1888106,-3.2740998,26.936451,1.0
7134099,-3.1922882,-3.2776546,26.933592,1.0
7144878,-3.199078,-3.2840912,26.835888,1.0
7155746,-3.2090042,-3.2942498,26.830172,1.0
7166562,-3.2220597,-3.3075955,26.825884,1.0
7177311,-3.2362087,-3.3221595,26.83303,1.0
7188168,-3.2487907,-3.335171,26.850182,1.0
7198946,-3.2609057,-3.3475525,26.840176,1.0
7209700,-3.274342,-3.3613536,26.841606,1.0
7220662,-3.2870407,-3.3744588,26.85161,1.0
7231417,-3.2967653,-3.3844337,26.850182,1.0
7242247,-3.3038552,-3.391656,26.840176,1.0
7285355,-3.31617,-3.4043763,26.864473,1.0
7296259,-3.318637,-3.406949,26.87162,1.0
7307016,-3.3213553,-3.4095366,26.835888,1.0
7328797,-3.332216,-3.4206858,26.835888,1.0
7339550,-3.340729,-3.4295104,26.837318,1.0
7350313,-3.3508043,-3.440471,26.945026,1.0
7361256,-3.3613598,-3.4513912,26.959318,1.0
7372026,-3.3721447,-3.462275,26.926447,1.0
7382789,-3.3841982,-3.4746888,26.930735,1.0
7404501,-3.4089954,-3.500324,26.960749,1.0
7415299,-3.4148111,-3.5061784,26.940739,1.0
7426449,-3.4144754,-3.5058255,26.93931,1.0
7437302,-3.4093196,-3.50049,26.932163,1.0
7448257,-3.4003482,-3.4912457,26.926447,1.0
7459033,-3.387968,-3.4786425,26.945026,1.0
7480788,-3.350915,-3.440712,26.965036,1.0
7491623,-3.332475,-3.4217603,26.966465,1.0
7502382,-3.3200114,-3.40889,26.953602,1.0
7513296,-3.309545,-3.3982,26.963606,1.0
7524117,-3.296905,-3.3852212,26.963606,1.0
7534877,-3.2842238,-3.3721201,26.949314,1.0
7556550,-3.2671225,-3.353975,26.844463,1.0
7567364,-3.2631083,-3.349862,26.845894,1.0
7578314,-3.261581,-3.3483503,26.855898,1.0
7589080,-3.2621605,-3.3488574,26.840176,1.0
7621570,-3.27883,-3.3660407,26.857327,1.0
7632394,-3.2889187,-3.3764703,26.87019,1.0
7643333,-3.3024514,-3.3903148,26.861614,1.0
7686629,-3.3722324,-3.4621265,26.873049,1.0
7697459,-3.3865044,-3.476679,26.855898,1.0
7708355,-3.3992758,-3.4897184,26.864473,1.0
7729961,-3.4191272,-3.5101733,26.877337,1.0
7740880,-3.42599,-3.5170765,26.853039,1.0
7751642,-3.4325001,-3.5236928,26.841606,1.0
7762456,-3.4395294,-3.5310426,26.85161,1.0
7773393,-3.4448009,-3.5365298,26.864473,1.0
7795002,-3.444565,-3.5362122,26.85161,1.0
7805916,-3.443822,-3.5354156,26.845894,1.0
7816720,-3.4437106,-3.535458,26.868761,1.0
7827460,-3.443299,-3.5350184,26.865902,1.0
7838445,-3.4422154,-3.533906,26.865902,1.0
7849204,-3.443424,-3.5349448,26.8316,1.0
7859973,-3.4500365,-3.541801,26.843035,1.0
7870936,-3.4590678,-3.5511887,26.87019,1.0
7881685,-3.4669056,-3.5591757,26.860186,1.0
7892492,-3.4739335,-3.5662718,26.840176,1.0
7903465,-3.4817197,-3.5741713,26.824455,1.0
7914218,-3.490505,-3.583403,26.860186,1.0
7924999,-3.4970589,-3.5901656,26.865902,1.0
7936085,-3.4997933,-3.5927205,26.824455,1.0
7946885,-3.5023932,-3.5954232,26.830172,1.0
7957632,-3.5066717,-3.599953,26.853039,1.0
7968521,-3.510952,-3.6044245,26.865902,1.0
8022653,-3.5333576,-3.627363,26.850182,1.0
8033560,-3.5383785,-3.632542,26.860186,1.0
8044411,-3.5430214,-3.6371696,26.837318,1.0
8066034,-3.5539665,-3.648475,26.848751,1.0
8076777,-3.559987,-3.6546123,26.841606,1.0
8087568,-3.5642052,-3.6590521,26.857327,1.0
8109287,-3.5572147,-3.6517282,26.83303,1.0
8120124,-3.5469384,-3.6411264,26.824455,1.0
8131047,-3.533007,-3.6269634,26.847322,1.0
8152608,-3.4862478,-3.5795465,26.935022,1.0
8163542,-3.453232,-3.5455627,26.920729,1.0
8174314,-3.4150453,-3.5064547,26.93788,1.0
8185114,-3.3754463,-3.4658122,26.940739,1.0
8196106,-3.3397727,-3.4291244,26.93788,1.0
8206849,-3.3096843,-3.3982391,26.93931,1.0
8217623,-3.2842932,-3.372305,26.963606,1.0
8239306,-3.2453506,-3.3321447,26.932163,1.0
8250060,-3.230935,-3.3174229,26.945026,1.0
8261079,-3.215599,-3.3015897,26.929304,1.0
8271843,-3.2000775,-3.2856295,26.925016,1.0
8282649,-3.186678,-3.2719185,26.933592,1.0
8293602,-3.1750593,-3.259966,26.929304,1.0
8380407,-3.180497,-3.265491,26.91787,1.0
8391177,-3.1830125,-3.2681594,26.933592,1.0
8401943,-3.187906,-3.2731292,26.923588,1.0
8412716,-3.1928363,-3.2783103,26.93788,1.0
8423649,-3.1992571,-3.2848716,26.932163,1.0
8434516,-3.2085304,-3.2944324,26.93931,1.0
8445263,-3.220184,-3.3063745,26.935022,1.0
8456176,-3.233779,-3.320365,26.940739,1.0
8477747,-3.26219,-3.349391,26.923588,1.0
8488680,-3.2657516,-3.3531754,26.946455,1.0
8499430,-3.2579901,-3.345214,26.947886,1.0
8510261,-3.2436306,-3.3305156,26.949314,1.0
8521227,-3.2235873,-3.3098567,26.935022,1.0
8532104,-3.1946263,-3.2796175,26.843035,1.0
8564449,-3.0512288,-3.13245,26.85161,1.0
8575192,-2.9855256,-3.0649567,26.847322,1.0
8586288,-2.9141424,-2.991653,26.843035,1.0
8597040,-2.8447444,-2.920416,26.844463,1.0
8607796,-2.7841005,-2.8581727,26.847322,1.0
8618724,-2.7346346,-2.8072836,26.824455,1.0
8662070,-2.6204693,-2.690659,26.946455,1.0
8672916,-2.6062908,-2.6760147,26.943598,1.0
8683811,-2.5961761,-2.6655786,26.932163,1.0
8748836,-2.4446194,-2.5096886,26.857327,1.0
8759586,-2.399177,-2.4630015,26.848751,1.0
8770357,-2.347226,-2.4096398,26.841606,1.0
8781313,-2.2992399,-2.3603046,26.823025,1.0
8792069,-2.264176,-2.3244212,26.845894,1.0
8802873,-2.2425053,-2.302229,26.860186,1.0
8813939,-2.2319267,-2.2913194,26.847322,1.0
8824727,-2.2323437,-2.2920768,26.933592,1.0
8835493,-2.243513,-2.3035808,26.945026,1.0
8846376,-2.2633765,-2.3240144,26.95503,1.0
8857155,-2.2895737,-2.350919,26.95646,1.0
8867915,-2.321399,-2.383512,26.935022,1.0
8878845,-2.357126,-2.4201605,26.926447,1.0
8889607,-2.391938,-2.455962,26.940739,1.0
8900411,-2.4223893,-2.4872634,26.949314,1.0
8911366,-2.4443772,-2.509918,26.967894,1.0
8932922,-2.4554014,-2.5206892,26.837318,1.0
8943887,-2.4490266,-2.5141873,26.845894,1.0
8954704,-2.4363945,-2.5012429,26.85161,1.0
8965462,-2.4171116,-2.481488,26.861614,1.0
8976468,-2.3961601,-2.4599903,26.864473,1.0
8987262,-2.3810253,-2.4444523,26.864473,1.0
9008931,-2.375792,-2.4390082,26.841606,1.0
9019687,-2.3864884,-2.4499774,26.838747,1.0
9030466,-2.40542,-2.4694362,26.844463,1.0
9041434,-2.4308538,-2.4955885,26.85447,1.0
9095496,-2.5754676,-2.6440177,26.85161,1.0
9106464,-2.603344,-2.6726677,26.858757,1.0
9117213,-2.6314044,-2.701516,26.858757,1.0
9139021,-2.682109,-2.7534666,26.835888,1.0
9149770,-2.7083457,-2.7805004,26.857327,1.0
9160520,-2.732771,-2.805545,26.857327,1.0
9171469,-2.75693,-2.8303475,26.857327,1.0
9182278,-2.782542,-2.8566823,26.865902,1.0
9193122,-2.8087707,-2.8836098,26.865902,1.0
9204081,-2.8354552,-2.91095,26.85447,1.0
9214882,-2.8628135,-2.9390714,26.861614,1.0
9225620,-2.890072,-2.967134,26.877337,1.0
9236557,-2.9160044,-2.993758,26.877337,1.0
9247305,-2.9403017,-3.0186815,26.873049,1.0
9258061,-2.9629383,-3.0419796,26.884483,1.0
9269065,-2.9837842,-3.0633233,26.873049,1.0
9279849,-3.0061605,-3.086166,26.850182,1.0
9290628,-3.0328786,-3.1137285,26.875908,1.0
9301536,-3.060395,-3.1419413,26.868761,1.0
9312293,-3.0856285,-3.1678996,26.878765,1.0
9344882,-3.1540542,-3.2381356,26.874477,1.0
9355618,-3.1757517,-3.2602408,26.843035,1.0
9366552,-3.1973722,-3.282452,26.845894,1.0
9431583,-3.3161006,-3.4043934,26.85161,1.0
9442333,-3.3333898,-3.4221966,26.858757,1.0
9453141,-3.3485742,-3.43763,26.8316,1.0
9474873,-3.369401,-3.4592576,26.874477,1.0
9485665,-3.37684,-3.4668376,26.864473,1.0
9496655,-3.3829448,-3.4731462,26.87162,1.0
9507408,-3.3880599,-3.4782844,26.857327,1.0
9518185,-3.3929076,-3.4832282,26.85161,1.0
9529098,-3.3981342,-3.4885855,26.850182,1.0
9539914,-3.403875,-3.4944792,26.850182,1.0
9550685,-3.410515,-3.5011787,26.8316,1.0
9561663,-3.4182272,-3.509238,26.855898,1.0
9583194,-3.4265192,-3.517726,26.85161,1.0
9594125,-3.421921,-3.5131056,26.868761,1.0
9604930,-3.4113066,-3.5020068,26.838747,1.0
9615800,-3.3965447,-3.4873621,26.926447,1.0
9637413,-3.3470216,-3.436785,26.973612,1.0
9648222,-3.3073943,-3.3958523,26.930735,1.0
9659178,-3.2642016,-3.3516068,26.93931,1.0
9680838,-3.183667,-3.2688923,26.935022,1.0
9691746,-3.146197,-3.2304733,26.945026,1.0
9778304,-2.846621,-2.9224699,26.861614,1.0
9789237,-2.8253663,-2.9006069,26.853039,1.0
9799990,-2.8130846,-2.8879435,26.841606,1.0
9810792,-2.8126583,-2.8874645,26.83303,1.0
9821788,-2.8210459,-2.8965812,26.93788,1.0
9832600,-2.8348324,-2.9106662,26.930735,1.0
9843350,-2.8535612,-2.9298887,26.929304,1.0
9854276,-2.8765764,-2.9535618,26.93788,1.0
9865065,-2.900897,-2.9785118,26.933592,1.0
9875932,-2.9223292,-3.0005333,26.930735,1.0
9886838,-2.939199,-3.0178905,26.93788,1.0
9897606,-2.951745,-3.030751,26.933592,1.0
9908354,-2.9602256,-3.0394945,26.940739,1.0
9919309,-2.9649568,-3.0443163,26.933592,1.0
9940856,-2.973462,-3.0530517,26.93788,1.0
9951823,-2.97897,-3.0587072,26.93788,1.0
9962628,-2.987048,-3.0669358,26.925016,1.0
9973376,-2.9996524,-3.079943,26.93788,1.0
9984376,-3.0157428,-3.096471,26.942167,1.0
9995123,-3.0341392,-3.115382,26.946455,1.0
10092632,-3.2705958,-3.3581274,26.933592,1.0
10103426,-3.2997375,-3.3880572,26.935022,1.0
10114377,-3.3270686,-3.416079,26.927876,1.0
10125216,-3.3509521,-3.4406672,26.93931,1.0
10135978,-3.3731012,-3.4633846,26.935022,1.0
10168750,-3.4162972,-3.5077238,26.933592,1.0
10179566,-3.4187646,-3.5102987,26.940739,1.0
10190328,-3.4159133,-3.507397,26.945026,1.0
10201099,-3.407844,-3.4991322,26.947886,1.0
10211941,-3.3953316,-3.4861684,26.927876,1.0
10255236,-3.3214695,-3.4103754,26.933592,1.0
10266019,-3.3019156,-3.3902657,26.927876,1.0
10276953,-3.2804167,-3.3682475,26.93788,1.0
10287782,-3.2568095,-3.3440244,26.940739,1.0
10298527,-3.2310574,-3.3175666,26.93788,1.0
10341955,-3.1186748,-3.2020988,26.923588,1.0
10352788,-3.0906787,-3.1733844,26.929304,1.0
10363557,-3.0604928,-3.1424294,26.930735,1.0
10439562,-2.7148619,-2.7877643,26.9779,1.0
10450330,-2.647457,-2.7183228,26.927876,1.0
10482779,-2.502281,-2.5694897,26.983616,1.0
10493584,-2.477921,-2.5441606,26.909294,1.0
10504521,-2.4625819,-2.5285318,26.93788,1.0
10515377,-2.4519482,-2.5178473,26.99362,1.0
10526132,-2.4430685,-2.5087957,27.003626,1.0
10537050,-2.4387717,-2.5039957,26.910725,1.0
10591244,-2.5240936,-2.5918694,26.980757,1.0
10602074,-2.5542338,-2.6224568,26.897861,1.0
10612840,-2.590589,-2.6598907,26.92216,1.0
10623645,-2.6324492,-2.7029672,26.943598,1.0
10634570,-2.6800451,-2.7517784,26.9193,1.0
10645327,-2.73305,-2.8065963,27.003626,1.0
10677884,-2.8744104,-2.9511645,26.892145,1.0
10688666,-2.9214265,-2.9995787,26.920729,1.0
10699605,-2.9699087,-3.0495179,26.952173,1.0
10710355,-3.0169044,-3.0977657,26.950743,1.0
10970505,-3.6793406,-3.7772028,26.830172,1.0
10981327,-3.688405,-3.7864635,26.823025,1.0
11035549,-3.7261736,-3.825463,26.856413,1.0
11046398,-3.732015,-3.8321083,26.95789,1.0
11057348,-3.738437,-3.838586,26.930735,1.0
11078893,-3.7547064,-3.8547955,26.853554,1.0
11089889,-3.7681925,-3.8690836,26.92216,1.0
11165602,-3.8106942,-3.9126525,26.913584,1.0
11176370,-3.8101408,-3.9124386,26.967894,1.0
11187466,-3.8089614,-3.91092,26.920729,1.0
11198314,-3.8055818,-3.907112,26.868761,1.0
11209058,-3.797737,-3.8986022,26.798727,1.0
11252358,-3.7353404,-3.8346033,26.807304,1.0
11263240,-3.7213879,-3.8205626,26.85161,1.0
11295745,-3.6812487,-3.779873,26.93788,1.0
11306502,-3.6728578,-3.7710598,26.906437,1.0
11317441,-3.6683989,-3.7663202,26.88071,1.0
11349899,-3.6716485,-3.7700384,26.940739,1.0
11360646,-3.6689215,-3.7670588,26.912153,1.0
11371448,-3.6645403,-3.7628117,26.952173,1.0
11404037,-3.6517177,-3.7491987,26.88071,1.0
11415042,-3.648218,-3.745989,26.942167,1.0
11425892,-3.6418736,-3.7394745,26.942167,1.0
11469000,-3.585902,-3.6820214,26.942167,1.0
11479981,-3.5624301,-3.6577024,26.906437,1.0
11490751,-3.5389276,-3.633296,26.856413,1.0
11523277,-3.4885874,-3.5822613,26.965036,1.0
11534098,-3.478928,-3.571909,26.892145,1.0
11577495,-3.436033,-3.5280921,26.93788,1.0
11588262,-3.417399,-3.508792,26.909294,1.0
11631565,-3.2764006,-3.3642418,26.953602,1.0
11642510,-3.2338984,-3.3205528,26.945026,1.0
11675083,-3.1188455,-3.2021708,26.892145,1.0
11685837,-3.0958261,-3.1783924,26.864988,1.0
11696607,-3.078184,-3.1606936,26.943598,1.0
11740131,-3.0159638,-3.0967026,26.92216,1.0
11750908,-3.0126476,-3.093195,26.90215,1.0
11761654,-3.0163882,-3.0972574,26.942167,1.0
11794297,-3.0358107,-3.1171412,26.930735,1.0
11805079,-3.044868,-3.1266053,26.962177,1.0
11815907,-3.0504725,-3.1322057,26.93788,1.0
11870106,-3.05418,-3.1357262,26.877851,1.0
11880874,-3.0552034,-3.1369414,26.909294,1.0
11913414,-3.064667,-3.1464932,26.877851,1.0
11924188,-3.0704117,-3.1527247,26.945026,1.0
11956896,-3.0754745,-3.15775,26.912153,1.0
11967703,-3.0805795,-3.1631653,26.945026,1.0
12010915,-3.1090462,-3.1921911,26.900719,1.0
12021727,-3.1308599,-3.2146106,26.906437,1.0
12032699,-3.158783,-3.2434504,26.93788,1.0
12065207,-3.2215347,-3.3077817,26.9193,1.0
12075990,-3.2183192,-3.304614,26.943598,1.0
12086769,-3.20591,-3.2916155,26.903578,1.0
12119280,-3.1570413,-3.2417724,26.965036,1.0
12130255,-3.1285782,-3.2124,26.93788,1.0
12141060,-3.0934873,-3.1763966,26.93788,1.0
12162735,-3.0468585,-3.1285036,26.935022,1.0
12173589,-3.038703,-3.120085,26.926447,1.0
12195252,-3.0435586,-3.125287,26.963606,1.0
12206091,-3.0538955,-3.1356032,26.906437,1.0
12216873,-3.0680802,-3.150385,26.947886,1.0
12227788,-3.0842113,-3.1670923,26.97504,1.0
12238593,-3.1004446,-3.1835642,26.93788,1.0
12249335,-3.116786,-3.2005162,26.980757,1.0
12260393,-3.133712,-3.217514,26.909294,1.0
12314360,-3.2098453,-3.2958462,26.946455,1.0
12325313,-3.2243967,-3.3107877,26.946455,1.0
12336067,-3.2385817,-3.3251944,26.91787,1.0
12401109,-3.2544267,-3.3416924,26.949314,1.0
12411919,-3.2558627,-3.3432157,26.953602,1.0
12422842,-3.2586427,-3.3460627,26.952173,1.0
12444430,-3.2689652,-3.356654,26.950743,1.0
12455358,-3.2762513,-3.3641398,26.950743,1.0
12466100,-3.2840493,-3.3722029,26.960749,1.0
12487918,-3.2994165,-3.3879504,26.95503,1.0
12498658,-3.306848,-3.395638,26.965036,1.0
12531165,-3.338342,-3.4279494,26.959318,1.0
12541965,-3.3427353,-3.4324195,26.952173,1.0
12552950,-3.3383477,-3.4279473,26.95789,1.0
12585460,-3.2789145,-3.3668044,26.945026,1.0
12596199,-3.2512274,-3.3383117,26.933592,1.0
12606987,-3.221591,-3.3079839,26.952173,1.0
12618015,-3.1894197,-3.27505,26.960749,1.0
12628758,-3.1548252,-3.23938,26.933592,1.0
12639551,-3.1230273,-3.2068062,26.947886,1.0
12650465,-3.0996852,-3.1828833,26.95646,1.0
12672008,-3.0738895,-3.1562634,26.933592,1.0
12682949,-3.069157,-3.1515088,26.953602,1.0
12693787,-3.0685723,-3.1507735,26.927876,1.0
12726306,-3.0671105,-3.14925,26.923588,1.0
12737040,-3.0680974,-3.1503835,26.945026,1.0
12748022,-3.072774,-3.1552155,26.950743,1.0
12780510,-3.1228697,-3.206698,26.95789,1.0
12791266,-3.1455667,-3.2298193,26.923588,1.0
12802065,-3.169856,-3.2547903,26.929304,1.0
12867117,-3.3064725,-3.3951144,26.936451,1.0
12878054,-3.3136177,-3.4023943,26.926447,1.0
12888916,-3.3119493,-3.4007542,26.93931,1.0
12899672,-3.3046722,-3.393121,26.915012,1.0
12910714,-3.2947478,-3.383068,26.93931,1.0
12921480,-3.27983,-3.3677342,26.936451,1.0
12953862,-3.2324808,-3.3190258,26.916441,1.0
12964732,-3.2275841,-3.3141563,26.945026,1.0
12975632,-3.2263007,-3.3128302,26.943598,1.0
12997245,-3.2325704,-3.3191495,26.92216,1.0
13008114,-3.2410624,-3.327877,26.923588,1.0
13051461,-3.2888865,-3.3770344,26.933592,1.0
13062217,-3.294157,-3.3823388,26.923588,1.0
13073211,-3.2958214,-3.3840156,26.91787,1.0
13094884,-3.2906547,-3.3787267,26.920729,1.0
13105655,-3.2842996,-3.3722093,26.92216,1.0
13159715,-3.265578,-3.3529747,26.920729,1.0
13170664,-3.2720733,-3.3596604,26.920729,1.0
13181432,-3.2764215,-3.3642774,26.947886,1.0
13192246,-3.2780852,-3.3658493,26.923588,1.0
13203249,-3.2796228,-3.367428,26.923588,1.0
13279021,-3.2707605,-3.3583422,26.920729,1.0
13289782,-3.275951,-3.3636634,26.9193,1.0
13300719,-3.2852125,-3.3731651,26.91787,1.0
13311498,-3.2963977,-3.3846498,26.91787,1.0
13322353,-3.3057652,-3.394268,26.91787,1.0
13333265,-3.3110812,-3.399872,26.943598,1.0
13376549,-3.3137362,-3.4024615,26.915012,1.0
13387348,-3.3161278,-3.405014,26.933592,1.0
13398303,-3.3167493,-3.405579,26.920729,1.0
13409044,-3.3160274,-3.4048219,26.91787,1.0
13419837,-3.3159804,-3.4048464,26.930735,1.0
13463317,-3.3311114,-3.4203217,26.920729,1.0
13474073,-3.3432338,-3.4327605,26.9193,1.0
13506596,-3.3926148,-3.4835382,26.932163,1.0
13517418,-3.4105754,-3.5019972,26.935022,1.0
13528357,-3.4292274,-3.5210736,26.92216,1.0
13560829,-3.4914596,-3.5850172,26.92216,1.0
13571579,-3.5156436,-3.609858,26.923588,1.0
13582427,-3.542167,-3.637101,26.925016,1.0
13593406,-3.5686398,-3.664344,26.935022,1.0
13614945,-3.6236916,-3.7208343,26.93931,1.0
13625833,-3.645923,-3.7435634,26.923588,1.0
13636587,-3.6569285,-3.7548459,26.920729,1.0
13679800,-3.602799,-3.6994498,26.940739,1.0
13690544,-3.5750477,-3.6708407,26.92216,1.0
13701451,-3.5454059,-3.6404047,26.92216,1.0
13712323,-3.5141242,-3.6083603,26.942167,1.0
13733952,-3.4371836,-3.5293229,26.936451,1.0
13744838,-3.392811,-3.4836946,26.925016,1.0
13799179,-3.1404433,-3.22463,26.927876,1.0
13809974,-3.0867374,-3.1694164,26.915012,1.0
13820946,-3.0305357,-3.1118817,26.95503,1.0
13842506,-2.913921,-2.991966,26.920729,1.0
13853501,-2.8531444,-2.9296033,26.929304,1.0
13907459,-2.5408819,-2.6090448,26.943598,1.0
13918743,-2.4869955,-2.5538163,26.967894,1.0
13929515,-2.4345326,-2.4998336,26.940739,1.0
13940258,-2.3850162,-2.4489424,26.929304,1.0
13951071,-2.3396676,-2.4024413,26.945026,1.0
14005201,-2.1392124,-2.1967068,26.97504,1.0
14016135,-2.1017582,-2.1581738,26.95503,1.0
14026885,-2.0733352,-2.1290388,26.969324,1.0
14037646,-2.0593438,-2.11469,26.969324,1.0
14048589,-2.0622027,-2.11756,26.950743,1.0
14059377,-2.0773458,-2.1331909,26.973612,1.0
14113579,-2.241619,-2.3018062,26.95503,1.0
14124357,-2.2852404,-2.3466158,26.959318,1.0
14135201,-2.3308303,-2.3934755,26.970753,1.0
14146148,-2.376645,-2.4405572,26.976469,1.0
14156984,-2.4218504,-2.4869425,26.967894,1.0
14200349,-2.6059275,-2.6757627,26.923588,1.0
14211290,-2.6515577,-2.7228105,26.966465,1.0
14222165,-2.6906223,-2.7628918,26.959318,1.0
14243675,-2.7452521,-2.8189175,26.947886,1.0
14254425,-2.7639098,-2.838029,26.93788,1.0
14265187,-2.7775226,-2.852122,26.962177,1.0
14297747,-2.7899866,-2.864764,26.929304,1.0
14308783,-2.7830813,-2.8578143,26.953602,1.0
14319539,-2.773781,-2.8481624,26.932163,1.0
14341172,-2.7721481,-2.8465605,26.947886,1.0
14351935,-2.7800138,-2.8546515,26.946455,1.0
14362737,-2.7923675,-2.8673096,26.940739,1.0
14395256,-2.856395,-2.9330137,26.932163,1.0
14406195,-2.8849797,-2.9625342,26.967894,1.0
14416960,-2.9119465,-2.9901407,26.950743,1.0
14438829,-2.9573343,-3.0367253,26.946455,1.0
14449620,-2.9769466,-3.056864,26.946455,1.0
14482219,-3.045047,-3.1268475,26.962177,1.0
14492974,-3.0669818,-3.1491613,26.92216,1.0
14503745,-3.090748,-3.1737456,26.95646,1.0
14525307,-3.1503367,-3.23475,26.920729,1.0
14536263,-3.181333,-3.2667952,26.960749,1.0
14547026,-3.211213,-3.2974303,26.952173,1.0
14568787,-3.2691054,-3.3567426,26.92216,1.0
14579565,-3.2974877,-3.3858938,26.923588,1.0
14590336,-3.3224866,-3.4117663,26.959318,1.0
14644586,-3.4053147,-3.496686,26.93931,1.0
14655371,-3.421457,-3.513253,26.93788,1.0
14687962,-3.471419,-3.5644956,26.929304,1.0
14698849,-3.4883301,-3.5819626,26.946455,1.0
14709598,-3.5030396,-3.5970323,26.940739,1.0
14720384,-3.5124116,-3.6066217,26.935022,1.0
14731346,-3.5160155,-3.6102629,26.92216,1.0
14742094,-3.5144963,-3.6088748,26.950743,1.0
14774655,-3.4924414,-3.5861251,26.933592,1.0
14785424,-3.4832516,-3.5766401,26.91787,1.0
14796399,-3.472498,-3.5657253,26.93931,1.0
14807177,-3.463595,-3.5564566,26.91787,1.0
14818039,-3.456514,-3.549287,26.935022,1.0
14828912,-3.4495382,-3.542023,26.91787,1.0
14861396,-3.4228876,-3.5147047,26.936451,1.0
14872157,-3.4105854,-3.5019474,26.915012,1.0
14882952,-3.4010057,-3.492211,26.932163,1.0
14904718,-3.3921907,-3.4832058,26.93788,1.0
14915490,-3.386978,-3.4777288,26.916441,1.0
14926482,-3.3808196,-3.4713974,26.915012,1.0
14969788,-3.35538,-3.445298,26.913584,1.0
14980551,-3.3462093,-3.436021,26.93788,1.0
14991454,-3.3396337,-3.4291544,26.91787,1.0
15002241,-3.335714,-3.4251583,26.92216,1.0
15013009,-3.330495,-3.419922,26.943598,1.0
15023969,-3.3214836,-3.4106116,26.933592,1.0
15088992,-3.2042341,-3.2901616,26.920729,1.0
15099752,-3.1742296,-3.2593524,26.920729,1.0
15110559,-3.1467118,-3.2311008,26.920729,1.0
15132425,-3.1097462,-3.1931512,26.92216,1.0
15143181,-3.1006916,-3.1839526,26.940739,1.0
15154008,-3.0971575,-3.1802175,26.920729,1.0
15175584,-3.105707,-3.189048,26.936451,1.0
15186543,-3.1163774,-3.199921,26.920729,1.0
15197314,-3.1305404,-3.2145782,26.942167,1.0
15208092,-3.1434107,-3.2277021,26.925016,1.0
15219214,-3.1493618,-3.2338433,26.930735,1.0
15251592,-3.1233783,-3.207126,26.9193,1.0
15262336,-3.0966365,-3.1797428,26.933592,1.0
15273179,-3.0672772,-3.149618,26.93788,1.0
15294930,-3.0084915,-3.0891469,26.9193,1.0
15305688,-2.9819028,-3.061984,26.946455,1.0
15316612,-2.9604445,-3.0399423,26.945026,1.0
15338155,-2.9263341,-3.005045,26.969324,1.0
15349106,-2.9081767,-2.9862854,26.946455,1.0
15359875,-2.8937914,-2.97145,26.933592,1.0
15381650,-2.884438,-2.9618528,26.935022,1.0
15392400,-2.88584,-2.963401,26.959318,1.0
15403180,-2.8849647,-2.9624672,26.952173,1.0
15424892,-2.8694887,-2.9465404,26.945026,1.0
15435693,-2.857268,-2.9338799,26.92216,1.0
15446688,-2.844462,-2.9208071,26.936451,1.0
15490115,-2.7865376,-2.861277,26.926447,1.0
15500898,-2.7739236,-2.8483038,26.92216,1.0
15533344,-2.766939,-2.8412066,26.93788,1.0
15544189,-2.7742052,-2.8487697,26.959318,1.0
15555013,-2.785694,-2.8604827,26.93788,1.0
15565763,-2.8006155,-2.875949,26.967894,1.0
15576705,-2.816106,-2.8917253,26.940739,1.0
15587548,-2.828443,-2.904421,26.946455,1.0
15641726,-2.8971598,-2.9750545,26.960749,1.0
15652482,-2.9145815,-2.9929948,26.970753,1.0
15663300,-2.9323668,-3.0112054,26.95646,1.0
15685051,-2.9792125,-3.059318,26.95789,1.0
15695862,-3.0073082,-3.0881617,26.95646,1.0
15706760,-3.0343764,-3.1160464,26.973612,1.0
15728333,-3.0854328,-3.1683888,26.963606,1.0
15739426,-3.1136801,-3.1974795,26.979328,1.0
15750197,-3.1420681,-3.2264087,26.93788,1.0
15772015,-3.1960874,-3.281987,26.959318,1.0
15782768,-3.2215745,-3.3080409,26.93788,1.0
15793518,-3.2449198,-3.3320525,26.945026,1.0
15815080,-3.272883,-3.360892,26.962177,1.0
15825926,-3.2755668,-3.3636558,26.963606,1.0
15836833,-3.271855,-3.3596923,26.936451,1.0
15847622,-3.2628934,-3.3506737,26.969324,1.0
15858377,-3.2484004,-3.335759,26.963606,1.0
15869512,-3.2291949,-3.3158634,26.932163,1.0
15934396,-3.1719527,-3.2570384,26.92216,1.0
15945171,-3.1801524,-3.2655284,26.935022,1.0
15988536,-3.2405205,-3.3274136,26.91787,1.0
15999423,-3.2564442,-3.3439953,26.959318,1.0
16010219,-3.2715974,-3.359356,26.923588,1.0
16053471,-3.3398118,-3.429518,26.946455,1.0
16064463,-3.3568926,-3.4469178,26.92216,1.0
16097021,-3.409011,-3.500557,26.935022,1.0
16107936,-3.4229257,-3.514996,26.960749,1.0
16118700,-3.4357855,-3.528185,26.95789,1.0
16151146,-3.4714565,-3.5647893,26.95646,1.0
16162047,-3.483594,-3.5771167,26.933592,1.0
16172983,-3.4961238,-3.5899143,26.92216,1.0
16183724,-3.5117981,-3.6060522,26.929304,1.0
16194499,-3.532299,-3.627043,26.9193,1.0
16205322,-3.5548933,-3.6503518,26.936451,1.0
16216128,-3.5748613,-3.6709175,26.946455,1.0
16248551,-3.5941865,-3.6906123,26.92216,1.0
16259495,-3.5918024,-3.6881292,26.916441,1.0
16270253,-3.590269,-3.6866715,26.93788,1.0
16292013,-3.5911477,-3.687495,26.925016,1.0
16302766,-3.5890522,-3.6852992,26.91787,1.0
16313569,-3.5842743,-3.6805604,26.945026,1.0
16357065,-3.5435646,-3.6384242,26.887856,1.0
16367844,-3.537456,-3.6318839,26.84355,1.0
16378633,-3.533644,-3.6285577,26.940739,1.0
16411112,-3.5307586,-3.6250017,26.84069,1.0
16422056,-3.5420809,-3.636886,26.88357,1.0
16465366,-3.589426,-3.686352,27.023634,1.0
16476176,-3.593373,-3.6899836,26.95503,1.0
16487108,-3.5903246,-3.6870904,26.99362,1.0
16508663,-3.5557218,-3.6510143,26.895002,1.0
16519799,-3.5335488,-3.6283853,26.91787,1.0
16562880,-3.4138386,-3.505514,26.936451,1.0
16573678,-3.3706818,-3.4612477,26.945026,1.0
16584413,-3.3262615,-3.4155364,26.927876,1.0
16595416,-3.2866995,-3.3750088,26.945026,1.0
16606209,-3.2513795,-3.3391576,27.017918,1.0
16649673,-3.1706564,-3.2559218,26.95646,1.0
16660421,-3.1655886,-3.25092,26.990763,1.0
16693013,-3.151579,-3.236733,27.027924,1.0
16703751,-3.1291804,-3.213446,26.97504,1.0
16714673,-3.093551,-3.176335,26.876423,1.0
16736278,-3.0039597,-3.0842364,26.854984,1.0
16747329,-2.9547029,-3.0342412,26.969324,1.0
16758108,-2.9064896,-2.984289,26.88071,1.0
16790742,-2.790357,-2.8652596,26.926447,1.0
16801502,-2.765883,-2.8401284,26.926447,1.0
16812329,-2.7500427,-2.824078,26.972181,1.0
16866327,-2.8351927,-2.9112294,26.912153,1.0
16877259,-2.871668,-2.9488866,26.953602,1.0
16888136,-2.9054105,-2.9838061,27.007914,1.0
16898897,-2.9268577,-3.005696,26.980757,1.0
16909803,-2.9343617,-3.0131583,26.932163,1.0
16920559,-2.934317,-3.0132704,26.963606,1.0
16953193,-2.9088128,-2.9870052,26.949314,1.0
16963932,-2.8881106,-2.9659863,26.99791,1.0
16974820,-2.8619738,-2.939033,26.97504,1.0
16996387,-2.8080575,-2.8834257,26.920729,1.0
17007314,-2.7934334,-2.86817,26.870705,1.0
17018060,-2.7909641,-2.8659143,26.929304,1.0
17050592,-2.8224108,-2.8982666,26.946455,1.0
17061406,-2.840143,-2.9168572,27.025064,1.0
17072341,-2.8553154,-2.9322233,26.980757,1.0
17093960,-2.8667896,-2.94413,27.002195,1.0
17104865,-2.8597956,-2.9366117,26.933592,1.0
17159010,-2.802206,-2.8774266,26.926447,1.0
17169906,-2.801606,-2.8769746,26.960749,1.0
17191463,-2.8087773,-2.8845959,27.016489,1.0
17202433,-2.8177962,-2.8936725,26.9779,1.0
17213256,-2.82877,-2.9053218,27.056507,1.0
17267427,-2.8588796,-2.9359157,26.983616,1.0
17278184,-2.8617778,-2.938703,26.945026,1.0
17288991,-2.8683436,-2.9453964,26.935022,1.0
17310838,-2.894422,-2.971969,26.88357,1.0
17321590,-2.9159584,-2.9943318,26.933592,1.0
17354032,-2.9939218,-3.074546,26.970753,1.0
17365027,-3.0190432,-3.100499,27.000767,1.0
17375784,-3.0405307,-3.122462,26.980757,1.0
17397483,-3.0730443,-3.155296,26.874992,1.0
17408252,-3.092266,-3.1757202,27.005054,1.0
17419053,-3.1163304,-3.1999872,26.925016,1.0
17440823,-3.1792269,-3.2643158,26.877851,1.0
17451591,-3.2191753,-3.3054593,26.900719,1.0
17462525,-3.2609181,-3.3485973,26.945026,1.0
17484079,-3.3309178,-3.4202998,26.913584,1.0
17495036,-3.3533237,-3.4439547,27.026493,1.0
17538308,-3.3752155,-3.4660666,26.963606,1.0
17549110,-3.3694553,-3.4604397,27.01363,1.0
17560061,-3.3545067,-3.4448495,26.972181,1.0
17570845,-3.3337185,-3.4230719,26.903578,1.0
17581640,-3.311038,-3.4004228,27.016489,1.0
17635865,-3.2088954,-3.2947142,26.86213,1.0
17646660,-3.1986957,-3.284813,26.966465,1.0
17668486,-3.1814847,-3.2670684,26.953602,1.0
17679245,-3.1804228,-3.2654724,26.8607,1.0
17733474,-3.2381008,-3.3249128,26.89929,1.0
17744273,-3.2507973,-3.3385699,27.012201,1.0
17755144,-3.2608724,-3.3480396,26.854984,1.0
17765975,-3.2755802,-3.3630764,26.84355,1.0
17776739,-3.2983751,-3.3869643,26.929304,1.0
17787651,-3.3238895,-3.4132535,26.945026,1.0
17809216,-3.3714936,-3.4621677,26.945026,1.0
17820217,-3.3921669,-3.483654,26.989332,1.0
17831006,-3.4100292,-3.5017145,26.940739,1.0
17841751,-3.426043,-3.5182846,26.962177,1.0
17852720,-3.4419286,-3.5342102,26.89929,1.0
17863491,-3.4578397,-3.550683,26.92216,1.0
17895999,-3.4831274,-3.577101,26.99791,1.0
17906829,-3.4725869,-3.5657344,26.90215,1.0
17917746,-3.4533556,-3.545911,26.889286,1.0
17928593,-3.4265046,-3.518491,26.915012,1.0
17939336,-3.3897405,-3.481254,27.003626,1.0
17982777,-3.181058,-3.266383,26.910725,1.0
17993540,-3.134055,-3.2180655,26.900719,1.0
18004338,-3.0936153,-3.176784,26.946455,1.0
18036953,-3.0103376,-3.091173,26.92216,1.0
18047892,-2.9981499,-3.0786068,26.912153,1.0
18058652,-2.9887862,-3.0692987,26.972181,1.0
18145326,-3.0090742,-3.0898724,26.935022,1.0
18156096,-3.0196404,-3.1010103,26.990763,1.0
18166881,-3.0289364,-3.1102755,26.936451,1.0
18188731,-3.0364888,-3.1181126,26.936451,1.0
18199488,-3.0351243,-3.116689,26.932163,1.0
18210356,-3.03092,-3.1124089,26.93931,1.0
18242866,-3.0210023,-3.1021454,26.930735,1.0
18253630,-3.016036,-3.0970385,26.929304,1.0
18264416,-3.0131686,-3.094153,26.940739,1.0
18286122,-3.0310874,-3.112502,26.927876,1.0
18296966,-3.0481021,-3.129981,26.929304,1.0
18351169,-3.1308339,-3.2149334,26.936451,1.0
18361973,-3.1505976,-3.235197,26.930735,1.0
18372947,-3.1706831,-3.2557988,26.926447,1.0
18394473,-3.2010894,-3.2870631,26.925016,1.0
18405456,-3.215536,-3.3019526,26.935022,1.0
18448875,-3.26605,-3.3538826,26.950743,1.0
18459715,-3.2669003,-3.3547158,26.943598,1.0
18470600,-3.2682345,-3.3560297,26.933592,1.0
18481355,-3.274772,-3.3626947,26.925016,1.0
18492105,-3.2887368,-3.3770268,26.923588,1.0
18502964,-3.3069754,-3.395839,26.940739,1.0
18535524,-3.3682973,-3.4588337,26.945026,1.0
18546284,-3.3891296,-3.4802227,26.940739,1.0
18557078,-3.409348,-3.5010097,26.945026,1.0
18600474,-3.4418447,-3.5344055,26.949314,1.0
18611349,-3.4335253,-3.5259504,26.963606,1.0
18665663,-3.322126,-3.4116025,26.966465,1.0
18676416,-3.2939727,-3.3826993,26.967894,1.0
18687166,-3.2684681,-3.3564517,26.95789,1.0
18708836,-3.2266607,-3.3135107,26.95646,1.0
18719615,-3.2124898,-3.298896,26.959318,1.0
18730560,-3.2047472,-3.2910314,26.97504,1.0
18763093,-3.1980617,-3.2839625,26.93788,1.0
18773838,-3.1947892,-3.2806957,26.95503,1.0
18784639,-3.188289,-3.274067,26.959318,1.0
18806462,-3.1747406,-3.2601385,26.95646,1.0
18817217,-3.1641843,-3.2493138,26.959318,1.0
18860627,-3.1162214,-3.2001274,26.970753,1.0
18871436,-3.1038225,-3.1873262,26.95789,1.0
18882198,-3.0943398,-3.1775906,26.949314,1.0
18893152,-3.088074,-3.1712093,26.959318,1.0
18903914,-3.0842628,-3.167333,26.966465,1.0
18914700,-3.0824268,-3.1653721,26.952173,1.0
18947268,-3.0959537,-3.1792889,26.960749,1.0
18958350,-3.105653,-3.1892793,26.966465,1.0
18969157,-3.1098514,-3.1935833,26.965036,1.0
18979917,-3.1055245,-3.1890185,26.942167,1.0
18990734,-3.0898514,-3.1730072,26.95789,1.0
19001473,-3.06609,-3.148521,26.93788,1.0
19012246,-3.0415208,-3.1234105,26.960749,1.0
19066550,-2.9157684,-2.994263,26.967894,1.0
19077323,-2.9088705,-2.9869583,26.923588,1.0
19088219,-2.907621,-2.9857893,26.946455,1.0
19109792,-2.9171276,-2.9956412,26.962177,1.0
19120771,-2.9262245,-3.0047824,26.92216,1.0
19239872,-3.1568785,-3.241664,26.927876,1.0
19250787,-3.1815739,-3.2671235,26.946455,1.0
19261553,-3.2049425,-3.2910814,26.93931,1.0
19272367,-3.2215765,-3.3080635,26.92216,1.0
19283318,-3.2266626,-3.3133807,26.93931,1.0
19326643,-3.163215,-3.2483006,26.95646,1.0
19337417,-3.1257422,-3.2096288,26.920729,1.0
19348347,-3.0791712,-3.161936,26.945026,1.0
19359181,-3.0265658,-3.1078427,26.930735,1.0
19369986,-2.9748013,-3.0548217,26.945026,1.0
19402446,-2.8536444,-2.9303362,26.930735,1.0
19413357,-2.8224318,-2.8982847,26.930735,1.0
19424125,-2.792954,-2.8679464,26.916441,1.0
19434944,-2.7656353,-2.8399262,26.930735,1.0
19445885,-2.7399313,-2.8135452,26.933592,1.0
19456640,-2.717587,-2.7905674,26.926447,1.0
19489209,-2.6978173,-2.770327,26.935022,1.0
19500072,-2.7072394,-2.7799494,26.923588,1.0
19510928,-2.7233365,-2.7965453,26.93788,1.0
19521667,-2.7450285,-2.8187733,26.927876,1.0
19543439,-2.8018973,-2.8771565,26.923588,1.0
19554200,-2.8335874,-2.9098022,26.945026,1.0
19564980,-2.863418,-2.940407,26.93931,1.0
19597509,-2.9616516,-3.0412378,26.932163,1.0
19608459,-2.998153,-3.0786686,26.92216,1.0
19619278,-3.036584,-3.1181245,26.920729,1.0
19651738,-3.1578796,-3.2427459,26.93788,1.0
19662530,-3.1900191,-3.27564,26.91787,1.0
19695060,-3.225737,-3.3124673,26.940739,1.0
19706024,-3.2195952,-3.3061373,26.936451,1.0
19716767,-3.2060587,-3.2921581,26.92216,1.0
19727588,-3.1862216,-3.2718894,26.940739,1.0
19738499,-3.1602366,-3.245183,26.936451,1.0
19771221,-3.0963268,-3.1795034,26.936451,1.0
19782073,-3.0879288,-3.1707892,26.9193,1.0
19792863,-3.0857103,-3.1685414,26.925016,1.0
19803624,-3.0894804,-3.172451,26.915012,1.0
19814456,-3.0990028,-3.1822214,26.913584,1.0
19825218,-3.1115494,-3.1952116,26.933592,1.0
19857669,-3.1559994,-3.2408135,26.927876,1.0
19868685,-3.1754458,-3.260852,26.940739,1.0
19879516,-3.1961148,-3.2821088,26.946455,1.0
19890258,-3.217094,-3.30366,26.947886,1.0
19901124,-3.2383971,-3.3254495,26.932163,1.0
19911879,-3.259215,-3.346706,26.916441,1.0
19922642,-3.277177,-3.365134,26.913584,1.0
19976913,-3.34285,-3.4326448,26.920729,1.0
19987685,-3.3602536,-3.4506557,26.945026,1.0
19998682,-3.3783786,-3.469169,26.927876,1.0
20020188,-3.4161906,-3.5079722,26.923588,1.0
20031146,-3.4362702,-3.5285828,26.92216,1.0
20074415,-3.5166886,-3.6112156,26.93788,1.0
20085222,-3.5310295,-3.6259117,26.933592,1.0
20096155,-3.5438106,-3.6390274,26.932163,1.0
20117731,-3.5720441,-3.6680021,26.929304,1.0
20128805,-3.5909135,-3.6874485,26.940739,1.0
20139564,-3.608796,-3.7059338,26.950743,1.0
20193709,-3.6486514,-3.7468297,26.947886,1.0
20204466,-3.6521287,-3.7504544,26.95646,1.0
20215264,-3.654811,-3.7530837,26.936451,1.0
20226220,-3.6572087,-3.7556174,26.947886,1.0
20237021,-3.658959,-3.7575047,26.962177,1.0
20291261,-3.592781,-3.6894767,26.95646,1.0
20302087,-3.564039,-3.6599038,26.949314,1.0
20312838,-3.5308619,-3.625955,26.969324,1.0
20323821,-3.4934685,-3.5874267,26.947886,1.0
20334613,-3.4525602,-3.5454943,26.960749,1.0
20367177,-3.341693,-3.4315655,26.945026,1.0
20377986,-3.3145912,-3.4037266,26.943598,1.0
20388964,-3.291792,-3.3803625,26.952173,1.0
20399706,-3.272315,-3.3604414,26.966465,1.0
20421339,-3.2397122,-3.32685,26.947886,1.0
20432081,-3.2279856,-3.3146815,26.925016,1.0
20442935,-3.2203584,-3.3070383,26.959318,1.0
20486306,-3.2143583,-3.3009446,26.967894,1.0
20497063,-3.2157347,-3.3023891,26.973612,1.0
20507964,-3.2174087,-3.303951,26.945026,1.0
20518934,-3.220342,-3.3070135,26.95646,1.0
20529683,-3.224245,-3.311085,26.967894,1.0
20572925,-3.2484956,-3.3357785,26.929304,1.0
20583883,-3.2580044,-3.3456624,26.950743,1.0
20594704,-3.2686014,-3.3565605,26.953602,1.0
20605499,-3.279333,-3.3676047,26.95789,1.0
20616404,-3.2882926,-3.3767574,26.949314,1.0
20627171,-3.2941787,-3.3828018,26.949314,1.0
20692182,-3.335281,-3.4251115,26.967894,1.0
20702998,-3.3434162,-3.4332614,26.932163,1.0
20714127,-3.3526244,-3.4427497,26.93788,1.0
20724980,-3.3635612,-3.4539232,26.927876,1.0
20735793,-3.3758013,-3.466629,26.949314,1.0
20768322,-3.3981075,-3.489527,26.947886,1.0
20779060,-3.4048355,-3.4964173,26.93788,1.0
20789884,-3.4130313,-3.5047333,26.920729,1.0
20800634,-3.4230304,-3.5151265,26.942167,1.0
20811606,-3.433605,-3.526078,26.95789,1.0
20822411,-3.444265,-3.536806,26.920729,1.0
20887257,-3.4804854,-3.5740817,26.929304,1.0
20898068,-3.4734125,-3.5668697,26.93788,1.0
20909093,-3.4625475,-3.555611,26.920729,1.0
20919851,-3.4490001,-3.541674,26.916441,1.0
20930601,-3.4331136,-3.525503,26.940739,1.0
20941548,-3.4162962,-3.508033,26.920729,1.0
20984861,-3.3893409,-3.4803374,26.91787,1.0
20995660,-3.389103,-3.4800847,26.916441,1.0
21006561,-3.3912072,-3.4823666,26.9193,1.0
21017312,-3.3970048,-3.48832,26.9193,1.0
21028158,-3.4057682,-3.497377,26.929304,1.0
21039088,-3.415163,-3.5069745,26.920729,1.0
21082397,-3.452498,-3.5453143,26.932163,1.0
21093153,-3.4628677,-3.5559034,26.92216,1.0
21104106,-3.4684618,-3.5616226,26.91787,1.0
21114868,-3.4700856,-3.5633154,26.92216,1.0
21147427,-3.4629378,-3.5560024,26.92216,1.0
21234157,-3.4816287,-3.575231,26.92216,1.0
21244957,-3.4864988,-3.5802236,26.920729,1.0
21255722,-3.486965,-3.5807877,26.935022,1.0
21266670,-3.483306,-3.5769112,26.915012,1.0
21277494,-3.4765086,-3.5699394,26.916441,1.0
21320754,-3.4271016,-3.5191996,26.91787,1.0
21331895,-3.4118223,-3.503577,26.929304,1.0
21342635,-3.3994415,-3.4908376,26.926447,1.0
21375013,-3.3882897,-3.4793198,26.915012,1.0
21385780,-3.3923109,-3.483449,26.915012,1.0
21396748,-3.3998876,-3.4912956,26.926447,1.0
21418307,-3.4234588,-3.5154505,26.91787,1.0
21429390,-3.4390404,-3.5314507,26.91787,1.0
21440148,-3.4567058,-3.549574,26.915012,1.0
21461794,-3.4973829,-3.5913556,26.920729,1.0
21472558,-3.5213325,-3.6159658,26.923588,1.0
21483334,-3.549472,-3.6448185,26.916441,1.0
21505098,-3.608561,-3.7056148,26.932163,1.0
21515932,-3.6364572,-3.73419,26.920729,1.0
21526780,-3.6614602,-3.759928,26.930735,1.0
21548409,-3.700928,-3.8005092,26.930735,1.0
21559328,-3.718647,-3.8187501,26.93788,1.0
21591871,-3.74761,-3.8484201,26.926447,1.0
21602628,-3.7459502,-3.8466785,26.920729,1.0
21613391,-3.739647,-3.8401477,26.92216,1.0
21635144,-3.7212563,-3.821354,26.936451,1.0
21645942,-3.71528,-3.8151712,26.929304,1.0
21689403,-3.7133844,-3.813257,26.935022,1.0
21700171,-3.7114267,-3.8111467,26.9193,1.0
21710936,-3.7061563,-3.8058817,26.935022,1.0
21721945,-3.697207,-3.7968,26.952173,1.0
21732781,-3.6887174,-3.7881358,26.960749,1.0
21743547,-3.6833966,-3.7826717,26.960749,1.0
21797663,-3.6619244,-3.7604313,26.935022,1.0
21808472,-3.6581323,-3.7566445,26.952173,1.0
21819473,-3.655132,-3.7533393,26.91787,1.0
21830234,-3.6532412,-3.751612,26.952173,1.0
21840987,-3.6515036,-3.7498546,26.95646,1.0
21851957,-3.6497574,-3.7478383,26.920729,1.0
21873502,-3.6478705,-3.7461536,26.950743,1.0
21884458,-3.6471815,-3.745241,26.91787,1.0
21895269,-3.6478543,-3.7460296,26.933592,1.0
21906027,-3.6495893,-3.7478652,26.942167,1.0
21916769,-3.6503665,-3.7485473,26.923588,1.0
21927555,-3.6490712,-3.7472606,26.935022,1.0
21960186,-3.6411572,-3.7392044,26.946455,1.0
21970940,-3.6377354,-3.7357528,26.95646,1.0
21981727,-3.6337228,-3.731625,26.963606,1.0
22003317,-3.623719,-3.72129,26.953602,1.0
22014078,-3.618438,-3.7158577,26.952173,1.0
22025023,-3.6106703,-3.7081194,26.990763,1.0
22046596,-3.5714397,-3.6678574,26.992191,1.0
22057598,-3.5398383,-3.6351774,26.95503,1.0
22068367,-3.5017529,-3.595901,26.92736,1.0
22079120,-3.4569805,-3.5495272,26.860186,1.0
22090254,-3.407166,-3.4985826,26.881624,1.0
22101081,-3.3529532,-3.443022,26.900206,1.0
22166124,-3.078205,-3.1605918,26.844463,1.0
22177080,-3.059403,-3.1418056,26.943598,1.0
22187884,-3.0482013,-3.1298773,26.86213,1.0
22220434,-3.0506408,-3.1327088,26.932163,1.0
22231177,-3.0573676,-3.1401172,27.027924,1.0
22242231,-3.063679,-3.1459928,26.912153,1.0
22285385,-3.1082988,-3.191906,26.916441,1.0
22296180,-3.1251893,-3.2092507,26.916441,1.0
22307172,-3.144418,-3.2290657,26.929304,1.0
22339638,-3.2084103,-3.2948925,26.960749,1.0
22350394,-3.2246585,-3.3117287,26.987904,1.0
22361233,-3.2331433,-3.320324,26.966465,1.0
22383001,-3.2436855,-3.3308046,26.90215,1.0
22393753,-3.2550113,-3.342777,26.963606,1.0
22404715,-3.2674513,-3.3550572,26.874992,1.0
22415488,-3.2819028,-3.3703775,26.960749,1.0
22437299,-3.3208704,-3.4103773,26.950743,1.0
22448041,-3.3413322,-3.4312353,26.923588,1.0
22458809,-3.3616397,-3.4523442,26.967894,1.0
22480672,-3.4020925,-3.4939091,26.972181,1.0
22491432,-3.4202836,-3.512683,26.987904,1.0
22502350,-3.4359605,-3.5283213,26.909294,1.0
22523923,-3.4617712,-3.5555282,27.027924,1.0
22534775,-3.4661422,-3.5590625,26.872135,1.0
22545542,-3.4697924,-3.5635064,26.989332,1.0
22578081,-3.4846344,-3.5786812,26.9779,1.0
22588867,-3.4916549,-3.5857666,26.959318,1.0
22599780,-3.4966226,-3.5906289,26.9193,1.0
22610557,-3.5001874,-3.5946748,26.983616,1.0
22643150,-3.501697,-3.5958366,26.915012,1.0
22653941,-3.4956748,-3.5894644,26.88357,1.0
22664820,-3.4865265,-3.5808039,27.006485,1.0
22708067,-3.4020002,-3.4937935,26.967894,1.0
22718873,-3.3765376,-3.4674623,26.936451,1.0
22729929,-3.3539033,-3.4440792,26.912153,1.0
22740724,-3.3369527,-3.4268358,26.940739,1.0
22762350,-3.314311,-3.4032264,26.88357,1.0
22773153,-3.316372,-3.40518,26.854984,1.0
22816413,-3.368823,-3.4595265,26.93788,1.0
22827366,-3.3780875,-3.469305,26.983616,1.0
22838158,-3.3788674,-3.4699984,26.965036,1.0
22848969,-3.3719535,-3.462865,26.959318,1.0
22859889,-3.3582475,-3.4484496,26.897861,1.0
22870653,-3.3378663,-3.4278963,26.963606,1.0
22903207,-3.2359757,-3.3233762,26.985044,1.0
22913992,-3.1901286,-3.2761102,26.940739,1.0
22924946,-3.1487062,-3.2335174,26.930735,1.0
22935702,-3.1195424,-3.2035756,26.932163,1.0
22946517,-3.1010883,-3.184359,26.88214,1.0
22957432,-3.0903864,-3.1738687,26.976469,1.0
23000834,-3.1011324,-3.1847405,26.950743,1.0
23011635,-3.1087518,-3.192596,26.95646,1.0
23022488,-3.1096473,-3.193113,26.877851,1.0
23033231,-3.111151,-3.1945581,26.859272,1.0
23044016,-3.1190612,-3.2029321,26.906437,1.0
23055007,-3.12525,-3.2095702,26.959318,1.0
23109075,-3.0502887,-3.1323223,26.906437,1.0
23120056,-3.033982,-3.115976,26.990763,1.0
23130842,-3.0224855,-3.1037326,26.906437,1.0
23141584,-3.0160298,-3.0974207,26.967894,1.0
23152542,-3.0167701,-3.0974798,26.832115,1.0
23206698,-3.0743766,-3.1571167,26.923588,1.0
23217554,-3.0850735,-3.1685085,27.000767,1.0
23228408,-3.0877008,-3.1709604,26.959318,1.0
23260838,-3.0510144,-3.1329865,26.90215,1.0
23271653,-3.0311859,-3.1127806,26.932163,1.0
23315095,-2.929006,-3.0073574,26.829258,1.0
23325842,-2.9149268,-2.9937425,26.99791,1.0
23336662,-2.9080963,-2.986251,26.90215,1.0
23347604,-2.9084637,-2.9866614,26.903578,1.0
23358353,-2.9164026,-2.9950776,26.95646,1.0
23369189,-2.9327908,-3.0114849,26.872135,1.0
23380146,-2.96007,-3.0398653,26.945026,1.0
23423462,-3.093411,-3.176828,26.947886,1.0
23434205,-3.113933,-3.1976824,26.906437,1.0
23445266,-3.1270988,-3.2110326,26.87928,1.0
23456024,-3.1353524,-3.2196689,26.909294,1.0
23466798,-3.1413565,-3.225665,26.877851,1.0
23510177,-3.1414626,-3.226043,26.929304,1.0
23520979,-3.142078,-3.2268825,26.967894,1.0
23531757,-3.1457994,-3.2308273,26.990763,1.0
23542702,-3.1507943,-3.2362807,27.05079,1.0
23575190,-3.1715078,-3.2568984,26.93931,1.0
23586040,-3.183654,-3.2695587,26.973612,1.0
23596779,-3.1960485,-3.282092,26.93788,1.0
23629294,-3.214308,-3.3014839,27.039356,1.0
23640203,-3.2041116,-3.2903998,26.927876,1.0
23650954,-3.188959,-3.2748697,26.933592,1.0
23661809,-3.1718712,-3.2573297,26.935022,1.0
23683593,-3.124682,-3.2084866,26.864988,1.0
23694347,-3.0984151,-3.1820304,26.962177,1.0
23705255,-3.0715687,-3.15473,27.01363,1.0
23737813,-3.0014365,-3.0822802,26.935022,1.0
23748585,-2.986932,-3.0673993,26.93788,1.0
23759353,-2.979779,-3.059835,26.895002,1.0
23770315,-2.9807067,-3.0610015,26.926447,1.0
23781052,-2.9881954,-3.0687213,26.932163,1.0
23791878,-3.0011086,-3.0818355,26.903578,1.0
23824373,-3.0748072,-3.1578012,26.962177,1.0
23835318,-3.1054504,-3.1891654,26.942167,1.0
23846092,-3.1380248,-3.2225797,26.935022,1.0
23856923,-3.1747015,-3.2603376,26.952173,1.0
23867830,-3.2126489,-3.2991354,26.920729,1.0
23878588,-3.2498457,-3.3374817,26.945026,1.0
23911119,-3.3539877,-3.4444396,26.946455,1.0
23921908,-3.3826456,-3.4737382,26.923588,1.0
23932849,-3.409018,-3.5009036,26.940739,1.0
23954408,-3.457928,-3.5512502,26.960749,1.0
23965383,-3.4778225,-3.571486,26.927876,1.0
23976137,-3.4925857,-3.5865872,26.91787,1.0
24041309,-3.5212345,-3.6160574,26.929304,1.0
24052068,-3.525149,-3.6201296,26.93788,1.0
24062954,-3.530538,-3.6255598,26.920729,1.0
24073711,-3.5378056,-3.6330228,26.920729,1.0
24084480,-3.5470016,-3.6424928,26.925016,1.0
24127956,-3.56638,-3.6624026,26.92216,1.0
24138836,-3.5638425,-3.660285,27.002195,1.0
24149620,-3.555121,-3.650958,26.940739,1.0
24160503,-3.5437825,-3.6392274,26.926447,1.0
24171302,-3.5306413,-3.6257062,26.92216,1.0
24182058,-3.5147727,-3.609419,26.923588,1.0
24225518,-3.4365695,-3.5291142,26.923588,1.0
24236284,-3.42036,-3.5125356,26.935022,1.0
24247102,-3.4068828,-3.498595,26.91787,1.0
24258003,-3.3943849,-3.4857953,26.935022,1.0
24268760,-3.3846567,-3.4756808,26.913584,1.0
24279608,-3.3797824,-3.4706833,26.915012,1.0
24290591,-3.379588,-3.4705253,26.92216,1.0
24333845,-3.3755476,-3.4664624,26.923588,1.0
24344666,-3.3681743,-3.458874,26.920729,1.0
24355502,-3.360161,-3.450645,26.920729,1.0
24377111,-3.348296,-3.4384139,26.91787,1.0
24388059,-3.34628,-3.436319,26.913584,1.0
24420565,-3.3638825,-3.4544637,26.916441,1.0
24431321,-3.3719554,-3.4627705,26.9193,1.0
24442138,-3.381306,-3.4724224,26.927876,1.0
24453094,-3.3929405,-3.4843786,26.929304,1.0
24485602,-3.4361825,-3.5286357,26.915012,1.0
24496424,-3.4463067,-3.5390742,26.92216,1.0
24528911,-3.4055662,-3.4972334,26.920729,1.0
24539676,-3.3700044,-3.4607308,26.923588,1.0
24550805,-3.3303475,-3.41999,26.920729,1.0
24561547,-3.2849672,-3.373396,26.92216,1.0
24572318,-3.2344117,-3.3214796,26.92216,1.0
24583180,-3.1813302,-3.2669938,26.92216,1.0
24626578,-3.001542,-3.0821517,26.88071,1.0
24637329,-2.9815059,-3.06183,26.926447,1.0
24648190,-2.9707696,-3.0507753,26.920729,1.0
24658953,-2.9675677,-3.0474942,26.92216,1.0
24669761,-2.9712558,-3.0512815,26.92216,1.0
24680690,-2.981016,-3.061312,26.923588,1.0
24734745,-3.0235257,-3.1050022,26.923588,1.0
24745694,-3.024426,-3.1059191,26.92216,1.0
24756498,-3.0237925,-3.105239,26.916441,1.0
24778246,-3.0283246,-3.109893,26.916441,1.0
24789002,-3.0366075,-3.1184585,26.927876,1.0
24821628,-3.0550475,-3.13735,26.936451,1.0
24832380,-3.0613332,-3.143693,26.915012,1.0
24843374,-3.0692794,-3.151838,26.912153,1.0
24854125,-3.07855,-3.1615515,26.943598,1.0
24864928,-3.0858395,-3.1689694,26.930735,1.0
24875816,-3.0911694,-3.1744428,26.930735,1.0
24929893,-3.1787822,-3.2643974,26.92216,1.0
24940811,-3.2074056,-3.2939649,26.953602,1.0
24951581,-3.2357497,-3.3229787,26.936451,1.0
24962368,-3.2642035,-3.3520708,26.91787,1.0
24994879,-3.3535476,-3.4438524,26.923588,1.0
25005814,-3.3775418,-3.468506,26.92216,1.0
25016598,-3.3953078,-3.4868586,26.940739,1.0
25059967,-3.4406095,-3.53329,26.92216,1.0
25070943,-3.4447603,-3.537755,26.95646,1.0
25081693,-3.4477594,-3.5408015,26.950743,1.0
25114204,-3.4674733,-3.5607932,26.907866,1.0
25124962,-3.4809988,-3.5748432,26.93788,1.0
25168411,-3.5342662,-3.6296332,26.952173,1.0
25179183,-3.5448859,-3.6405303,26.952173,1.0
25189988,-3.5541162,-3.650053,26.959318,1.0
25211997,-3.5674155,-3.6635194,26.927876,1.0
25222747,-3.568357,-3.6645842,26.952173,1.0
25276724,-3.5295393,-3.624694,26.947886,1.0
25287516,-3.521246,-3.6162262,26.949314,1.0
25298537,-3.512127,-3.6069386,26.962177,1.0
25331132,-3.4896235,-3.5837605,26.947886,1.0
25341890,-3.4842277,-3.5782273,26.949314,1.0
25352638,-3.4794078,-3.5733964,26.969324,1.0
25428511,-3.4574542,-3.5506475,26.933592,1.0
25439321,-3.4638422,-3.5572872,26.949314,1.0
25450118,-3.4708178,-3.5643744,26.936451,1.0
25461136,-3.477913,-3.5718143,26.962177,1.0
25471882,-3.4845135,-3.578508,26.947886,1.0
25482630,-3.4889746,-3.583106,26.950743,1.0
25515162,-3.4943419,-3.5885828,26.950743,1.0
25526063,-3.4925895,-3.5868,26.953602,1.0
25536871,-3.4878168,-3.5818899,26.952173,1.0
25547658,-3.4794087,-3.5731082,26.920729,1.0
25558607,-3.470179,-3.5633922,26.88071,1.0
25569461,-3.464698,-3.5581455,26.945026,1.0
25623628,-3.4613132,-3.5548952,26.9779,1.0
25634395,-3.463837,-3.5568264,26.866417,1.0
25645172,-3.4703388,-3.5638762,26.929304,1.0
25666910,-3.4846299,-3.5785186,26.92216,1.0
25677691,-3.491331,-3.5854175,26.925016,1.0
25732052,-3.5401337,-3.6355362,26.92216,1.0
25742839,-3.552665,-3.648501,26.93788,1.0
25753689,-3.565373,-3.6615515,26.93788,1.0
25775250,-3.591309,-3.6881902,26.943598,1.0
25786183,-3.6009996,-3.697984,26.91787,1.0
25840312,-3.5277452,-3.62277,26.916441,1.0
25851233,-3.491291,-3.5854793,26.940739,1.0
25861982,-3.4478505,-3.5407145,26.915012,1.0
25872784,-3.3982422,-3.4898868,26.935022,1.0
25894457,-3.3122847,-3.401578,26.933592,1.0
25905276,-3.2827709,-3.371204,26.92216,1.0
25948859,-3.2099154,-3.2963626,26.91787,1.0
25959635,-3.1925194,-3.2784982,26.91787,1.0
25970411,-3.174978,-3.2604609,26.913584,1.0
25981408,-3.158198,-3.243492,26.962177,1.0
25992221,-3.1446369,-3.2293339,26.91787,1.0
26002994,-3.1369488,-3.2214386,26.91787,1.0
26013897,-3.1356492,-3.2201273,26.92216,1.0
26035396,-3.1547837,-3.2397773,26.92216,1.0
26046316,-3.1734045,-3.2589402,26.92216,1.0
26057170,-3.193237,-3.2793074,26.92216,1.0
26067920,-3.2121844,-3.2987735,26.923588,1.0
26078984,-3.2319913,-3.319106,26.92216,1.0
26154639,-3.3664885,-3.4574156,26.963606,1.0
26165403,-3.3687918,-3.4595177,26.91787,1.0
26176463,-3.3681207,-3.4589767,26.943598,1.0
26197994,-3.3727255,-3.4635572,26.91787,1.0
26208938,-3.3803701,-3.471472,26.920729,1.0
26241389,-3.4231884,-3.515436,26.9193,1.0
26252137,-3.4392,-3.532207,26.97504,1.0
26262950,-3.4527657,-3.5458326,26.9193,1.0
26284737,-3.481971,-3.575808,26.916441,1.0
26295487,-3.493782,-3.5879457,26.91787,1.0
26393001,-3.4279647,-3.5203793,26.92216,1.0
26403975,-3.4139874,-3.5059752,26.913584,1.0
26414788,-3.401644,-3.4933908,26.929304,1.0
26512366,-3.2871618,-3.3757803,26.923588,1.0
26523133,-3.2888381,-3.3775182,26.926447,1.0
26534008,-3.2909963,-3.3796446,26.915012,1.0
26653120,-3.5058174,-3.6005077,26.947886,1.0
26664064,-3.5364594,-3.6318307,26.923588,1.0
26674870,-3.5640469,-3.6601796,26.926447,1.0
26750713,-3.6342316,-3.7323868,26.945026,1.0
26761627,-3.6342933,-3.7330277,27.037928,1.0
26772375,-3.6322656,-3.730341,26.940739,1.0
26891695,-3.58955,-3.6864972,26.949314,1.0
26902441,-3.5700393,-3.6664681,26.950743,1.0
26913235,-3.5458152,-3.6415813,26.949314,1.0
27010810,-3.217483,-3.3044262,26.950743,1.0
27021718,-3.194685,-3.2810357,26.95503,1.0
27032536,-3.1765704,-3.2622566,26.92216,1.0
