timestamp,data_rate,rate_multiplier,tx_rate_avg,tx_error_rate_avg,tx_message_count,tx_buffer_overruns,rx_rate_avg,rx_message_count,rx_message_lost_count,rx_buffer_overruns,rx_parse_errors,rx_packet_drop_count,rx_message_lost_rate,type,mode,flow_control,forwarding,mavlink_v2,ftp,streams,heartbeat_type_antenna_tracker,heartbeat_type_gcs,heartbeat_type_onboard_controller,heartbeat_type_gimbal,heartbeat_type_adsb,heartbeat_type_camera,heartbeat_component_telemetry_radio,heartbeat_component_log,heartbeat_component_osd,heartbeat_component_obstacle_avoidance,heartbeat_component_vio,heartbeat_component_pairing_manager,heartbeat_component_udp_bridge,heartbeat_component_uart_bridge,avoidance_system_healthy
394666263,800000.0,0.05,0.0,1005.2583,54,8626,0.0,0,0,0,0,0,0.0,3,5,0,0,0,1,44,0,0,0,0,0,0,0,0,0,0,0,0,0,0,0
396178165,800000.0,0.05,0.0,855.6067,54,8663,0.0,0,0,0,0,0,0.0,3,5,0,0,0,1,44,0,0,0,0,0,0,0,0,0,0,0,0,0,0,0
396926192,800000.0,0.05,0.0,937.2156,54,8681,0.0,0,0,0,0,0,0.0,3,5,0,0,0,1,44,0,0,0,0,0,0,0,0,0,0,0,0,0,0,0
397684620,800000.0,0.05,0.0,896.20044,54,8696,0.0,0,0,0,0,0,0.0,3,5,0,0,0,1,44,0,0,0,0,0,0,0,0,0,0,0,0,0,0,0
398443223,800000.0,0.05,0.0,883.7641,54,8714,0.0,0,0,0,0,0,0.0,3,5,0,0,0,1,44,0,0,0,0,0,0,0,0,0,0,0,0,0,0,0
399193942,800000.0,0.05,0.0,883.7641,54,8732,0.0,0,0,0,0,0,0.0,3,5,0,0,0,1,44,0,0,0,0,0,0,0,0,0,0,0,0,0,0,0
400709504,800000.0,0.05,0.0,936.97864,54,8763,0.0,0,0,0,0,0,0.0,3,5,0,0,0,1,44,0,0,0,0,0,0,0,0,0,0,0,0,0,0,0
401460868,800000.0,0.05,0.0,939.337,54,8782,0.0,0,0,0,0,0,0.0,3,5,0,0,0,1,44,0,0,0,0,0,0,0,0,0,0,0,0,0,0,0
402217355,800000.0,0.05,0.0,939.337,54,8800,0.0,0,0,0,0,0,0.0,3,5,0,0,0,1,44,0,0,0,0,0,0,0,0,0,0,0,0,0,0,0
402967912,800000.0,0.05,0.0,946.72363,54,8819,0.0,0,0,0,0,0,0.0,3,5,0,0,0,1,44,0,0,0,0,0,0,0,0,0,0,0,0,0,0,0
404470546,800000.0,0.05,0.0,935.08813,54,8853,0.0,0,0,0,0,0,0.0,3,5,0,0,0,1,44,0,0,0,0,0,0,0,0,0,0,0,0,0,0,0
405222480,800000.0,0.05,0.0,935.08813,54,8872,0.0,0,0,0,0,0,0.0,3,5,0,0,0,1,44,0,0,0,0,0,0,0,0,0,0,0,0,0,0,0
405981550,800000.0,0.05,0.0,896.2863,54,8888,0.0,0,0,0,0,0,0.0,3,5,0,0,0,1,44,0,0,0,0,0,0,0,0,0,0,0,0,0,0,0
407484787,800000.0,0.05,0.0,816.3648,54,8919,0.0,0,0,0,0,0,0.0,3,5,0,0,0,1,44,0,0,0,0,0,0,0,0,0,0,0,0,0,0,0
408232590,800000.0,0.05,0.0,816.3648,54,8939,0.0,0,0,0,0,0,0.0,3,5,0,0,0,1,44,0,0,0,0,0,0,0,0,0,0,0,0,0,0,0
408992709,800000.0,0.05,0.0,936.1735,54,8956,0.0,0,0,0,0,0,0.0,3,5,0,0,0,1,44,0,0,0,0,0,0,0,0,0,0,0,0,0,0,0
410513708,800000.0,0.05,0.0,886.201,54,8990,0.0,0,0,0,0,0,0.0,3,5,0,0,0,1,44,0,0,0,0,0,0,0,0,0,0,0,0,0,0,0
411275006,800000.0,0.05,0.0,886.201,54,9008,0.0,0,0,0,0,0,0.0,3,5,0,0,0,1,44,0,0,0,0,0,0,0,0,0,0,0,0,0,0,0
412028685,800000.0,0.05,0.0,857.8676,54,9027,0.0,0,0,0,0,0,0.0,3,5,0,0,0,1,44,0,0,0,0,0,0,0,0,0,0,0,0,0,0,0
413540117,800000.0,0.05,0.0,906.63464,54,9059,0.0,0,0,0,0,0,0.0,3,5,0,0,0,1,44,0,0,0,0,0,0,0,0,0,0,0,0,0,0,0
414292129,800000.0,0.05,0.0,906.63464,54,9077,0.0,0,0,0,0,0,0.0,3,5,0,0,0,1,44,0,0,0,0,0,0,0,0,0,0,0,0,0,0,0
415046201,800000.0,0.05,0.0,886.97815,54,9094,0.0,0,0,0,0,0,0.0,3,5,0,0,0,1,44,0,0,0,0,0,0,0,0,0,0,0,0,0,0,0
416192666,800000.0,0.05,0.0,817.0057,58,9120,0.0,1,0,0,0,0,0.0,3,5,0,0,0,1,44,0,1,0,0,0,0,0,0,0,0,0,0,0,0,0
417172849,800000.0,0.9070901,6823.195,698.8744,1082,9120,110.03554,4,0,0,0,0,0.0,3,5,0,0,0,1,44,0,1,0,0,0,0,0,0,0,0,0,0,0,0,0
418181554,800000.0,1.0,32441.129,0.0,1425,9120,57.928802,6,0,0,0,0,0.0,3,5,0,0,0,1,45,0,1,0,0,0,0,0,0,0,0,0,0,0,0,0
419195062,800000.0,1.0,13858.108,0.0,1773,9120,16.994001,7,0,0,0,0,0.0,3,5,0,0,0,1,45,0,1,0,0,0,0,0,0,0,0,0,0,0,0,0
420196845,800000.0,1.0,14119.286,0.0,2117,9120,16.960703,8,0,0,0,0,0.0,3,5,0,0,0,1,45,0,1,0,0,0,0,0,0,0,0,0,0,0,0,0
421202006,800000.0,1.0,13890.762,0.0,2461,9120,16.98015,9,0,0,0,0,0.0,3,5,0,0,0,1,45,0,1,0,0,0,0,0,0,0,0,0,0,0,0,0
422203822,800000.0,1.0,13871.234,0.0,2806,9120,16.961159,10,0,0,0,0,0.0,3,5,0,0,0,1,45,0,1,0,0,0,0,0,0,0,0,0,0,0,0,0
423205331,800000.0,1.0,13894.662,0.0,3150,9120,16.984917,11,0,0,0,0,0.0,3,5,0,0,0,1,45,0,1,0,0,0,0,0,0,0,0,0,0,0,0,0
424210354,800000.0,1.0,13902.86,0.0,3496,9120,16.99983,12,0,0,0,0,0.0,3,5,0,0,0,1,45,0,1,0,0,0,0,0,0,0,0,0,0,0,0,0
425209961,800000.0,1.0,13900.801,0.0,3840,9120,16.992422,13,0,0,0,0,0.0,3,5,0,0,0,1,45,0,1,0,0,0,0,0,0,0,0,0,0,0,0,0
426212680,800000.0,1.0,13902.902,0.0,4184,9120,16.99988,14,0,0,0,0,0.0,3,5,0,0,0,1,45,0,1,0,0,0,0,0,0,0,0,0,0,0,0,0
427221400,800000.0,1.0,13872.112,0.0,4535,9120,16.957354,15,0,0,0,0,0.0,3,5,0,0,0,1,45,0,1,0,0,0,0,0,0,0,0,0,0,0,0,0
428241639,800000.0,1.0,13973.859,0.0,4883,9120,16.941635,16,0,0,0,0,0.0,3,5,0,0,0,1,45,0,1,0,0,0,0,0,0,0,0,0,0,0,0,0
429240561,800000.0,1.0,13870.092,0.0,5227,9120,16.954884,17,0,0,0,0,0.0,3,5,0,0,0,1,45,0,1,0,0,0,0,0,0,0,0,0,0,0,0,0
430249677,800000.0,1.0,13970.666,0.0,5570,9120,16.905212,18,0,0,0,0,0.0,3,5,0,0,0,1,45,0,1,0,0,0,0,0,0,0,0,0,0,0,0,0
431251825,800000.0,1.0,13778.305,0.0,5914,9120,16.974504,19,0,0,0,0,0.0,3,5,0,0,0,1,45,0,1,0,0,0,0,0,0,0,0,0,0,0,0,0
432261474,800000.0,1.0,13884.729,0.0,6258,9120,16.918032,20,0,0,0,0,0.0,3,5,0,0,0,1,45,0,1,0,0,0,0,0,0,0,0,0,0,0,0,0
433277217,800000.0,1.0,13669.034,0.0,6603,9120,16.886387,21,0,0,0,0,0.0,3,5,0,0,0,1,45,0,1,0,0,0,0,0,0,0,0,0,0,0,0,0
434288125,800000.0,1.0,13604.13,0.0,6952,9120,16.99142,22,0,0,0,0,0.0,3,5,0,0,0,1,45,0,1,0,0,0,0,0,0,0,0,0,0,0,0,0
435299776,800000.0,1.0,13860.084,0.0,7294,9120,16.94265,23,0,0,0,0,0.0,3,5,0,0,0,1,45,0,1,0,0,0,0,0,0,0,0,0,0,0,0,0
436313616,800000.0,1.0,13729.705,0.0,7642,9120,16.96627,24,0,0,0,0,0.0,3,5,0,0,0,1,45,0,1,0,0,0,0,0,0,0,0,0,0,0,0,0
437331074,800000.0,1.0,13893.992,0.0,7994,9120,16.879715,25,0,0,0,0,0.0,3,5,0,0,0,1,45,0,1,0,0,0,0,0,0,0,0,0,0,0,0,0
438329391,800000.0,1.0,13899.358,0.0,8338,9120,16.995546,26,0,0,0,0,0.0,3,5,0,0,0,1,45,0,1,0,0,0,0,0,0,0,0,0,0,0,0,0
439337559,800000.0,1.0,13855.61,0.0,8680,9120,16.852356,27,0,0,0,0,0.0,3,5,0,0,0,1,45,0,1,0,0,0,0,0,0,0,0,0,0,0,0,0
440339921,800000.0,1.0,13871.456,0.0,9021,9120,16.96143,28,0,0,0,0,0.0,3,5,0,0,0,1,45,0,1,0,0,0,0,0,0,0,0,0,0,0,0,0
441341612,800000.0,1.0,13760.229,0.0,9365,9120,16.938732,29,0,0,0,0,0.0,3,5,0,0,0,1,45,0,1,0,0,0,0,0,0,0,0,0,0,0,0,0
442349712,800000.0,1.0,13893.233,0.0,9712,9120,16.988058,30,0,0,0,0,0.0,3,5,0,0,0,1,45,0,1,0,0,0,0,0,0,0,0,0,0,0,0,0
443348027,800000.0,1.0,13893.69,0.0,10050,9120,16.98373,31,0,0,0,0,0.0,3,5,0,0,0,1,45,0,1,0,0,0,0,0,0,0,0,0,0,0,0,0
444361262,800000.0,1.0,13605.68,0.0,10396,9120,16.993355,32,0,0,0,0,0.0,3,5,0,0,0,1,45,0,1,0,0,0,0,0,0,0,0,0,0,0,0,0
445372035,800000.0,1.0,13814.471,0.0,10750,9120,16.886892,33,0,0,0,0,0.0,3,5,0,0,0,1,45,0,1,0,0,0,0,0,0,0,0,0,0,0,0,0
446374806,800000.0,1.0,13766.083,0.0,11093,9120,16.832582,34,0,0,0,0,0.0,3,5,0,0,0,1,45,0,1,0,0,0,0,0,0,0,0,0,0,0,0,0
447382492,800000.0,1.0,13888.181,0.0,11438,9120,16.976995,35,0,0,0,0,0.0,3,5,0,0,0,1,45,0,1,0,0,0,0,0,0,0,0,0,0,0,0,0
448396544,800000.0,1.0,13949.807,0.0,11778,9120,16.972996,36,0,0,0,0,0.0,3,5,0,0,0,1,45,0,1,0,0,0,0,0,0,0,0,0,0,0,0,0
449409217,800000.0,1.0,13602.603,0.0,12129,9120,16.934767,37,0,0,0,0,0.0,3,5,0,0,0,1,45,0,1,0,0,0,0,0,0,0,0,0,0,0,0,0
450423792,800000.0,1.0,14237.092,0.0,12475,9120,16.903936,38,0,0,0,0,0.0,3,5,0,0,0,1,45,0,1,0,0,0,0,0,0,0,0,0,0,0,0,0
451424354,800000.0,1.0,13919.397,0.0,12820,9120,16.966354,39,0,0,0,0,0.0,3,5,0,0,0,1,45,0,1,0,0,0,0,0,0,0,0,0,0,0,0,0
453436554,800000.0,1.0,13933.652,0.0,13512,9120,16.98373,41,0,0,0,0,0.0,3,5,0,0,0,1,45,0,1,0,0,0,0,0,0,0,0,0,0,0,0,0
454440095,800000.0,1.0,13742.397,0.0,13855,9120,16.852106,42,0,0,0,0,0.0,3,5,0,0,0,1,45,0,1,0,0,0,0,0,0,0,0,0,0,0,0,0
455446291,800000.0,1.0,13913.537,0.0,14199,9120,16.959211,43,0,0,0,0,0.0,3,5,0,0,0,1,45,0,1,0,0,0,0,0,0,0,0,0,0,0,0,0
456460160,800000.0,1.0,13714.73,0.0,14545,9120,16.81818,44,0,0,0,0,0.0,3,5,0,0,0,1,45,0,1,0,0,0,0,0,0,0,0,0,0,0,0,0
457482373,800000.0,1.0,13932.955,0.0,14900,9120,16.982882,45,0,0,0,0,0.0,3,5,0,0,0,1,45,0,1,0,0,0,0,0,0,0,0,0,0,0,0,0
458492973,800000.0,1.0,13814.414,0.0,15248,9120,16.94042,46,0,0,0,0,0.0,3,5,0,0,0,1,45,0,1,0,0,0,0,0,0,0,0,0,0,0,0,0
459508983,800000.0,1.0,13908.073,0.0,15597,9120,16.8932,47,0,0,0,0,0.0,3,5,0,0,0,1,45,0,1,0,0,0,0,0,0,0,0,0,0,0,0,0
460514798,800000.0,1.0,13700.094,0.0,15938,9120,16.979048,48,0,0,0,0,0.0,3,5,0,0,0,1,45,0,1,0,0,0,0,0,0,0,0,0,0,0,0,0
461524044,800000.0,1.0,13936.094,0.0,16288,9120,16.913942,49,0,0,0,0,0.0,3,5,0,0,0,1,45,0,1,0,0,0,0,0,0,0,0,0,0,0,0,0
462530211,800000.0,1.0,13807.829,0.0,16632,9120,16.827951,50,0,0,0,0,0.0,3,5,0,0,0,1,45,0,1,0,0,0,0,0,0,0,0,0,0,0,0,0
463534314,800000.0,1.0,13846.682,0.0,16977,9120,16.877722,51,0,0,0,0,0.0,3,5,0,0,0,1,45,0,1,0,0,0,0,0,0,0,0,0,0,0,0,0
464536164,800000.0,1.0,13820.075,0.0,17321,9120,16.947361,52,0,0,0,0,0.0,3,5,0,0,0,1,45,0,1,0,0,0,0,0,0,0,0,0,0,0,0,0
465541261,800000.0,1.0,13915.495,0.0,17665,9120,16.9616,53,0,0,0,0,0.0,3,5,0,0,0,1,45,0,1,0,0,0,0,0,0,0,0,0,0,0,0,0
466552528,800000.0,1.0,13859.5,0.0,18012,9120,16.935846,54,0,0,0,0,0.0,3,5,0,0,0,1,45,0,1,0,0,0,0,0,0,0,0,0,0,0,0,0
467567876,800000.0,1.0,13875.803,0.0,18358,9120,16.913218,55,0,0,0,0,0.0,3,5,0,0,0,1,45,0,1,0,0,0,0,0,0,0,0,0,0,0,0,0
468568774,800000.0,1.0,13848.059,0.0,18705,9120,16.981678,56,0,0,0,0,0.0,3,5,0,0,0,1,45,0,1,0,0,0,0,0,0,0,0,0,0,0,0,0
469578253,800000.0,1.0,13865.214,0.0,19055,9120,16.827917,57,0,0,0,0,0.0,3,5,0,0,0,1,45,0,1,0,0,0,0,0,0,0,0,0,0,0,0,0
470585619,800000.0,1.0,13840.675,0.0,19397,9120,16.972622,58,0,0,0,0,0.0,3,5,0,0,0,1,45,0,1,0,0,0,0,0,0,0,0,0,0,0,0,0
471586536,800000.0,1.0,13771.212,0.0,19740,9120,16.963308,59,0,0,0,0,0.0,3,5,0,0,0,1,45,0,1,0,0,0,0,0,0,0,0,0,0,0,0,0
472606194,800000.0,1.0,13860.741,0.0,20091,9120,16.99723,60,0,0,0,0,0.0,3,5,0,0,0,1,45,0,1,0,0,0,0,0,0,0,0,0,0,0,0,0
473618138,800000.0,1.0,13834.498,0.0,20437,9120,16.862871,61,0,0,0,0,0.0,3,5,0,0,0,1,45,0,1,0,0,0,0,0,0,0,0,0,0,0,0,0
474620649,800000.0,1.0,13841.118,0.0,20782,9120,16.973166,62,0,0,0,0,0.0,3,5,0,0,0,1,45,0,1,0,0,0,0,0,0,0,0,0,0,0,0,0
475624046,800000.0,1.0,13950.532,0.0,21122,9120,16.879648,63,0,0,0,0,0.0,3,5,0,0,0,1,45,0,1,0,0,0,0,0,0,0,0,0,0,0,0,0
476640918,800000.0,1.0,13802.642,0.0,21465,9120,16.925983,64,0,0,0,0,0.0,3,5,0,0,0,1,45,0,1,0,0,0,0,0,0,0,0,0,0,0,0,0
477642548,800000.0,1.0,13719.089,0.0,21808,9120,16.825953,65,0,0,0,0,0.0,3,5,0,0,0,1,45,0,1,0,0,0,0,0,0,0,0,0,0,0,0,0
478644729,800000.0,1.0,13785.004,0.0,22153,9120,16.904354,66,0,0,0,0,0.0,3,5,0,0,0,1,45,0,1,0,0,0,0,0,0,0,0,0,0,0,0,0
479650511,800000.0,1.0,13867.05,0.0,22498,9120,16.843372,67,0,0,0,0,0.0,3,5,0,0,0,1,45,0,1,0,0,0,0,0,0,0,0,0,0,0,0,0
480655805,800000.0,1.0,13868.756,0.0,22843,9120,16.960567,68,0,0,0,0,0.0,3,5,0,0,0,1,45,0,1,0,0,0,0,0,0,0,0,0,0,0,0,0
481664167,800000.0,1.0,13931.689,0.0,23189,9120,16.981339,69,0,0,0,0,0.0,3,5,0,0,0,1,45,0,1,0,0,0,0,0,0,0,0,0,0,0,0,0
482686274,800000.0,1.0,13862.514,0.0,23543,9120,16.999405,70,0,0,0,0,0.0,3,5,0,0,0,1,45,0,1,0,0,0,0,0,0,0,0,0,0,0,0,0
483691843,800000.0,1.0,13807.516,0.0,23886,9120,16.829983,71,0,0,0,0,0.0,3,5,0,0,0,1,45,0,1,0,0,0,0,0,0,0,0,0,0,0,0,0
484711228,800000.0,1.0,13789.749,0.0,24236,9120,16.983679,72,0,0,0,0,0.0,3,5,0,0,0,1,45,0,1,0,0,0,0,0,0,0,0,0,0,0,0,0
486478085,800000.0,1.0,13782.16,0.0,24839,9120,16.828035,73,0,0,0,0,0.0,3,5,0,0,0,1,45,0,1,0,0,0,0,0,0,0,0,0,0,0,0,0
487489562,800000.0,1.0,13862.38,0.0,25191,9120,16.837702,74,0,0,0,0,0.0,3,5,0,0,0,1,45,0,1,0,0,0,0,0,0,0,0,0,0,0,0,0
488478947,800000.0,1.0,13839.569,0.0,25530,9120,16.971268,75,0,0,0,0,0.0,3,5,0,0,0,1,45,0,1,0,0,0,0,0,0,0,0,0,0,0,0,0
489494501,800000.0,1.0,14042.53,0.0,25879,9120,16.93912,76,0,0,0,0,0.0,3,5,0,0,0,1,45,0,1,0,0,0,0,0,0,0,0,0,0,0,0,0
490490055,800000.0,1.0,13770.134,0.0,26220,9120,16.88612,77,0,0,0,0,0.0,3,5,0,0,0,1,45,0,1,0,0,0,0,0,0,0,0,0,0,0,0,0
491495358,800000.0,1.0,13739.543,0.0,26564,9120,16.924297,78,0,0,0,0,0.0,3,5,0,0,0,1,45,0,1,0,0,0,0,0,0,0,0,0,0,0,0,0
492512131,800000.0,1.0,13893.819,0.0,26910,9120,16.904875,79,0,0,0,0,0.0,3,5,0,0,0,1,45,0,1,0,0,0,0,0,0,0,0,0,0,0,0,0
493522789,800000.0,1.0,13726.272,0.0,27257,9120,16.957098,80,0,0,0,0,0.0,3,5,0,0,0,1,45,0,1,0,0,0,0,0,0,0,0,0,0,0,0,0
494526559,800000.0,1.0,13901.847,0.0,27598,9120,0.0,81,0,0,0,0,0.0,3,5,0,0,0,1,45,0,1,0,0,0,0,0,0,0,0,0,0,0,0,0
495524004,800000.0,1.0,13777.285,0.0,27942,9120,16.94623,82,0,0,0,0,0.0,3,5,0,0,0,1,45,0,1,0,0,0,0,0,0,0,0,0,0,0,0,0
496539015,800000.0,1.0,14199.837,0.0,28293,9120,16.883287,83,0,0,0,0,0.0,3,5,0,0,0,1,45,0,1,0,0,0,0,0,0,0,0,0,0,0,0,0
497544913,800000.0,1.0,13879.381,0.0,28637,9120,16.966238,84,0,0,0,0,0.0,3,5,0,0,0,1,45,0,1,0,0,0,0,0,0,0,0,0,0,0,0,0
498571708,800000.0,1.0,13867.236,0.0,28999,9120,16.95627,85,0,0,0,0,0.0,3,5,0,0,0,1,45,0,1,0,0,0,0,0,0,0,0,0,0,0,0,0
499588086,800000.0,1.0,13867.035,0.0,29342,9120,16.951147,86,0,0,0,0,0.0,3,5,0,0,0,1,45,0,1,0,0,0,0,0,0,0,0,0,0,0,0,0
500594965,800000.0,1.0,13893.581,0.0,29687,9120,16.988483,87,0,0,0,0,0.0,3,5,0,0,0,1,45,0,1,0,0,0,0,0,0,0,0,0,0,0,0,0
501585966,800000.0,1.0,13780.687,0.0,30024,9120,16.845592,88,0,0,0,0,0.0,3,5,0,0,0,1,45,0,1,0,0,0,0,0,0,0,0,0,0,0,0,0
502589654,800000.0,1.0,13705.577,0.0,30369,9120,16.936455,89,0,0,0,0,0.0,3,5,0,0,0,1,45,0,1,0,0,0,0,0,0,0,0,0,0,0,0,0
503596073,800000.0,1.0,13720.594,0.0,30712,9120,16.950083,90,0,0,0,0,0.0,3,5,0,0,0,1,45,0,1,0,0,0,0,0,0,0,0,0,0,0,0,0
504586364,800000.0,1.0,13885.934,0.0,31054,9120,16.979132,91,0,0,0,0,0.0,3,5,0,0,0,1,45,0,1,0,0,0,0,0,0,0,0,0,0,0,0,0
505597742,800000.0,1.0,13772.525,0.0,31397,9120,16.953869,92,0,0,0,0,0.0,3,5,0,0,0,1,45,0,1,0,0,0,0,0,0,0,0,0,0,0,0,0
506616591,800000.0,1.0,14016.046,0.0,31748,9120,16.887999,93,0,0,0,0,0.0,3,5,0,0,0,1,45,0,1,0,0,0,0,0,0,0,0,0,0,0,0,0
507618313,800000.0,1.0,13891.872,0.0,32094,9120,16.981508,94,0,0,0,0,0.0,3,5,0,0,0,1,45,0,1,0,0,0,0,0,0,0,0,0,0,0,0,0
508628092,800000.0,1.0,13756.877,0.0,32436,9120,16.999847,95,0,0,0,0,0.0,3,5,0,0,0,1,45,0,1,0,0,0,0,0,0,0,0,0,0,0,0,0
509628714,800000.0,1.0,13852.439,0.0,32776,9120,16.829235,96,0,0,0,0,0.0,3,5,0,0,0,1,45,0,1,0,0,0,0,0,0,0,0,0,0,0,0,0
510640374,800000.0,1.0,13748.27,0.0,33122,9120,16.989212,97,0,0,0,0,0.0,3,5,0,0,0,1,45,0,1,0,0,0,0,0,0,0,0,0,0,0,0,0
511647877,800000.0,1.0,13755.594,0.0,33467,9120,16.99332,98,0,0,0,0,0.0,3,5,0,0,0,1,45,0,1,0,0,0,0,0,0,0,0,0,0,0,0,0
512646578,800000.0,1.0,13884.325,0.0,33812,9120,16.977165,99,0,0,0,0,0.0,3,5,0,0,0,1,45,0,1,0,0,0,0,0,0,0,0,0,0,0,0,0
513651685,800000.0,1.0,13748.929,0.0,34149,9120,16.985088,100,0,0,0,0,0.0,3,5,0,0,0,1,45,0,1,0,0,0,0,0,0,0,0,0,0,0,0,0
514671102,800000.0,1.0,13756.752,0.0,34501,9120,16.999695,101,0,0,0,0,0.0,3,5,0,0,0,1,45,0,1,0,0,0,0,0,0,0,0,0,0,0,0,0
515680699,800000.0,1.0,13714.494,0.0,34844,9120,16.942547,102,0,0,0,0,0.0,3,5,0,0,0,1,45,0,1,0,0,0,0,0,0,0,0,0,0,0,0,0
516693200,800000.0,1.0,13747.433,0.0,35194,9120,16.988176,103,0,0,0,0,0.0,3,5,0,0,0,1,45,0,1,0,0,0,0,0,0,0,0,0,0,0,0,0
517682553,800000.0,1.0,14043.871,0.0,35532,9120,16.988956,104,0,0,0,0,0.0,3,5,0,0,0,1,45,0,1,0,0,0,0,0,0,0,0,0,0,0,0,0
518687966,800000.0,1.0,13815.425,0.0,35879,9120,16.892916,105,0,0,0,0,0.0,3,5,0,0,0,1,45,0,1,0,0,0,0,0,0,0,0,0,0,0,0,0
519693784,800000.0,1.0,13796.024,0.0,36222,9120,16.982796,106,0,0,0,0,0.0,3,5,0,0,0,1,45,0,1,0,0,0,0,0,0,0,0,0,0,0,0,0
520714180,800000.0,1.0,13890.152,0.0,36572,9120,16.984291,107,0,0,0,0,0.0,3,5,0,0,0,1,45,0,1,0,0,0,0,0,0,0,0,0,0,0,0,0
520974795,800000.0,1.0,13779.43,0.0,36663,9120,16.844057,108,0,0,0,0,0.0,3,5,0,0,0,1,45,0,1,0,0,0,0,0,0,0,0,0,0,0,0,0
521978294,800000.0,1.0,13751.664,0.0,37003,9120,16.993406,109,0,0,0,0,0.0,3,5,0,0,0,1,45,0,1,0,0,0,0,0,0,0,0,0,0,0,0,0
522985956,800000.0,1.0,13793.234,0.0,37348,9120,16.965849,110,0,0,0,0,0.0,3,5,0,0,0,1,45,0,1,0,0,0,0,0,0,0,0,0,0,0,0,0
523985550,800000.0,1.0,13833.665,0.0,37691,9120,16.91522,111,0,0,0,0,0.0,3,5,0,0,0,1,45,0,1,0,0,0,0,0,0,0,0,0,0,0,0,0
524990430,800000.0,1.0,13726.4375,0.0,38033,9120,16.957302,112,0,0,0,0,0.0,3,5,0,0,0,1,45,0,1,0,0,0,0,0,0,0,0,0,0,0,0,0
526001223,800000.0,1.0,13893.274,0.0,38377,9120,16.988108,113,0,0,0,0,0.0,3,5,0,0,0,1,45,0,1,0,0,0,0,0,0,0,0,0,0,0,0,0
528025446,800000.0,1.0,13845.472,0.0,39073,9120,16.929657,115,0,0,0,0,0.0,3,5,0,0,0,1,45,0,1,0,0,0,0,0,0,0,0,0,0,0,0,0
529027212,800000.0,1.0,14024.377,0.0,39419,9120,16.965374,116,0,0,0,0,0.0,3,5,0,0,0,1,45,0,1,0,0,0,0,0,0,0,0,0,0,0,0,0
530037635,800000.0,1.0,13747.572,0.0,39760,9120,16.928055,117,0,0,0,0,0.0,3,5,0,0,0,1,45,0,1,0,0,0,0,0,0,0,0,0,0,0,0,0
531044074,800000.0,1.0,14068.86,0.0,40105,9120,16.954039,118,0,0,0,0,0.0,3,5,0,0,0,1,45,0,1,0,0,0,0,0,0,0,0,0,0,0,0,0
532053664,800000.0,1.0,13702.137,0.0,40451,9120,16.932203,119,0,0,0,0,0.0,3,5,0,0,0,1,45,0,1,0,0,0,0,0,0,0,0,0,0,0,0,0
533055112,800000.0,1.0,13843.844,0.0,40796,9120,16.922798,120,0,0,0,0,0.0,3,5,0,0,0,1,45,0,1,0,0,0,0,0,0,0,0,0,0,0,0,0
534064917,800000.0,1.0,13869.532,0.0,41139,9120,16.959078,121,0,0,0,0,0.0,3,5,0,0,0,1,45,0,1,0,0,0,0,0,0,0,0,0,0,0,0,0
535079237,800000.0,1.0,13862.612,0.0,41494,9120,16.94574,122,0,0,0,0,0.0,3,5,0,0,0,1,45,0,1,0,0,0,0,0,0,0,0,0,0,0,0,0
536094823,800000.0,1.0,13891.456,0.0,41842,9120,16.985884,123,0,0,0,0,0.0,3,5,0,0,0,1,45,0,1,0,0,0,0,0,0,0,0,0,0,0,0,0
537111189,800000.0,1.0,14093.087,0.0,42192,9120,16.976013,124,0,0,0,0,0.0,3,5,0,0,0,1,45,0,1,0,0,0,0,0,0,0,0,0,0,0,0,0
538112798,800000.0,1.0,13855.601,0.0,42532,9120,16.942041,125,0,0,0,0,0.0,3,5,0,0,0,1,45,0,1,0,0,0,0,0,0,0,0,0,0,0,0,0
539117751,800000.0,1.0,13760.354,0.0,42880,9120,16.9992,126,0,0,0,0,0.0,3,5,0,0,0,1,45,0,1,0,0,0,0,0,0,0,0,0,0,0,0,0
540128375,800000.0,1.0,13724.008,0.0,43225,9120,16.95923,127,0,0,0,0,0.0,3,5,0,0,0,1,45,0,1,0,0,0,0,0,0,0,0,0,0,0,0,0
541131263,800000.0,1.0,13888.695,0.0,43567,9120,16.977623,128,0,0,0,0,0.0,3,5,0,0,0,1,45,0,1,0,0,0,0,0,0,0,0,0,0,0,0,0
543138955,800000.0,1.0,13820.737,0.0,44256,9120,16.835234,130,0,0,0,0,0.0,3,5,0,0,0,1,45,0,1,0,0,0,0,0,0,0,0,0,0,0,0,0
544154752,800000.0,1.0,13892.762,0.0,44602,9120,16.98748,131,0,0,0,0,0.0,3,5,0,0,0,1,45,0,1,0,0,0,0,0,0,0,0,0,0,0,0,0
545173575,800000.0,1.0,13896.675,0.0,44958,9120,16.987377,132,0,0,0,0,0.0,3,5,0,0,0,1,45,0,1,0,0,0,0,0,0,0,0,0,0,0,0,0
546173608,800000.0,1.0,13916.674,0.0,45302,9120,16.970337,133,0,0,0,0,0.0,3,5,0,0,0,1,45,0,1,0,0,0,0,0,0,0,0,0,0,0,0,0
547181992,800000.0,1.0,13827.504,0.0,45649,9120,16.949137,134,0,0,0,0,0.0,3,5,0,0,0,1,45,0,1,0,0,0,0,0,0,0,0,0,0,0,0,0
548189741,800000.0,1.0,13898.262,0.0,45993,9120,16.994205,135,0,0,0,0,0.0,3,5,0,0,0,1,45,0,1,0,0,0,0,0,0,0,0,0,0,0,0,0
549201467,800000.0,1.0,13959.23,0.0,46343,9120,16.99176,136,0,0,0,0,0.0,3,5,0,0,0,1,45,0,1,0,0,0,0,0,0,0,0,0,0,0,0,0
550205137,800000.0,1.0,13886.752,0.0,46684,9120,16.875744,137,0,0,0,0,0.0,3,5,0,0,0,1,45,0,1,0,0,0,0,0,0,0,0,0,0,0,0,0
551215851,800000.0,1.0,13872.0205,0.0,47030,9120,16.911032,138,0,0,0,0,0.0,3,5,0,0,0,1,45,0,1,0,0,0,0,0,0,0,0,0,0,0,0,0
552228824,800000.0,1.0,13894.97,0.0,47380,9120,16.917173,139,0,0,0,0,0.0,3,5,0,0,0,1,45,0,1,0,0,0,0,0,0,0,0,0,0,0,0,0
553247027,800000.0,1.0,13900.592,0.0,47730,9120,16.992167,140,0,0,0,0,0.0,3,5,0,0,0,1,45,0,1,0,0,0,0,0,0,0,0,0,0,0,0,0
554256586,800000.0,1.0,13850.59,0.0,48074,9120,16.935915,141,0,0,0,0,0.0,3,5,0,0,0,1,45,0,1,0,0,0,0,0,0,0,0,0,0,0,0,0
555257321,800000.0,1.0,13936.587,0.0,48415,9120,16.976353,142,0,0,0,0,0.0,3,5,0,0,0,1,45,0,1,0,0,0,0,0,0,0,0,0,0,0,0,0
556280490,800000.0,1.0,13731.939,0.0,48769,9120,16.969032,143,0,0,0,0,0.0,3,5,0,0,0,1,45,0,1,0,0,0,0,0,0,0,0,0,0,0,0,0
557290772,800000.0,1.0,13893.052,0.0,49118,9120,16.98295,144,0,0,0,0,0.0,3,5,0,0,0,1,45,0,1,0,0,0,0,0,0,0,0,0,0,0,0,0
558298834,800000.0,1.0,13840.923,0.0,49462,9120,16.924095,145,0,0,0,0,0.0,3,5,0,0,0,1,45,0,1,0,0,0,0,0,0,0,0,0,0,0,0,0
559297198,800000.0,1.0,13896.439,0.0,49806,9120,16.987091,146,0,0,0,0,0.0,3,5,0,0,0,1,45,0,1,0,0,0,0,0,0,0,0,0,0,0,0,0
560307720,800000.0,1.0,13896.524,0.0,50154,9120,16.992083,147,0,0,0,0,0.0,3,5,0,0,0,1,45,0,1,0,0,0,0,0,0,0,0,0,0,0,0,0
561310063,800000.0,1.0,13906.389,0.0,50499,9120,16.999252,148,0,0,0,0,0.0,3,5,0,0,0,1,45,0,1,0,0,0,0,0,0,0,0,0,0,0,0,0
562315744,800000.0,1.0,13899.637,0.0,50841,9120,16.995888,149,0,0,0,0,0.0,3,5,0,0,0,1,45,0,1,0,0,0,0,0,0,0,0,0,0,0,0,0
563317520,800000.0,1.0,13952.0625,0.0,51188,9120,16.983034,150,0,0,0,0,0.0,3,5,0,0,0,1,45,0,1,0,0,0,0,0,0,0,0,0,0,0,0,0
564318054,800000.0,1.0,13862.5625,0.0,51529,9120,16.950554,151,0,0,0,0,0.0,3,5,0,0,0,1,45,0,1,0,0,0,0,0,0,0,0,0,0,0,0,0
565322126,800000.0,1.0,13952.271,0.0,51880,9120,16.98329,152,0,0,0,0,0.0,3,5,0,0,0,1,45,0,1,0,0,0,0,0,0,0,0,0,0,0,0,0
566328633,800000.0,1.0,13897.094,0.0,52226,9120,16.992779,153,0,0,0,0,0.0,3,5,0,0,0,1,45,0,1,0,0,0,0,0,0,0,0,0,0,0,0,0
567329257,800000.0,1.0,13905.124,0.0,52570,9120,16.997705,154,0,0,0,0,0.0,3,5,0,0,0,1,45,0,1,0,0,0,0,0,0,0,0,0,0,0,0,0
568330353,800000.0,1.0,13824.917,0.0,52914,9120,16.904524,155,0,0,0,0,0.0,3,5,0,0,0,1,45,0,1,0,0,0,0,0,0,0,0,0,0,0,0,0
569331246,800000.0,1.0,14020.165,0.0,53258,9120,16.96028,156,0,0,0,0,0.0,3,5,0,0,0,1,45,0,1,0,0,0,0,0,0,0,0,0,0,0,0,0
570343863,800000.0,1.0,13907.221,0.0,53606,9120,16.92118,157,0,0,0,0,0.0,3,5,0,0,0,1,45,0,1,0,0,0,0,0,0,0,0,0,0,0,0,0
571344092,800000.0,1.0,14127.033,0.0,53950,9120,16.84621,158,0,0,0,0,0.0,3,5,0,0,0,1,45,0,1,0,0,0,0,0,0,0,0,0,0,0,0,0
572352336,800000.0,1.0,13854.77,0.0,54294,9120,16.989908,159,0,0,0,0,0.0,3,5,0,0,0,1,45,0,1,0,0,0,0,0,0,0,0,0,0,0,0,0
573360533,800000.0,1.0,13771.0205,0.0,54638,9120,16.785498,160,0,0,0,0,0.0,3,5,0,0,0,1,45,0,1,0,0,0,0,0,0,0,0,0,0,0,0,0
574355269,800000.0,1.0,13661.221,0.0,54976,9120,16.93087,161,0,0,0,0,0.0,3,5,0,0,0,1,45,0,1,0,0,0,0,0,0,0,0,0,0,0,0,0
575366171,800000.0,1.0,13791.126,0.0,55325,9120,16.987837,162,0,0,0,0,0.0,3,5,0,0,0,1,45,0,1,0,0,0,0,0,0,0,0,0,0,0,0,0
576378247,800000.0,1.0,13854.8545,0.0,55675,9120,16.990011,163,0,0,0,0,0.0,3,5,0,0,0,1,45,0,1,0,0,0,0,0,0,0,0,0,0,0,0,0
577378772,800000.0,1.0,13828.572,0.0,56020,9120,16.855648,164,0,0,0,0,0.0,3,5,0,0,0,1,45,0,1,0,0,0,0,0,0,0,0,0,0,0,0,0
578399114,800000.0,1.0,13707.61,0.0,56363,9120,16.988363,165,0,0,0,0,0.0,3,5,0,0,0,1,45,0,1,0,0,0,0,0,0,0,0,0,0,0,0,0
579404466,800000.0,1.0,13961.153,0.0,56712,9120,16.957674,166,0,0,0,0,0.0,3,5,0,0,0,1,45,0,1,0,0,0,0,0,0,0,0,0,0,0,0,0
580414772,800000.0,1.0,13857.913,0.0,57057,9120,16.993763,167,0,0,0,0,0.0,3,5,0,0,0,1,45,0,1,0,0,0,0,0,0,0,0,0,0,0,0,0
581419099,800000.0,1.0,13905.006,0.0,57402,9120,16.948814,168,0,0,0,0,0.0,3,5,0,0,0,1,45,0,1,0,0,0,0,0,0,0,0,0,0,0,0,0
582428814,800000.0,1.0,13737.573,0.0,57745,9120,16.951351,169,0,0,0,0,0.0,3,5,0,0,0,1,45,0,1,0,0,0,0,0,0,0,0,0,0,0,0,0
583429185,800000.0,1.0,13902.305,0.0,58087,9120,16.94552,170,0,0,0,0,0.0,3,5,0,0,0,1,45,0,1,0,0,0,0,0,0,0,0,0,0,0,0,0
584430142,800000.0,1.0,13678.713,0.0,58430,9120,16.952549,171,0,0,0,0,0.0,3,5,0,0,0,1,45,0,1,0,0,0,0,0,0,0,0,0,0,0,0,0
585442844,800000.0,1.0,13905.533,0.0,58776,9120,16.949457,172,0,0,0,0,0.0,3,5,0,0,0,1,45,0,1,0,0,0,0,0,0,0,0,0,0,0,0,0
586446050,800000.0,1.0,13767.109,0.0,59118,9120,16.955797,173,0,0,0,0,0.0,3,5,0,0,0,1,45,0,1,0,0,0,0,0,0,0,0,0,0,0,0,0
587463733,800000.0,1.0,13920.885,0.0,59466,9120,16.968168,174,0,0,0,0,0.0,3,5,0,0,0,1,45,0,1,0,0,0,0,0,0,0,0,0,0,0,0,0
588482826,800000.0,1.0,13820.103,0.0,59822,9120,16.947395,175,0,0,0,0,0.0,3,5,0,0,0,1,45,0,1,0,0,0,0,0,0,0,0,0,0,0,0,0
589490858,800000.0,1.0,13799.013,0.0,60168,9120,16.997553,176,0,0,0,0,0.0,3,5,0,0,0,1,45,0,1,0,0,0,0,0,0,0,0,0,0,0,0,0
590495084,800000.0,1.0,13845.361,0.0,60512,9120,16.97837,177,0,0,0,0,0.0,3,5,0,0,0,1,45,0,1,0,0,0,0,0,0,0,0,0,0,0,0,0
591499073,800000.0,1.0,13945.897,0.0,60853,9120,16.998657,178,0,0,0,0,0.0,3,5,0,0,0,1,45,0,1,0,0,0,0,0,0,0,0,0,0,0,0,0
592511125,800000.0,1.0,13793.234,0.0,61202,9120,16.902254,179,0,0,0,0,0.0,3,5,0,0,0,1,45,0,1,0,0,0,0,0,0,0,0,0,0,0,0,0
593525992,800000.0,1.0,13937.435,0.0,61552,9120,16.928865,180,0,0,0,0,0.0,3,5,0,0,0,1,45,0,1,0,0,0,0,0,0,0,0,0,0,0,0,0
594536005,800000.0,1.0,13835.676,0.0,61900,9120,16.966492,181,0,0,0,0,0.0,3,5,0,0,0,1,45,0,1,0,0,0,0,0,0,0,0,0,0,0,0,0
595537356,800000.0,1.0,13944.824,0.0,62244,9120,16.997347,182,0,0,0,0,0.0,3,5,0,0,0,1,45,0,1,0,0,0,0,0,0,0,0,0,0,0,0,0
596532799,800000.0,1.0,13949.438,0.0,62588,9120,16.855532,183,0,0,0,0,0.0,3,5,0,0,0,1,45,0,1,0,0,0,0,0,0,0,0,0,0,0,0,0
597544814,800000.0,1.0,13929.797,0.0,62932,9120,16.97903,184,0,0,0,0,0.0,3,5,0,0,0,1,45,0,1,0,0,0,0,0,0,0,0,0,0,0,0,0
598551889,800000.0,1.0,13599.255,0.0,63276,9120,16.827085,185,0,0,0,0,0.0,3,5,0,0,0,1,45,0,1,0,0,0,0,0,0,0,0,0,0,0,0,0
599553649,800000.0,1.0,13926.723,0.0,63620,9120,16.975283,186,0,0,0,0,0.0,3,5,0,0,0,1,45,0,1,0,0,0,0,0,0,0,0,0,0,0,0,0
600578134,800000.0,1.0,13812.074,0.0,63979,9120,16.937551,187,0,0,0,0,0.0,3,5,0,0,0,1,45,0,1,0,0,0,0,0,0,0,0,0,0,0,0,0
601587065,800000.0,1.0,14075.167,0.0,64325,9120,16.978489,188,0,0,0,0,0.0,3,5,0,0,0,1,45,0,1,0,0,0,0,0,0,0,0,0,0,0,0,0
602604089,800000.0,1.0,14033.427,0.0,64671,9120,16.905346,189,0,0,0,0,0.0,3,5,0,0,0,1,45,0,1,0,0,0,0,0,0,0,0,0,0,0,0,0
604618423,800000.0,1.0,13810.271,0.0,65364,9120,16.93534,191,0,0,0,0,0.0,3,5,0,0,0,1,45,0,1,0,0,0,0,0,0,0,0,0,0,0,0,0
605630542,800000.0,1.0,13919.064,0.0,65707,9120,16.96595,192,0,0,0,0,0.0,3,5,0,0,0,1,45,0,1,0,0,0,0,0,0,0,0,0,0,0,0,0
606644496,800000.0,1.0,13830.54,0.0,66056,9120,16.960194,193,0,0,0,0,0.0,3,5,0,0,0,1,45,0,1,0,0,0,0,0,0,0,0,0,0,0,0,0
608659775,800000.0,1.0,13697.193,0.0,66746,9120,16.975452,195,0,0,0,0,0.0,3,5,0,0,0,1,45,0,1,0,0,0,0,0,0,0,0,0,0,0,0,0
609665662,800000.0,1.0,13926.487,0.0,67090,9120,16.974997,196,0,0,0,0,0.0,3,5,0,0,0,1,45,0,1,0,0,0,0,0,0,0,0,0,0,0,0,0
610666170,800000.0,1.0,13846.439,0.0,67435,9120,16.979692,197,0,0,0,0,0.0,3,5,0,0,0,1,45,0,1,0,0,0,0,0,0,0,0,0,0,0,0,0
611678265,800000.0,1.0,13942.002,0.0,67787,9120,16.921114,198,0,0,0,0,0.0,3,5,0,0,0,1,45,0,1,0,0,0,0,0,0,0,0,0,0,0,0,0
612683960,800000.0,1.0,13830.706,0.0,68129,9120,16.960398,199,0,0,0,0,0.0,3,5,0,0,0,1,45,0,1,0,0,0,0,0,0,0,0,0,0,0,0,0
613704563,800000.0,1.0,13875.183,0.0,68478,9120,16.912462,200,0,0,0,0,0.0,3,5,0,0,0,1,45,0,1,0,0,0,0,0,0,0,0,0,0,0,0,0
614714484,800000.0,1.0,13849.415,0.0,68824,9120,16.923523,201,0,0,0,0,0.0,3,5,0,0,0,1,45,0,1,0,0,0,0,0,0,0,0,0,0,0,0,0
615475164,800000.0,1.0,13780.329,0.0,69087,9120,16.974539,201,0,0,0,0,0.0,3,5,0,0,0,1,45,0,1,0,0,0,0,0,0,0,0,0,0,0,0,0
616471179,800000.0,1.0,13895.195,0.0,69428,9120,16.96727,202,0,0,0,0,0.0,3,5,0,0,0,1,45,0,1,0,0,0,0,0,0,0,0,0,0,0,0,0
617476669,800000.0,1.0,13993.518,0.0,69776,9120,16.984848,203,0,0,0,0,0.0,3,5,0,0,0,1,45,0,1,0,0,0,0,0,0,0,0,0,0,0,0,0
618490831,800000.0,1.0,13848.806,0.0,70125,9120,16.982594,204,0,0,0,0,0.0,3,5,0,0,0,1,45,0,1,0,0,0,0,0,0,0,0,0,0,0,0,0
619487268,800000.0,1.0,13910.689,0.0,70469,9120,16.909668,205,0,0,0,0,0.0,3,5,0,0,0,1,45,0,1,0,0,0,0,0,0,0,0,0,0,0,0,0
620491162,800000.0,1.0,13626.546,0.0,70811,9120,16.887897,206,0,0,0,0,0.0,3,5,0,0,0,1,45,0,1,0,0,0,0,0,0,0,0,0,0,0,0,0
621503239,800000.0,1.0,14166.092,0.0,71159,9120,16.914143,207,0,0,0,0,0.0,3,5,0,0,0,1,45,0,1,0,0,0,0,0,0,0,0,0,0,0,0,0
622517446,800000.0,1.0,13836.67,0.0,71504,9120,16.967712,208,0,0,0,0,0.0,3,5,0,0,0,1,45,0,1,0,0,0,0,0,0,0,0,0,0,0,0,0
623521699,800000.0,1.0,13964.533,0.0,71851,9120,16.94846,209,0,0,0,0,0.0,3,5,0,0,0,1,45,0,1,0,0,0,0,0,0,0,0,0,0,0,0,0
624526014,800000.0,1.0,13835.8955,0.0,72198,9120,16.966763,210,0,0,0,0,0.0,3,5,0,0,0,1,45,0,1,0,0,0,0,0,0,0,0,0,0,0,0,0
626534324,800000.0,1.0,13819.249,0.0,72890,9120,16.946348,212,0,0,0,0,0.0,3,5,0,0,0,1,45,0,1,0,0,0,0,0,0,0,0,0,0,0,0,0
627535890,800000.0,1.0,13913.606,0.0,73234,9120,16.959297,213,0,0,0,0,0.0,3,5,0,0,0,1,45,0,1,0,0,0,0,0,0,0,0,0,0,0,0,0
628543941,800000.0,1.0,13823.451,0.0,73581,9120,16.951502,214,0,0,0,0,0.0,3,5,0,0,0,1,45,0,1,0,0,0,0,0,0,0,0,0,0,0,0,0
629555150,800000.0,1.0,14036.083,0.0,73925,9120,16.931343,215,0,0,0,0,0.0,3,5,0,0,0,1,45,0,1,0,0,0,0,0,0,0,0,0,0,0,0,0
630564907,800000.0,1.0,13861.988,0.0,74275,9120,16.99876,216,0,0,0,0,0.0,3,5,0,0,0,1,45,0,1,0,0,0,0,0,0,0,0,0,0,0,0,0
631563060,800000.0,1.0,13879.159,0.0,74618,9120,16.917309,217,0,0,0,0,0.0,3,5,0,0,0,1,45,0,1,0,0,0,0,0,0,0,0,0,0,0,0,0
632566773,800000.0,1.0,13858.039,0.0,74966,9120,16.993916,218,0,0,0,0,0.0,3,5,0,0,0,1,45,0,1,0,0,0,0,0,0,0,0,0,0,0,0,0
633573718,800000.0,1.0,13937.578,0.0,75315,9120,16.988516,219,0,0,0,0,0.0,3,5,0,0,0,1,45,0,1,0,0,0,0,0,0,0,0,0,0,0,0,0
634573597,800000.0,1.0,13849.884,0.0,75660,9120,16.983915,220,0,0,0,0,0.0,3,5,0,0,0,1,45,0,1,0,0,0,0,0,0,0,0,0,0,0,0,0
635580027,800000.0,1.0,13937.438,0.0,76003,9120,16.988346,221,0,0,0,0,0.0,3,5,0,0,0,1,45,0,1,0,0,0,0,0,0,0,0,0,0,0,0,0
637584666,800000.0,1.0,13964.665,0.0,76694,9120,16.937737,223,0,0,0,0,0.0,3,5,0,0,0,1,45,0,1,0,0,0,0,0,0,0,0,0,0,0,0,0
638585573,800000.0,1.0,13990.073,0.0,77039,9120,16.928696,224,0,0,0,0,0.0,3,5,0,0,0,1,45,0,1,0,0,0,0,0,0,0,0,0,0,0,0,0
639594050,800000.0,1.0,13893.481,0.0,77382,9120,16.983475,225,0,0,0,0,0.0,3,5,0,0,0,1,45,0,1,0,0,0,0,0,0,0,0,0,0,0,0,0
640602349,800000.0,1.0,13888.999,0.0,77731,9120,16.982882,226,0,0,0,0,0.0,3,5,0,0,0,1,45,0,1,0,0,0,0,0,0,0,0,0,0,0,0,0
641602212,800000.0,1.0,13988.639,0.0,78074,9120,16.966814,227,0,0,0,0,0.0,3,5,0,0,0,1,45,0,1,0,0,0,0,0,0,0,0,0,0,0,0,0
642621602,800000.0,1.0,14040.311,0.0,78424,9120,16.924433,228,0,0,0,0,0.0,3,5,0,0,0,1,45,0,1,0,0,0,0,0,0,0,0,0,0,0,0,0
643623727,800000.0,1.0,13838.182,0.0,78770,9120,16.915876,229,0,0,0,0,0.0,3,5,0,0,0,1,45,0,1,0,0,0,0,0,0,0,0,0,0,0,0,0
644628914,800000.0,1.0,13860.918,0.0,79115,9120,16.948544,230,0,0,0,0,0.0,3,5,0,0,0,1,45,0,1,0,0,0,0,0,0,0,0,0,0,0,0,0
645626325,800000.0,1.0,14008.258,0.0,79458,9120,16.945875,231,0,0,0,0,0.0,3,5,0,0,0,1,45,0,1,0,0,0,0,0,0,0,0,0,0,0,0,0
646620602,800000.0,1.0,13891.484,0.0,79800,9120,16.985918,232,0,0,0,0,0.0,3,5,0,0,0,1,45,0,1,0,0,0,0,0,0,0,0,0,0,0,0,0
647630778,800000.0,1.0,13900.939,0.0,80146,9120,16.992592,233,0,0,0,0,0.0,3,5,0,0,0,1,45,0,1,0,0,0,0,0,0,0,0,0,0,0,0,0
648626546,800000.0,1.0,13897.205,0.0,80491,9120,16.992914,234,0,0,0,0,0.0,3,5,0,0,0,1,45,0,1,0,0,0,0,0,0,0,0,0,0,0,0,0
649639279,800000.0,1.0,13891.066,0.0,80835,9120,16.980522,235,0,0,0,0,0.0,3,5,0,0,0,1,45,0,1,0,0,0,0,0,0,0,0,0,0,0,0,0
650655843,800000.0,1.0,13838.431,0.0,81185,9120,16.921047,236,0,0,0,0,0.0,3,5,0,0,0,1,45,0,1,0,0,0,0,0,0,0,0,0,0,0,0,0
651655656,800000.0,1.0,13889.803,0.0,81528,9120,16.958248,237,0,0,0,0,0.0,3,5,0,0,0,1,45,0,1,0,0,0,0,0,0,0,0,0,0,0,0,0
652660492,800000.0,1.0,13897.762,0.0,81873,9120,16.993595,238,0,0,0,0,0.0,3,5,0,0,0,1,45,0,1,0,0,0,0,0,0,0,0,0,0,0,0,0
653669319,800000.0,1.0,13890.387,0.0,82226,9120,16.979692,239,0,0,0,0,0.0,3,5,0,0,0,1,45,0,1,0,0,0,0,0,0,0,0,0,0,0,0,0
654677269,800000.0,1.0,13860.849,0.0,82571,9120,16.94846,240,0,0,0,0,0.0,3,5,0,0,0,1,45,0,1,0,0,0,0,0,0,0,0,0,0,0,0,0
655680143,800000.0,1.0,13933.845,0.0,82914,9120,16.973013,241,0,0,0,0,0.0,3,5,0,0,0,1,45,0,1,0,0,0,0,0,0,0,0,0,0,0,0,0
656680018,800000.0,1.0,13988.541,0.0,83259,9120,16.926842,242,0,0,0,0,0.0,3,5,0,0,0,1,45,0,1,0,0,0,0,0,0,0,0,0,0,0,0,0
657675667,800000.0,1.0,13925.559,0.0,83602,9120,16.949558,243,0,0,0,0,0.0,3,5,0,0,0,1,45,0,1,0,0,0,0,0,0,0,0,0,0,0,0,0
658685255,800000.0,1.0,13890.846,0.0,83950,9120,16.985138,244,0,0,0,0,0.0,3,5,0,0,0,1,45,0,1,0,0,0,0,0,0,0,0,0,0,0,0,0
659690562,800000.0,1.0,13862.005,0.0,84295,9120,16.944998,245,0,0,0,0,0.0,3,5,0,0,0,1,45,0,1,0,0,0,0,0,0,0,0,0,0,0,0,0
660691254,800000.0,1.0,13869.422,0.0,84640,9120,16.958942,246,0,0,0,0,0.0,3,5,0,0,0,1,45,0,1,0,0,0,0,0,0,0,0,0,0,0,0,0
661690947,800000.0,1.0,13863.759,0.0,84983,9120,16.947142,247,0,0,0,0,0.0,3,5,0,0,0,1,45,0,1,0,0,0,0,0,0,0,0,0,0,0,0,0
662707149,800000.0,1.0,13891.845,0.0,85332,9120,16.98636,248,0,0,0,0,0.0,3,5,0,0,0,1,45,0,1,0,0,0,0,0,0,0,0,0,0,0,0,0
662967869,800000.0,1.0,13891.845,0.0,85421,9120,16.98636,249,0,0,0,0,0.0,3,5,0,0,0,1,45,0,1,0,0,0,0,0,0,0,0,0,0,0,0,0
663972072,800000.0,1.0,13906.151,0.0,85770,9120,16.998962,250,0,0,0,0,0.0,3,5,0,0,0,1,45,0,1,0,0,0,0,0,0,0,0,0,0,0,0,0
664976984,800000.0,1.0,13895.913,0.0,86115,9120,16.991335,251,0,0,0,0,0.0,3,5,0,0,0,1,45,0,1,0,0,0,0,0,0,0,0,0,0,0,0,0
665988970,800000.0,1.0,13978.561,0.0,86461,9120,16.982458,252,0,0,0,0,0.0,3,5,0,0,0,1,45,0,1,0,0,0,0,0,0,0,0,0,0,0,0,0
666988844,800000.0,1.0,13901.625,0.0,86806,9120,16.998318,253,0,0,0,0,0.0,3,5,0,0,0,1,45,0,1,0,0,0,0,0,0,0,0,0,0,0,0,0
668002115,800000.0,1.0,13897.021,0.0,87153,9120,16.987803,254,0,0,0,0,0.0,3,5,0,0,0,1,45,0,1,0,0,0,0,0,0,0,0,0,0,0,0,0
669004984,800000.0,1.0,13895.441,0.0,87498,9120,16.990757,255,0,0,0,0,0.0,3,5,0,0,0,1,45,0,1,0,0,0,0,0,0,0,0,0,0,0,0,0
670011938,800000.0,1.0,13897.619,0.0,87843,9120,16.988533,256,0,0,0,0,0.0,3,5,0,0,0,1,45,0,1,0,0,0,0,0,0,0,0,0,0,0,0,0
671010199,800000.0,1.0,13896.441,0.0,88188,9120,16.991982,257,0,0,0,0,0.0,3,5,0,0,0,1,45,0,1,0,0,0,0,0,0,0,0,0,0,0,0,0
672011893,800000.0,1.0,13899.801,0.0,88531,9120,16.9912,258,0,0,0,0,0.0,3,5,0,0,0,1,45,0,1,0,0,0,0,0,0,0,0,0,0,0,0,0
673011673,800000.0,1.0,14044.507,0.0,88876,9120,16.994562,259,0,0,0,0,0.0,3,5,0,0,0,1,45,0,1,0,0,0,0,0,0,0,0,0,0,0,0,0
674022987,800000.0,1.0,13898.578,0.0,89225,9120,16.989706,260,0,0,0,0,0.0,3,5,0,0,0,1,45,0,1,0,0,0,0,0,0,0,0,0,0,0,0,0
675025605,800000.0,1.0,13900.624,0.0,89570,9120,16.997095,261,0,0,0,0,0.0,3,5,0,0,0,1,45,0,1,0,0,0,0,0,0,0,0,0,0,0,0,0
676029155,800000.0,1.0,13891.941,0.0,89914,9120,16.981592,262,0,0,0,0,0.0,3,5,0,0,0,1,45,0,1,0,0,0,0,0,0,0,0,0,0,0,0,0
677032017,800000.0,1.0,13894.648,0.0,90260,9120,16.989788,263,0,0,0,0,0.0,3,5,0,0,0,1,45,0,1,0,0,0,0,0,0,0,0,0,0,0,0,0
678031621,800000.0,1.0,13891.357,0.0,90602,9120,16.980879,264,0,0,0,0,0.0,3,5,0,0,0,1,45,0,1,0,0,0,0,0,0,0,0,0,0,0,0,0
679032616,800000.0,1.0,13897.398,0.0,90948,9120,16.99315,265,0,0,0,0,0.0,3,5,0,0,0,1,45,0,1,0,0,0,0,0,0,0,0,0,0,0,0,0
680552771,800000.0,0.23102406,3206.9163,10674.393,91095,9404,0.0,265,0,0,0,0,0.0,3,5,0,0,0,1,45,0,0,0,0,0,0,0,0,0,0,0,0,0,0,0
681311724,800000.0,0.05,0.0,3095.1165,91095,9460,0.0,265,0,0,0,0,0.0,3,5,0,0,0,1,45,0,0,0,0,0,0,0,0,0,0,0,0,0,0,0
682067628,800000.0,0.05,0.0,3095.1165,91095,9474,0.0,265,0,0,0,0,0.0,3,5,0,0,0,1,45,0,0,0,0,0,0,0,0,0,0,0,0,0,0,0
683577334,800000.0,0.05,0.0,1004.5053,91095,9510,0.0,265,0,0,0,0,0.0,3,5,0,0,0,1,45,0,0,0,0,0,0,0,0,0,0,0,0,0,0,0
684330865,800000.0,0.05,0.0,697.4259,91095,9524,0.0,265,0,0,0,0,0.0,3,5,0,0,0,1,45,0,0,0,0,0,0,0,0,0,0,0,0,0,0,0
685090279,800000.0,0.05,0.0,697.4259,91095,9545,0.0,265,0,0,0,0,0.0,3,5,0,0,0,1,45,0,0,0,0,0,0,0,0,0,0,0,0,0,0,0
686596539,800000.0,0.05,0.0,697.9154,91095,9574,0.0,265,0,0,0,0,0.0,3,5,0,0,0,1,45,0,0,0,0,0,0,0,0,0,0,0,0,0,0,0
687342812,800000.0,0.05,0.0,1007.2486,91095,9594,0.0,265,0,0,0,0,0.0,3,5,0,0,0,1,45,0,0,0,0,0,0,0,0,0,0,0,0,0,0,0
688106846,800000.0,0.05,0.0,1007.2486,91095,9610,0.0,265,0,0,0,0,0.0,3,5,0,0,0,1,45,0,0,0,0,0,0,0,0,0,0,0,0,0,0,0
689623823,800000.0,0.05,0.0,1136.1718,91095,9646,0.0,265,0,0,0,0,0.0,3,5,0,0,0,1,45,0,0,0,0,0,0,0,0,0,0,0,0,0,0,0
690379854,800000.0,0.05,0.0,707.38293,91095,9664,0.0,265,0,0,0,0,0.0,3,5,0,0,0,1,45,0,0,0,0,0,0,0,0,0,0,0,0,0,0,0
691131816,800000.0,0.05,0.0,707.38293,91095,9681,0.0,265,0,0,0,0,0.0,3,5,0,0,0,1,45,0,0,0,0,0,0,0,0,0,0,0,0,0,0,0
692643339,800000.0,0.05,0.0,698.41406,91095,9711,0.0,265,0,0,0,0,0.0,3,5,0,0,0,1,45,0,0,0,0,0,0,0,0,0,0,0,0,0,0,0
693401476,800000.0,0.05,0.0,1136.0128,91095,9733,0.0,265,0,0,0,0,0.0,3,5,0,0,0,1,45,0,0,0,0,0,0,0,0,0,0,0,0,0,0,0
694155697,800000.0,0.05,0.0,1136.0128,91095,9750,0.0,265,0,0,0,0,0.0,3,5,0,0,0,1,45,0,0,0,0,0,0,0,0,0,0,0,0,0,0,0
695665675,800000.0,0.05,0.0,1007.15295,91095,9782,0.0,265,0,0,0,0,0.0,3,5,0,0,0,1,45,0,0,0,0,0,0,0,0,0,0,0,0,0,0,0
696417210,800000.0,0.05,0.0,737.03723,91095,9800,0.0,265,0,0,0,0,0.0,3,5,0,0,0,1,45,0,0,0,0,0,0,0,0,0,0,0,0,0,0,0
697172934,800000.0,0.05,0.0,737.03723,91095,9819,0.0,265,0,0,0,0,0.0,3,5,0,0,0,1,45,0,0,0,0,0,0,0,0,0,0,0,0,0,0,0
