timestamp,timestamp_sample,gps_hvel[0],gps_hvel[1],gps_vvel,gps_hpos[0],gps_hpos[1],gps_vpos,ev_hvel[0],ev_hvel[1],ev_vvel,ev_hpos[0],ev_hpos[1],ev_vpos,rng_vpos,baro_vpos,aux_hvel[0],aux_hvel[1],aux_vvel,flow[0],flow[1],heading,mag_field[0],mag_field[1],mag_field[2],drag[0],drag[1],airspeed,beta,hagl
394709439,394707136,0.0,0.0,0.0,-0.006307972,-0.0046007605,0.0,0.0,0.0,0.0,0.0,0.0,0.0,0.0,0.37271118,0.0,0.0,nan,0.0,0.0,-0.005488977,0.0,0.0,0.0,0.0,0.0,0.0,0.0,0.0
395220140,395217553,0.0,0.0,0.0,-0.0057584215,-0.004853715,0.0,0.0,0.0,0.0,0.0,0.0,0.0,0.0,0.1772461,0.0,0.0,nan,0.0,0.0,-0.005062446,0.0,0.0,0.0,0.0,0.0,0.0,0.0,0.0
395710431,395707950,0.0,0.0,0.0,-0.005107376,-0.005013196,0.0,0.0,0.0,0.0,0.0,0.0,0.0,0.0,0.1826477,0.0,0.0,nan,0.0,0.0,-0.0059645325,0.0,0.0,0.0,0.0,0.0,0.0,0.0,0.0
396210421,396208362,0.0,0.0,0.0,-0.0043035764,-0.004541045,0.0,0.0,0.0,0.0,0.0,0.0,0.0,0.0,0.22563171,0.0,0.0,nan,0.0,0.0,0.005242303,0.0,0.0,0.0,0.0,0.0,0.0,0.0,0.0
396710900,396708770,0.0,0.0,0.0,-0.0038916061,-0.005132228,0.0,0.0,0.0,0.0,0.0,0.0,0.0,0.0,0.43293762,0.0,0.0,nan,0.0,0.0,-0.0040659755,0.0,0.0,0.0,0.0,0.0,0.0,0.0,0.0
397711470,397709593,0.0,0.0,0.0,-0.010293224,-0.016094448,0.0,0.0,0.0,0.0,0.0,0.0,0.0,0.0,0.11280823,0.0,0.0,nan,0.0,0.0,-0.0010492802,0.0,0.0,0.0,0.0,0.0,0.0,0.0,0.0
398211847,398209999,0.0,0.0,0.0,-0.003934071,-0.0066673555,0.0,0.0,0.0,0.0,0.0,0.0,0.0,0.0,0.1328125,0.0,0.0,nan,0.0,0.0,-0.007798195,0.0,0.0,0.0,0.0,0.0,0.0,0.0,0.0
398713106,398710409,0.0,0.0,0.0,-0.0040903967,-0.0059132497,0.0,0.0,0.0,0.0,0.0,0.0,0.0,0.0,0.25328064,0.0,0.0,nan,0.0,0.0,-0.00608477,0.0,0.0,0.0,0.0,0.0,0.0,0.0,0.0
399212886,399210818,0.0,0.0,0.0,-0.0051492434,-0.0063958755,0.0,0.0,0.0,0.0,0.0,0.0,0.0,0.0,0.28279114,0.0,0.0,nan,0.0,0.0,-0.007612124,0.0,0.0,0.0,0.0,0.0,0.0,0.0,0.0
399713405,399711228,0.0,0.0,0.0,-0.0052571357,-0.006333689,0.0,0.0,0.0,0.0,0.0,0.0,0.0,0.0,0.14071655,0.0,0.0,nan,0.0,0.0,-0.0037632138,0.0,0.0,0.0,0.0,0.0,0.0,0.0,0.0
400213975,400211643,0.0,0.0,0.0,-0.010850043,-0.011752013,0.0,0.0,0.0,0.0,0.0,0.0,0.0,0.0,0.086624146,0.0,0.0,nan,0.0,0.0,-0.0124105215,0.0,0.0,0.0,0.0,0.0,0.0,0.0,0.0
400714439,400712048,0.0,0.0,0.0,-0.0150508,-0.01435759,0.0,0.0,0.0,0.0,0.0,0.0,0.0,0.0,0.12815857,0.0,0.0,nan,0.0,0.0,-0.0037546903,0.0,0.0,0.0,0.0,0.0,0.0,0.0,0.0
401214775,401212510,0.0,0.0,0.0,-0.01941606,-0.017432507,0.0,0.0,0.0,0.0,0.0,0.0,0.0,0.0,-0.05142212,0.0,0.0,nan,0.0,0.0,-0.0037886053,0.0,0.0,0.0,0.0,0.0,0.0,0.0,0.0
401714990,401712873,0.0,0.0,0.0,-0.020439247,-0.01743286,0.0,0.0,0.0,0.0,0.0,0.0,0.0,0.0,0.023040771,0.0,0.0,nan,0.0,0.0,-0.009067491,0.0,0.0,0.0,0.0,0.0,0.0,0.0,0.0
402215689,402213275,0.0,0.0,0.0,-0.005208653,-0.003670939,0.0,0.0,0.0,0.0,0.0,0.0,0.0,0.0,0.2500763,0.0,0.0,nan,0.0,0.0,-0.00028902292,0.0,0.0,0.0,0.0,0.0,0.0,0.0,0.0
402716803,402713689,0.0,0.0,0.0,-0.0032577587,-0.0014283982,0.0,0.0,0.0,0.0,0.0,0.0,0.0,0.0,0.2284851,0.0,0.0,nan,0.0,0.0,-0.003979087,0.0,0.0,0.0,0.0,0.0,0.0,0.0,0.0
403216464,403214093,0.0,0.0,0.0,-0.0031101147,-0.0008171718,0.0,0.0,0.0,0.0,0.0,0.0,0.0,0.0,0.07766724,0.0,0.0,nan,0.0,0.0,-0.00046022236,0.0,0.0,0.0,0.0,0.0,0.0,0.0,0.0
403716902,403714502,0.0,0.0,0.0,-0.0027592464,-0.0003545987,0.0,0.0,0.0,0.0,0.0,0.0,0.0,0.0,-0.0,0.0,0.0,nan,0.0,0.0,0.001639545,0.0,0.0,0.0,0.0,0.0,0.0,0.0,0.0
404207176,404204910,0.0,0.0,0.0,-0.0023129685,-0.0007967083,0.0,0.0,0.0,0.0,0.0,0.0,0.0,0.0,-0.0,0.0,0.0,nan,0.0,0.0,-0.010386109,0.0,0.0,0.0,0.0,0.0,0.0,0.0,0.0
404707173,404705311,0.0,0.0,0.0,-0.0017882779,-0.0009995763,0.0,0.0,0.0,0.0,0.0,0.0,0.0,0.0,-0.0,0.0,0.0,nan,0.0,0.0,-0.0074971765,0.0,0.0,0.0,0.0,0.0,0.0,0.0,0.0
405207542,405205731,0.0,0.0,0.0,-0.001856074,-0.0023883104,0.0,0.0,0.0,0.0,0.0,0.0,0.0,0.0,0.30921936,0.0,0.0,nan,0.0,0.0,0.00559555,0.0,0.0,0.0,0.0,0.0,0.0,0.0,0.0
405708599,405706127,0.0,0.0,0.0,-0.002049184,-0.0033663043,0.0,0.0,0.0,0.0,0.0,0.0,0.0,0.0,-0.0,0.0,0.0,nan,0.0,0.0,-0.00071538985,0.0,0.0,0.0,0.0,0.0,0.0,0.0,0.0
406208374,406206536,0.0,0.0,0.0,-0.0025479211,-0.0047356733,0.0,0.0,0.0,0.0,0.0,0.0,0.0,0.0,0.050964355,0.0,0.0,nan,0.0,0.0,0.00060905516,0.0,0.0,0.0,0.0,0.0,0.0,0.0,0.0
406708909,406706943,0.0,0.0,0.0,-0.0042083277,-0.0070428126,0.0,0.0,0.0,0.0,0.0,0.0,0.0,0.0,0.06311035,0.0,0.0,nan,0.0,0.0,-0.0035680085,0.0,0.0,0.0,0.0,0.0,0.0,0.0,0.0
407209292,407207351,0.0,0.0,0.0,-0.009346943,-0.013923074,0.0,0.0,0.0,0.0,0.0,0.0,0.0,0.0,0.198349,0.0,0.0,nan,0.0,0.0,-0.00018750131,0.0,0.0,0.0,0.0,0.0,0.0,0.0,0.0
407710028,407707778,0.0,0.0,0.0,-0.0061908243,-0.008241961,0.0,0.0,0.0,0.0,0.0,0.0,0.0,0.0,0.20899963,0.0,0.0,nan,0.0,0.0,0.0048178136,0.0,0.0,0.0,0.0,0.0,0.0,0.0,0.0
408210011,408208166,0.0,0.0,0.0,-0.005642926,-0.004772695,0.0,0.0,0.0,0.0,0.0,0.0,0.0,0.0,-0.0,0.0,0.0,nan,0.0,0.0,-0.005229175,0.0,0.0,0.0,0.0,0.0,0.0,0.0,0.0
408710910,408708573,0.0,0.0,0.0,-0.0058670603,-0.0044481405,0.0,0.0,0.0,0.0,0.0,0.0,0.0,0.0,-0.0,0.0,0.0,nan,0.0,0.0,0.00018072128,0.0,0.0,0.0,0.0,0.0,0.0,0.0,0.0
409211038,409209012,0.0,0.0,0.0,-0.006105136,-0.0041199387,0.0,0.0,0.0,0.0,0.0,0.0,0.0,0.0,-0.0,0.0,0.0,nan,0.0,0.0,0.0011700243,0.0,0.0,0.0,0.0,0.0,0.0,0.0,0.0
409711592,409709402,0.0,0.0,0.0,-0.0060372017,-0.0047285026,0.0,0.0,0.0,0.0,0.0,0.0,0.0,0.0,-0.0,0.0,0.0,nan,0.0,0.0,-0.013828114,0.0,0.0,0.0,0.0,0.0,0.0,0.0,0.0
410211830,410209806,0.0,0.0,0.0,-0.005495665,-0.004462818,0.0,0.0,0.0,0.0,0.0,0.0,0.0,0.0,-0.0,0.0,0.0,nan,0.0,0.0,-0.001675263,0.0,0.0,0.0,0.0,0.0,0.0,0.0,0.0
410712552,410710202,0.0,0.0,0.0,-0.0050406214,-0.004629843,0.0,0.0,0.0,0.0,0.0,0.0,0.0,0.0,0.023269653,0.0,0.0,nan,0.0,0.0,0.0030914843,0.0,0.0,0.0,0.0,0.0,0.0,0.0,0.0
411212923,411210614,0.0,0.0,0.0,-0.004499035,-0.003822024,0.0,0.0,0.0,0.0,0.0,0.0,0.0,0.0,-0.0,0.0,0.0,nan,0.0,0.0,-0.004106745,0.0,0.0,0.0,0.0,0.0,0.0,0.0,0.0
411713297,411711017,0.0,0.0,0.0,-0.003915592,-0.0033241836,0.0,0.0,0.0,0.0,0.0,0.0,0.0,0.0,-0.0,0.0,0.0,nan,0.0,0.0,-0.004190251,0.0,0.0,0.0,0.0,0.0,0.0,0.0,0.0
412213640,412211425,0.0,0.0,0.0,-0.003181337,-0.0027003102,0.0,0.0,0.0,0.0,0.0,0.0,0.0,0.0,-0.0,0.0,0.0,nan,0.0,0.0,-0.008015186,0.0,0.0,0.0,0.0,0.0,0.0,0.0,0.0
412713842,412711832,0.0,0.0,0.0,-0.0026431147,-0.0028911252,0.0,0.0,0.0,0.0,0.0,0.0,0.0,0.0,-0.0,0.0,0.0,nan,0.0,0.0,-0.0032786876,0.0,0.0,0.0,0.0,0.0,0.0,0.0,0.0
413214908,413212239,0.0,0.0,0.0,-0.0020678602,-0.0020950905,0.0,0.0,0.0,0.0,0.0,0.0,0.0,0.0,-0.0,0.0,0.0,nan,0.0,0.0,-0.013992682,0.0,0.0,0.0,0.0,0.0,0.0,0.0,0.0
413714840,413712646,0.0,0.0,0.0,-0.001887519,-0.0017480997,0.0,0.0,0.0,0.0,0.0,0.0,0.0,0.0,-0.0,0.0,0.0,nan,0.0,0.0,-0.024323434,0.0,0.0,0.0,0.0,0.0,0.0,0.0,0.0
414215687,414213057,0.0,0.0,0.0,-0.0015100869,-0.002366562,0.0,0.0,0.0,0.0,0.0,0.0,0.0,0.0,-0.0,0.0,0.0,nan,0.0,0.0,-0.011248976,0.0,0.0,0.0,0.0,0.0,0.0,0.0,0.0
414716033,414713461,0.0,0.0,0.0,-0.0014290382,-0.0033033935,0.0,0.0,0.0,0.0,0.0,0.0,0.0,0.0,0.18200684,0.0,0.0,nan,0.0,0.0,-0.012958512,0.0,0.0,0.0,0.0,0.0,0.0,0.0,0.0
415215911,415213875,0.0,0.0,0.0,-0.0011073761,-0.0033288111,0.0,0.0,0.0,0.0,0.0,0.0,0.0,0.0,-0.0,0.0,0.0,nan,0.0,0.0,-0.018783122,0.0,0.0,0.0,0.0,0.0,0.0,0.0,0.0
415717245,415714280,0.0,0.0,0.0,-0.0009782856,-0.00319246,0.0,0.0,0.0,0.0,0.0,0.0,0.0,0.0,-0.0,0.0,0.0,nan,0.0,0.0,-0.011546731,0.0,0.0,0.0,0.0,0.0,0.0,0.0,0.0
416707415,416705101,0.0,0.0,0.0,-0.0015289868,-0.0036648717,0.0,0.0,0.0,0.0,0.0,0.0,0.0,0.0,0.3701477,0.0,0.0,nan,0.0,0.0,-0.023742363,0.0,0.0,0.0,0.0,0.0,0.0,0.0,0.0
417207342,417205492,0.0,0.0,0.0,-0.0028620579,-0.0066674906,0.0,0.0,0.0,0.0,0.0,0.0,0.0,0.0,0.21199036,0.0,0.0,nan,0.0,0.0,-0.024901718,0.0,0.0,0.0,0.0,0.0,0.0,0.0,0.0
417707873,417705900,0.0,0.0,0.0,-0.0040787267,-0.0093948515,0.0,0.0,0.0,0.0,0.0,0.0,0.0,0.0,-0.0,0.0,0.0,nan,0.0,0.0,-0.035411417,0.0,0.0,0.0,0.0,0.0,0.0,0.0,0.0
418208982,418206308,0.0,0.0,0.0,-0.0060063456,-0.012907526,0.0,0.0,0.0,0.0,0.0,0.0,0.0,0.0,0.075927734,0.0,0.0,nan,0.0,0.0,-0.021170393,0.0,0.0,0.0,0.0,0.0,0.0,0.0,0.0
418708759,418706717,0.0,0.0,0.0,-0.006027934,-0.013588693,0.0,0.0,0.0,0.0,0.0,0.0,0.0,0.0,0.0382843,0.0,0.0,nan,0.0,0.0,-0.022320434,0.0,0.0,0.0,0.0,0.0,0.0,0.0,0.0
419209029,419207125,0.0,0.0,0.0,-0.006510498,-0.012529369,0.0,0.0,0.0,0.0,0.0,0.0,0.0,0.0,0.07807922,0.0,0.0,nan,0.0,0.0,-0.023073927,0.0,0.0,0.0,0.0,0.0,0.0,0.0,0.0
419709729,419707534,0.0,0.0,0.0,-0.006546827,-0.01156835,0.0,0.0,0.0,0.0,0.0,0.0,0.0,0.0,0.20567322,0.0,0.0,nan,0.0,0.0,-0.012276143,0.0,0.0,0.0,0.0,0.0,0.0,0.0,0.0
420209777,420207943,0.0,0.0,0.0,-0.0066641713,-0.009873225,0.0,0.0,0.0,0.0,0.0,0.0,0.0,0.0,0.27944946,0.0,0.0,nan,0.0,0.0,-0.015997186,0.0,0.0,0.0,0.0,0.0,0.0,0.0,0.0
420710702,420708370,0.0,0.0,0.0,-0.0070158415,-0.007897776,0.0,0.0,0.0,0.0,0.0,0.0,0.0,0.0,-0.0,0.0,0.0,nan,0.0,0.0,-0.007371515,0.0,0.0,0.0,0.0,0.0,0.0,0.0,0.0
421210578,421208759,0.0,0.0,0.0,-0.002062415,0.00047158054,0.0,0.0,0.0,0.0,0.0,0.0,0.0,0.0,0.03919983,0.0,0.0,nan,0.0,0.0,-0.016116053,0.0,0.0,0.0,0.0,0.0,0.0,0.0,0.0
421711344,421709167,0.0,0.0,0.0,-0.0019793883,0.0013542986,0.0,0.0,0.0,0.0,0.0,0.0,0.0,0.0,0.14875793,0.0,0.0,nan,0.0,0.0,-0.022922486,0.0,0.0,0.0,0.0,0.0,0.0,0.0,0.0
422211607,422209576,0.0,0.0,0.0,-0.004185517,0.0029406056,0.0,0.0,0.0,0.0,0.0,0.0,0.0,0.0,0.11236572,0.0,0.0,nan,0.0,0.0,-0.014044896,0.0,0.0,0.0,0.0,0.0,0.0,0.0,0.0
422712114,422709984,0.0,0.0,0.0,-0.005664069,0.004860414,0.0,0.0,0.0,0.0,0.0,0.0,0.0,0.0,0.23908997,0.0,0.0,nan,0.0,0.0,-0.015143484,0.0,0.0,0.0,0.0,0.0,0.0,0.0,0.0
423212664,423210408,0.0,0.0,0.0,-0.007128929,0.005934124,0.0,0.0,0.0,0.0,0.0,0.0,0.0,0.0,-0.0,0.0,0.0,nan,0.0,0.0,-0.013287157,0.0,0.0,0.0,0.0,0.0,0.0,0.0,0.0
423713124,423710818,0.0,0.0,0.0,-0.0020459173,0.0021928863,0.0,0.0,0.0,0.0,0.0,0.0,0.0,0.0,0.107437134,0.0,0.0,nan,0.0,0.0,-0.0072637796,0.0,0.0,0.0,0.0,0.0,0.0,0.0,0.0
424213131,424211216,0.0,0.0,0.0,-0.0025122755,0.0035406635,0.0,0.0,0.0,0.0,0.0,0.0,0.0,0.0,0.002532959,0.0,0.0,nan,0.0,0.0,-0.027141333,0.0,0.0,0.0,0.0,0.0,0.0,0.0,0.0
424713631,424711648,0.0,0.0,0.0,-0.002544328,0.006089397,0.0,0.0,0.0,0.0,0.0,0.0,0.0,0.0,-0.0,0.0,0.0,nan,0.0,0.0,-0.03297825,0.0,0.0,0.0,0.0,0.0,0.0,0.0,0.0
425214491,425212023,0.0,0.0,0.0,0.005518008,0.00772897,0.0,0.0,0.0,0.0,0.0,0.0,0.0,0.0,-0.0,0.0,0.0,nan,0.0,0.0,-0.042343512,0.0,0.0,0.0,0.0,0.0,0.0,0.0,0.0
425715032,425712429,0.0,0.0,0.0,0.068698056,-0.0015288697,0.0,0.0,0.0,0.0,0.0,0.0,0.0,0.0,-0.0,0.0,0.0,nan,0.0,0.0,-0.05877042,0.0,0.0,0.0,0.0,0.0,0.0,0.0,0.0
426214936,426212833,0.0,0.0,0.0,0.34357417,-0.051413134,0.0,0.0,0.0,0.0,0.0,0.0,0.0,0.0,-0.0,0.0,0.0,nan,0.0,0.0,-0.07202512,0.0,0.0,0.0,0.0,0.0,0.0,0.0,0.0
427216107,427213635,0.0,0.0,0.0,1.7973799,-0.477271,0.0,0.0,0.0,0.0,0.0,0.0,0.0,0.0,-0.5265503,0.0,0.0,nan,0.0,0.0,-0.20633703,0.0,0.0,0.0,0.0,0.0,0.0,0.0,0.0
427716740,427714031,0.0,0.0,0.0,3.4921367,-0.8093115,0.0,0.0,0.0,0.0,0.0,0.0,0.0,0.0,-1.0982056,0.0,0.0,nan,0.0,0.0,-0.28870645,0.0,0.0,0.0,0.0,0.0,0.0,0.0,0.0
428216489,428214437,0.0,0.0,0.0,7.3756943,-1.4912689,0.0,0.0,0.0,0.0,0.0,0.0,0.0,0.0,-2.002365,0.0,0.0,nan,0.0,0.0,-0.38074517,0.0,0.0,0.0,0.0,0.0,0.0,0.0,0.0
428717277,428714821,0.0,0.0,0.0,10.75664,-2.212391,0.0,0.0,0.0,0.0,0.0,0.0,0.0,0.0,-4.950943,0.0,0.0,nan,0.0,0.0,-0.4490243,0.0,0.0,0.0,0.0,0.0,0.0,0.0,0.0
429207347,429205195,0.0,0.0,0.0,16.13911,-3.9007635,0.0,0.0,0.0,0.0,0.0,0.0,0.0,0.0,-4.1754303,0.0,0.0,nan,0.0,0.0,-0.37551856,0.0,0.0,0.0,0.0,0.0,0.0,0.0,0.0
429708358,429705579,0.0,0.0,0.0,19.554384,-5.4685965,0.0,0.0,0.0,0.0,0.0,0.0,0.0,0.0,-3.6162262,0.0,0.0,nan,0.0,0.0,0.22099492,0.006961994,-0.014046628,-0.0035832077,0.0,0.0,0.0,0.0,0.0
430208273,430205977,0.0,0.0,0.0,23.89278,-7.8629146,0.0,0.0,0.0,0.0,0.0,0.0,0.0,0.0,-2.1901398,0.0,0.0,nan,0.0,0.0,0.22099492,0.0011411607,-0.013364978,-0.01222977,0.0,0.0,0.0,0.0,0.0
430712849,430706341,0.0,0.0,0.0,25.89195,-9.214881,0.0,0.0,0.0,0.0,0.0,0.0,0.0,0.0,-2.8920898,0.0,0.0,nan,0.0,0.0,0.22099492,-0.004578583,-0.016411312,0.0027539134,0.0,0.0,0.0,0.0,0.0
431709551,431707095,0.0,0.0,0.0,27.344158,-10.64843,0.0,0.0,0.0,0.0,0.0,0.0,0.0,0.0,-1.0428314,0.0,0.0,nan,0.0,0.0,0.22099492,-0.035172045,-0.013517097,-0.0049245507,0.0,0.0,0.0,0.0,0.0
432214229,432207464,0.0,0.0,0.0,26.21976,-9.806267,0.0,0.0,0.0,0.0,0.0,0.0,0.0,0.0,0.38587952,0.0,0.0,nan,0.0,0.0,0.22099492,-0.036986932,0.0018623844,-0.019723758,0.0,0.0,0.0,0.0,0.0
432714579,432707833,0.0,0.0,0.0,25.003395,-8.744778,0.0,0.0,0.0,0.0,0.0,0.0,0.0,0.0,1.1857605,0.0,0.0,nan,0.0,0.0,0.22099492,-0.034303486,0.0054519735,-0.025800005,0.0,0.0,0.0,0.0,0.0
433214795,433208210,0.0,0.0,0.0,22.97074,-6.9233813,0.0,0.0,0.0,0.0,0.0,0.0,0.0,0.0,1.6401062,0.0,0.0,nan,0.0,0.0,0.22099492,-0.023103744,-0.0034527704,-0.014690921,0.0,0.0,0.0,0.0,0.0
433710573,433708564,0.0,0.0,0.0,21.51549,-5.731576,0.0,0.0,0.0,0.0,0.0,0.0,0.0,0.0,2.014862,0.0,0.0,nan,0.0,0.0,0.22099492,-0.020207092,0.009754725,0.017983988,0.0,0.0,0.0,0.0,0.0
434210930,434208929,0.0,0.0,0.0,19.528002,-4.165059,0.0,0.0,0.0,0.0,0.0,0.0,0.0,0.0,2.4871063,0.0,0.0,nan,0.0,0.0,0.22099492,-0.008428723,0.0014878958,0.01267381,0.0,0.0,0.0,0.0,0.0
434716211,434709295,0.0,0.0,0.0,18.597195,-3.3068538,0.0,0.0,0.0,0.0,0.0,0.0,0.0,0.0,1.8777313,0.0,0.0,nan,0.0,0.0,0.22099492,-0.0028908253,-0.014652864,0.03455612,0.0,0.0,0.0,0.0,0.0
435211603,435209641,0.0,0.0,0.0,17.342953,-2.2381337,0.0,0.0,0.0,0.0,0.0,0.0,0.0,0.0,2.2734985,0.0,0.0,nan,0.0,0.0,0.22099492,-0.010361522,-0.0023641363,0.05220166,0.0,0.0,0.0,0.0,0.0
435712090,435709994,0.0,0.0,0.0,16.667791,-1.6667132,0.0,0.0,0.0,0.0,0.0,0.0,0.0,0.0,2.4090576,0.0,0.0,nan,0.0,0.0,0.22099492,-0.017240763,-0.007049611,0.049833596,0.0,0.0,0.0,0.0,0.0
436217257,436210352,0.0,0.0,0.0,15.708774,-0.8673242,0.0,0.0,0.0,0.0,0.0,0.0,0.0,0.0,2.4190216,0.0,0.0,nan,0.0,0.0,0.22099492,-0.024485543,0.004598655,0.05971057,0.0,0.0,0.0,0.0,0.0
436712766,436710700,0.0,0.0,0.0,14.885035,-0.03852169,0.0,0.0,0.0,0.0,0.0,0.0,0.0,0.0,3.060196,0.0,0.0,nan,0.0,0.0,0.22099492,-0.028915927,0.0019942,0.040207975,0.0,0.0,0.0,0.0,0.0
437217858,437211039,0.0,0.0,0.0,13.148324,2.0666065,0.0,0.0,0.0,0.0,0.0,0.0,0.0,0.0,3.065277,0.0,0.0,nan,0.0,0.0,0.22099492,-0.030497745,0.009069068,0.04078923,0.0,0.0,0.0,0.0,0.0
437718153,437711404,0.0,0.0,0.0,11.195779,4.1325927,0.0,0.0,0.0,0.0,0.0,0.0,0.0,0.0,2.411728,0.0,0.0,nan,0.0,0.0,0.22099492,-0.027564809,-0.004915789,0.012704879,0.0,0.0,0.0,0.0,0.0
438213811,438211724,0.0,0.0,0.0,7.2402563,7.5453243,0.0,0.0,0.0,0.0,0.0,0.0,0.0,0.0,2.3723755,0.0,0.0,nan,0.0,0.0,0.22099492,-0.027244255,0.002899643,0.023042068,0.0,0.0,0.0,0.0,0.0
438718919,438712058,0.0,0.0,0.0,4.7145905,10.00534,0.0,0.0,0.0,0.0,0.0,0.0,0.0,0.0,1.0932617,0.0,0.0,nan,0.0,0.0,0.22099492,-0.03845015,-0.0033574626,0.01866997,0.0,0.0,0.0,0.0,0.0
439214485,439212417,0.0,0.0,0.0,1.2429563,14.323795,0.0,0.0,0.0,0.0,0.0,0.0,0.0,0.0,1.4016571,0.0,0.0,nan,0.0,0.0,0.22099492,-0.04005669,0.010063317,0.007852353,0.0,0.0,0.0,0.0,0.0
439719855,439712735,0.0,0.0,0.0,-0.8574578,17.582407,0.0,0.0,0.0,0.0,0.0,0.0,0.0,0.0,0.50457764,0.0,0.0,nan,0.0,0.0,0.22099492,-0.04294008,0.0038773343,-0.01402612,0.0,0.0,0.0,0.0,0.0
440215238,440213068,0.0,0.0,0.0,-4.083985,23.136477,0.0,0.0,0.0,0.0,0.0,0.0,0.0,0.0,0.81300354,0.0,0.0,nan,0.0,0.0,0.22099492,-0.006504476,-0.03934279,-0.20695333,0.0,0.0,0.0,0.0,0.0
440715599,440713405,0.0,0.0,0.0,-6.8640194,25.975985,0.0,0.0,0.0,0.0,0.0,0.0,0.0,0.0,1.6874847,0.0,0.0,nan,0.0,0.0,0.22099492,-0.013132244,-0.041062653,-0.20247076,0.0,0.0,0.0,0.0,0.0
441216187,441213730,0.0,0.0,0.0,-11.418545,28.974644,0.0,0.0,0.0,0.0,0.0,0.0,0.0,0.0,1.3299866,0.0,0.0,nan,0.0,0.0,0.22099492,-0.0019628257,-0.009910703,-0.21133609,0.0,0.0,0.0,0.0,0.0
441716235,441714110,0.0,0.0,0.0,-14.403164,30.085558,0.0,0.0,0.0,0.0,0.0,0.0,0.0,0.0,0.5662384,0.0,0.0,nan,0.0,0.0,0.22099492,-0.0039263517,-0.010129213,-0.21215911,0.0,0.0,0.0,0.0,0.0
442216644,442214405,0.0,0.0,0.0,-18.250288,30.780977,0.0,0.0,0.0,0.0,0.0,0.0,0.0,0.0,-0.6177826,0.0,0.0,nan,0.0,0.0,0.22099492,-0.026548386,0.059131116,-0.026875056,0.0,0.0,0.0,0.0,0.0
442721558,442714747,0.0,0.0,0.0,-20.036688,31.546276,0.0,0.0,0.0,0.0,0.0,0.0,0.0,0.0,-4.3303986,0.0,0.0,nan,0.0,0.0,0.22099492,-0.04833424,0.017845444,0.0008880943,0.0,0.0,0.0,0.0,0.0
443212026,443205039,0.0,0.0,0.0,-22.371542,32.962223,0.0,0.0,0.0,0.0,0.0,0.0,0.0,0.0,-3.4537659,0.0,0.0,nan,0.0,0.0,0.22099492,-0.057068214,0.0031994432,0.017430268,0.0,0.0,0.0,0.0,0.0
443707337,443705363,0.0,0.0,0.0,-24.546614,34.983604,0.0,0.0,0.0,0.0,0.0,0.0,0.0,0.0,-3.7950134,0.0,0.0,nan,0.0,0.0,0.22099492,-0.017150939,0.042034045,-0.013527721,0.0,0.0,0.0,0.0,0.0
444208241,444205716,0.0,0.0,0.0,-29.465082,38.9981,0.0,0.0,0.0,0.0,0.0,0.0,0.0,0.0,-3.6987152,0.0,0.0,nan,0.0,0.0,0.22099492,-0.0024989787,0.033580035,-0.02149792,0.0,0.0,0.0,0.0,0.0
444708125,444706006,0.0,0.0,0.0,-33.482533,41.380646,0.0,0.0,0.0,0.0,0.0,0.0,0.0,0.0,-3.3140411,0.0,0.0,nan,0.0,0.0,0.22099492,0.0036088414,0.027031466,-0.0476522,0.0,0.0,0.0,0.0,0.0
445213316,445206325,0.0,0.0,0.0,-39.578693,43.334858,0.0,0.0,0.0,0.0,0.0,0.0,0.0,0.0,-3.224121,0.0,0.0,nan,0.0,0.0,0.22099492,0.0022425726,0.023282051,-0.037259832,0.0,0.0,0.0,0.0,0.0
445713184,445706643,0.0,0.0,0.0,-43.42734,43.631306,0.0,0.0,0.0,0.0,0.0,0.0,0.0,0.0,-3.109085,0.0,0.0,nan,0.0,0.0,0.22099492,-0.005484432,0.01695688,-0.019494325,0.0,0.0,0.0,0.0,0.0
446214124,446206958,0.0,0.0,0.0,-48.67245,43.16056,0.0,0.0,0.0,0.0,0.0,0.0,0.0,0.0,-3.2923584,0.0,0.0,nan,0.0,0.0,0.22099492,-0.009984918,0.038535908,0.0017340928,0.0,0.0,0.0,0.0,0.0
446709414,446707271,0.0,0.0,0.0,-51.637623,42.47929,0.0,0.0,0.0,0.0,0.0,0.0,0.0,0.0,-3.72966,0.0,0.0,nan,0.0,0.0,0.22099492,-0.015618429,0.023714498,-0.019600585,0.0,0.0,0.0,0.0,0.0
447214662,447207583,0.0,0.0,0.0,-55.741047,40.58057,0.0,0.0,0.0,0.0,0.0,0.0,0.0,0.0,-3.3759766,0.0,0.0,nan,0.0,0.0,0.22099492,-0.014182746,0.024854764,-0.025570512,0.0,0.0,0.0,0.0,0.0
447714723,447707893,0.0,0.0,0.0,-58.284065,38.690556,0.0,0.0,0.0,0.0,0.0,0.0,0.0,0.0,-3.1784515,0.0,0.0,nan,0.0,0.0,0.22099492,-0.014802963,0.02263932,-0.003695935,0.0,0.0,0.0,0.0,0.0
448210957,448208224,0.0,0.0,0.0,-61.629814,34.880886,0.0,0.0,0.0,0.0,0.0,0.0,0.0,0.0,-3.144806,0.0,0.0,nan,0.0,0.0,0.22099492,-0.013876066,0.02269812,-0.020227745,0.0,0.0,0.0,0.0,0.0
448715133,448708514,0.0,0.0,0.0,-63.469387,31.760132,0.0,0.0,0.0,0.0,0.0,0.0,0.0,0.0,-2.8507538,0.0,0.0,nan,0.0,0.0,0.22099492,-0.013917267,0.021918222,-0.015064523,0.0,0.0,0.0,0.0,0.0
449211211,449208813,0.0,0.0,0.0,-65.5118,26.202726,0.0,0.0,0.0,0.0,0.0,0.0,0.0,0.0,-2.0921326,0.0,0.0,nan,0.0,0.0,0.22099492,-0.011938304,0.02973111,-0.025820032,0.0,0.0,0.0,0.0,0.0
449715801,449709123,0.0,0.0,0.0,-66.4309,22.395306,0.0,0.0,0.0,0.0,0.0,0.0,0.0,0.0,-2.6898804,0.0,0.0,nan,0.0,0.0,0.22099492,-0.00296022,0.049917966,-0.026944935,0.0,0.0,0.0,0.0,0.0
450211651,450209418,0.0,0.0,0.0,-66.46174,16.680414,0.0,0.0,0.0,0.0,0.0,0.0,0.0,0.0,-2.4852753,0.0,0.0,nan,0.0,0.0,0.22099492,-0.0041729063,0.03612104,-0.019959226,0.0,0.0,0.0,0.0,0.0
450716266,450709735,0.0,0.0,0.0,-65.498314,12.730213,0.0,0.0,0.0,0.0,0.0,0.0,0.0,0.0,-2.949936,0.0,0.0,nan,0.0,0.0,0.22099492,-0.0045436174,0.03124559,-0.016893297,0.0,0.0,0.0,0.0,0.0
451217058,451210016,0.0,0.0,0.0,-62.82617,6.822721,0.0,0.0,0.0,0.0,0.0,0.0,0.0,0.0,-2.6924896,0.0,0.0,nan,0.0,0.0,0.22099492,-0.0060417205,0.036784798,-0.019808114,0.0,0.0,0.0,0.0,0.0
451717124,451710313,0.0,0.0,0.0,-60.262608,3.0773818,0.0,0.0,0.0,0.0,0.0,0.0,0.0,0.0,-2.5967255,0.0,0.0,nan,0.0,0.0,0.22099492,-0.008059129,0.035691053,-0.030777708,0.0,0.0,0.0,0.0,0.0
452213287,452210614,0.0,0.0,0.0,-55.46874,-2.0141265,0.0,0.0,0.0,0.0,0.0,0.0,0.0,0.0,-2.0445404,0.0,0.0,nan,0.0,0.0,0.22099492,-0.0011610985,0.038725793,-0.017698482,0.0,0.0,0.0,0.0,0.0
453218587,453211194,0.0,0.0,0.0,-45.315044,-8.206411,0.0,0.0,0.0,0.0,0.0,0.0,0.0,0.0,-1.3276215,0.0,0.0,nan,0.0,0.0,0.22099492,-0.00471586,0.03155294,-0.02635952,0.0,0.0,0.0,0.0,0.0
453718183,453711485,0.0,0.0,0.0,-40.713642,-9.866432,0.0,0.0,0.0,0.0,0.0,0.0,0.0,0.0,-0.061767578,0.0,0.0,nan,0.0,0.0,0.22099492,-0.0002387762,0.032179072,-0.017781004,0.0,0.0,0.0,0.0,0.0
454218758,454211774,0.0,0.0,0.0,-33.538067,-11.443168,0.0,0.0,0.0,0.0,0.0,0.0,0.0,0.0,-0.41662598,0.0,0.0,nan,0.0,0.0,0.22099492,-0.0044558197,0.018938214,-0.023591593,0.0,0.0,0.0,0.0,0.0
454718822,454712062,0.0,0.0,0.0,-28.672499,-12.074905,0.0,0.0,0.0,0.0,0.0,0.0,0.0,0.0,-0.07807922,0.0,0.0,nan,0.0,0.0,0.22099492,-0.008250192,0.012833953,-0.0125801265,0.0,0.0,0.0,0.0,0.0
455214803,455212348,0.0,0.0,0.0,-21.487658,-12.834947,0.0,0.0,0.0,0.0,0.0,0.0,0.0,0.0,0.25759888,0.0,0.0,nan,0.0,0.0,0.22099492,-0.01184231,0.009729609,-0.0028271228,0.0,0.0,0.0,0.0,0.0
455719399,455712636,0.0,0.0,0.0,-16.8794,-13.408923,0.0,0.0,0.0,0.0,0.0,0.0,0.0,0.0,0.35498047,0.0,0.0,nan,0.0,0.0,0.22099492,-0.01906547,0.0010833796,0.017512329,0.0,0.0,0.0,0.0,0.0
456219985,456212917,0.0,0.0,0.0,-10.347897,-14.780192,0.0,0.0,0.0,0.0,0.0,0.0,0.0,0.0,1.0529327,0.0,0.0,nan,0.0,0.0,0.22099492,-0.024254337,-0.0009428933,-0.018450625,0.0,0.0,0.0,0.0,0.0
456720173,456713200,0.0,0.0,0.0,-6.2377396,-16.013205,0.0,0.0,0.0,0.0,0.0,0.0,0.0,0.0,0.9469757,0.0,0.0,nan,0.0,0.0,0.22099492,-0.026930839,-0.0049575716,-0.0142591,0.0,0.0,0.0,0.0,0.0
457216349,457213492,0.0,0.0,0.0,-0.23213308,-18.2646,0.0,0.0,0.0,0.0,0.0,0.0,0.0,0.0,0.7103882,0.0,0.0,nan,0.0,0.0,0.22099492,-0.031651244,0.0026419386,0.0014418364,0.0,0.0,0.0,0.0,0.0
457720466,457713765,0.0,0.0,0.0,3.7094526,-20.034224,0.0,0.0,0.0,0.0,0.0,0.0,0.0,0.0,0.9147949,0.0,0.0,nan,0.0,0.0,0.22099492,-0.026066452,0.009429298,0.0023211017,0.0,0.0,0.0,0.0,0.0
458221276,458214040,0.0,0.0,0.0,10.537086,-23.309935,0.0,0.0,0.0,0.0,0.0,0.0,0.0,0.0,0.7809448,0.0,0.0,nan,0.0,0.0,0.22099492,-0.016170666,0.010580145,0.011899546,0.0,0.0,0.0,0.0,0.0
458716621,458714325,0.0,0.0,0.0,16.429638,-25.818398,0.0,0.0,0.0,0.0,0.0,0.0,0.0,0.0,0.46974182,0.0,0.0,nan,0.0,0.0,0.22099492,-0.011348188,-0.0002873391,0.015345082,0.0,0.0,0.0,0.0,0.0
459221565,459214607,0.0,0.0,0.0,26.597437,-29.519415,0.0,0.0,0.0,0.0,0.0,0.0,0.0,0.0,0.95999146,0.0,0.0,nan,0.0,0.0,0.22099492,-0.007879704,0.0013706386,-0.004080206,0.0,0.0,0.0,0.0,0.0
459717039,459714873,0.0,0.0,0.0,33.81758,-31.286665,0.0,0.0,0.0,0.0,0.0,0.0,0.0,0.0,1.3100433,0.0,0.0,nan,0.0,0.0,0.22099492,-0.0062355995,-0.012342215,-0.06522919,0.0,0.0,0.0,0.0,0.0
460207394,460205147,0.0,0.0,0.0,40.593006,-32.181652,0.0,0.0,0.0,0.0,0.0,0.0,0.0,0.0,0.5265503,0.0,0.0,nan,0.0,0.0,0.22099492,-0.008182511,-0.015964031,-0.057883933,0.0,0.0,0.0,0.0,0.0
460708058,460705422,0.0,0.0,0.0,49.778446,-32.630135,0.0,0.0,0.0,0.0,0.0,0.0,0.0,0.0,0.53881836,0.0,0.0,nan,0.0,0.0,0.22099492,-0.016209614,-0.013456464,-0.05888015,0.0,0.0,0.0,0.0,0.0
461212441,461205697,0.0,0.0,0.0,55.38071,-32.414993,0.0,0.0,0.0,0.0,0.0,0.0,0.0,0.0,0.3576355,0.0,0.0,nan,0.0,0.0,0.22099492,-0.013036767,-0.031128377,-0.088942885,0.0,0.0,0.0,0.0,0.0
461708348,461705967,0.0,0.0,0.0,62.721695,-31.480028,0.0,0.0,0.0,0.0,0.0,0.0,0.0,0.0,-0.42044067,0.0,0.0,nan,0.0,0.0,0.22099492,-0.017032951,-0.031033367,-0.08990528,0.0,0.0,0.0,0.0,0.0
462208586,462206247,0.0,0.0,0.0,67.53541,-30.511387,0.0,0.0,0.0,0.0,0.0,0.0,0.0,0.0,0.12045288,0.0,0.0,nan,0.0,0.0,0.22099492,-0.01790221,-0.032286823,-0.09294939,0.0,0.0,0.0,0.0,0.0
462713098,462706507,0.0,0.0,0.0,75.327225,-27.98239,0.0,0.0,0.0,0.0,0.0,0.0,0.0,0.0,-0.9259186,0.0,0.0,nan,0.0,0.0,0.22099492,-0.0126672685,-0.028622806,-0.06965606,0.0,0.0,0.0,0.0,0.0
463208792,463206784,0.0,0.0,0.0,81.67174,-24.960161,0.0,0.0,0.0,0.0,0.0,0.0,0.0,0.0,-0.8532562,0.0,0.0,nan,0.0,0.0,0.22099492,-0.012153819,-0.030901551,-0.07537893,0.0,0.0,0.0,0.0,0.0
463709435,463707067,0.0,0.0,0.0,91.35397,-18.075184,0.0,0.0,0.0,0.0,0.0,0.0,0.0,0.0,-1.3425751,0.0,0.0,nan,0.0,0.0,0.22099492,-0.011849344,-0.033901513,-0.08119893,0.0,0.0,0.0,0.0,0.0
464209591,464207324,0.0,0.0,0.0,96.649826,-13.032224,0.0,0.0,0.0,0.0,0.0,0.0,0.0,0.0,-0.919281,0.0,0.0,nan,0.0,0.0,0.22099492,-0.009285495,-0.033404887,-0.084175184,0.0,0.0,0.0,0.0,0.0
464714167,464707586,0.0,0.0,0.0,102.821,-5.7135053,0.0,0.0,0.0,0.0,0.0,0.0,0.0,0.0,-1.3553467,0.0,0.0,nan,0.0,0.0,0.22099492,-0.012931913,-0.02971758,-0.07037832,0.0,0.0,0.0,0.0,0.0
465214711,465207872,0.0,0.0,0.0,105.965675,-1.0265198,0.0,0.0,0.0,0.0,0.0,0.0,0.0,0.0,-1.8149567,0.0,0.0,nan,0.0,0.0,0.22099492,-0.01789704,-0.01771687,-0.04763981,0.0,0.0,0.0,0.0,0.0
465714794,465708149,0.0,0.0,0.0,109.755775,6.3264995,0.0,0.0,0.0,0.0,0.0,0.0,0.0,0.0,-1.4181213,0.0,0.0,nan,0.0,0.0,0.22099492,-0.013008565,-0.017024636,-0.044941396,0.0,0.0,0.0,0.0,0.0
466210524,466208409,0.0,0.0,0.0,111.62648,11.571959,0.0,0.0,0.0,0.0,0.0,0.0,0.0,0.0,-1.6308136,0.0,0.0,nan,0.0,0.0,0.22099492,-0.0058546066,-0.025807388,-0.05593434,0.0,0.0,0.0,0.0,0.0
466715112,466708654,0.0,0.0,0.0,113.41972,19.134808,0.0,0.0,0.0,0.0,0.0,0.0,0.0,0.0,-1.5320435,0.0,0.0,nan,0.0,0.0,0.22099492,-0.0044091046,-0.030903772,-0.06376164,0.0,0.0,0.0,0.0,0.0
467210787,467208926,0.0,0.0,0.0,113.92707,23.57023,0.0,0.0,0.0,0.0,0.0,0.0,0.0,0.0,-1.472702,0.0,0.0,nan,0.0,0.0,0.22099492,0.005483225,-0.03377451,-0.077216595,0.0,0.0,0.0,0.0,0.0
467715796,467709185,0.0,0.0,0.0,113.22491,28.62878,0.0,0.0,0.0,0.0,0.0,0.0,0.0,0.0,-1.1121216,0.0,0.0,nan,0.0,0.0,0.22099492,-0.020972207,-0.021536216,-0.07938458,0.0,0.0,0.0,0.0,0.0
468216197,468209448,0.0,0.0,0.0,111.5586,32.116486,0.0,0.0,0.0,0.0,0.0,0.0,0.0,0.0,-0.43321228,0.0,0.0,nan,0.0,0.0,0.22099492,-0.009956181,-0.035824537,-0.08531512,0.0,0.0,0.0,0.0,0.0
468711934,468709717,0.0,0.0,0.0,107.29889,36.91872,0.0,0.0,0.0,0.0,0.0,0.0,0.0,0.0,-0.6172638,0.0,0.0,nan,0.0,0.0,0.22099492,-0.008312389,-0.04672122,-0.10409066,0.0,0.0,0.0,0.0,0.0
469211944,469209983,0.0,0.0,0.0,103.65997,39.702595,0.0,0.0,0.0,0.0,0.0,0.0,0.0,0.0,0.86509705,0.0,0.0,nan,0.0,0.0,0.22099492,0.0024738312,-0.046820603,-0.12994151,0.0,0.0,0.0,0.0,0.0
469713069,469710248,0.0,0.0,0.0,96.90048,43.09928,0.0,0.0,0.0,0.0,0.0,0.0,0.0,0.0,1.0894318,0.0,0.0,nan,0.0,0.0,0.22099492,0.015680045,-0.06067983,-0.12571439,0.0,0.0,0.0,0.0,0.0
470217515,470210500,0.0,0.0,0.0,92.0427,44.5473,0.0,0.0,0.0,0.0,0.0,0.0,0.0,0.0,1.5361328,0.0,0.0,nan,0.0,0.0,0.22099492,0.0014231205,-0.054209433,-0.12494576,0.0,0.0,0.0,0.0,0.0
470713106,470710774,0.0,0.0,0.0,84.71469,45.66275,0.0,0.0,0.0,0.0,0.0,0.0,0.0,0.0,2.4700317,0.0,0.0,nan,0.0,0.0,0.22099492,-0.0075065643,-0.05503016,-0.12254237,0.0,0.0,0.0,0.0,0.0
471217682,471211025,0.0,0.0,0.0,79.629395,45.410652,0.0,0.0,0.0,0.0,0.0,0.0,0.0,0.0,2.4211426,0.0,0.0,nan,0.0,0.0,0.22099492,-0.009824038,-0.04597555,-0.114651084,0.0,0.0,0.0,0.0,0.0
471713268,471711291,0.0,0.0,0.0,70.81315,44.33945,0.0,0.0,0.0,0.0,0.0,0.0,0.0,0.0,2.656845,0.0,0.0,nan,0.0,0.0,0.22099492,-0.037637025,-0.028354079,-0.096104845,0.0,0.0,0.0,0.0,0.0
472213627,472211556,0.0,0.0,0.0,64.63199,43.805347,0.0,0.0,0.0,0.0,0.0,0.0,0.0,0.0,3.490387,0.0,0.0,nan,0.0,0.0,0.22099492,-0.024889946,-0.037565984,-0.106766716,0.0,0.0,0.0,0.0,0.0
472718373,472711812,0.0,0.0,0.0,55.08145,43.278397,0.0,0.0,0.0,0.0,0.0,0.0,0.0,0.0,3.3353577,0.0,0.0,nan,0.0,0.0,0.22099492,-0.027137429,-0.032399826,-0.09922095,0.0,0.0,0.0,0.0,0.0
473214481,473212075,0.0,0.0,0.0,48.599445,43.112797,0.0,0.0,0.0,0.0,0.0,0.0,0.0,0.0,3.747818,0.0,0.0,nan,0.0,0.0,0.22099492,-0.018048763,-0.030530453,-0.08671914,0.0,0.0,0.0,0.0,0.0
473719347,473712344,0.0,0.0,0.0,38.95842,43.08033,0.0,0.0,0.0,0.0,0.0,0.0,0.0,0.0,3.8056946,0.0,0.0,nan,0.0,0.0,0.22099492,-0.006668031,-0.05808155,-0.10290785,0.0,0.0,0.0,0.0,0.0
474219376,474212607,0.0,0.0,0.0,32.97761,42.93459,0.0,0.0,0.0,0.0,0.0,0.0,0.0,0.0,4.8335114,0.0,0.0,nan,0.0,0.0,0.22099492,-0.0060394406,-0.051209968,-0.09220114,0.0,0.0,0.0,0.0,0.0
474715193,474712866,0.0,0.0,0.0,24.623652,41.82131,0.0,0.0,0.0,0.0,0.0,0.0,0.0,0.0,4.946884,0.0,0.0,nan,0.0,0.0,0.22099492,0.006706625,-0.06948675,-0.11640629,0.0,0.0,0.0,0.0,0.0
475219870,475213125,0.0,0.0,0.0,19.376158,40.614407,0.0,0.0,0.0,0.0,0.0,0.0,0.0,0.0,4.9148865,0.0,0.0,nan,0.0,0.0,0.22099492,0.005092323,-0.061052356,-0.10501982,0.0,0.0,0.0,0.0,0.0
475720101,475713402,0.0,0.0,0.0,11.581839,37.922745,0.0,0.0,0.0,0.0,0.0,0.0,0.0,0.0,5.1535645,0.0,0.0,nan,0.0,0.0,0.22099492,-0.009461492,-0.057036128,-0.107474476,0.0,0.0,0.0,0.0,0.0
476215755,476213654,0.0,0.0,0.0,6.6202316,35.516796,0.0,0.0,0.0,0.0,0.0,0.0,0.0,0.0,4.6884003,0.0,0.0,nan,0.0,0.0,0.22099492,-0.023681253,-0.05452287,-0.1165517,0.0,0.0,0.0,0.0,0.0
476720674,476713918,0.0,0.0,0.0,-1.2807028,31.272467,0.0,0.0,0.0,0.0,0.0,0.0,0.0,0.0,4.2301636,0.0,0.0,nan,0.0,0.0,0.22099492,-0.03736095,-0.02329307,-0.020473927,0.0,0.0,0.0,0.0,0.0
477220758,477214176,0.0,0.0,0.0,-6.469206,28.413462,0.0,0.0,0.0,0.0,0.0,0.0,0.0,0.0,2.6139984,0.0,0.0,nan,0.0,0.0,0.22099492,-0.04407063,0.0011360673,0.034523547,0.0,0.0,0.0,0.0,0.0
477716661,477714437,0.0,0.0,0.0,-14.015598,23.78879,0.0,0.0,0.0,0.0,0.0,0.0,0.0,0.0,2.71109,0.0,0.0,nan,0.0,0.0,0.22099492,-0.043111935,0.0058455206,0.054843068,0.0,0.0,0.0,0.0,0.0
478216913,478214698,0.0,0.0,0.0,-18.640202,20.758669,0.0,0.0,0.0,0.0,0.0,0.0,0.0,0.0,2.2899628,0.0,0.0,nan,0.0,0.0,0.22099492,-0.030179001,0.00042214524,0.041415215,0.0,0.0,0.0,0.0,0.0
478707414,478704952,0.0,0.0,0.0,-24.661922,16.196798,0.0,0.0,0.0,0.0,0.0,0.0,0.0,0.0,3.1756287,0.0,0.0,nan,0.0,0.0,0.22099492,-0.0231954,0.0010510795,0.045584783,0.0,0.0,0.0,0.0,0.0
479207159,479205217,0.0,0.0,0.0,-27.703026,13.183464,0.0,0.0,0.0,0.0,0.0,0.0,0.0,0.0,3.5194855,0.0,0.0,nan,0.0,0.0,0.22099492,-0.017096907,0.0015981514,0.053498685,0.0,0.0,0.0,0.0,0.0
479712124,479705470,0.0,0.0,0.0,-31.06332,8.693639,0.0,0.0,0.0,0.0,0.0,0.0,0.0,0.0,3.3968048,0.0,0.0,nan,0.0,0.0,0.22099492,-0.0087917745,-0.0038908496,0.04582444,0.0,0.0,0.0,0.0,0.0
480212417,480205743,0.0,0.0,0.0,-32.588654,5.658176,0.0,0.0,0.0,0.0,0.0,0.0,0.0,0.0,4.0029297,0.0,0.0,nan,0.0,0.0,0.22099492,-0.0071669817,-0.001959168,0.039082274,0.0,0.0,0.0,0.0,0.0
480708054,480705981,0.0,0.0,0.0,-33.717648,1.3643377,0.0,0.0,0.0,0.0,0.0,0.0,0.0,0.0,3.195816,0.0,0.0,nan,0.0,0.0,0.22099492,-0.0025571883,-0.0038299076,0.039376035,0.0,0.0,0.0,0.0,0.0
481212759,481206236,0.0,0.0,0.0,-33.978153,-1.4460033,0.0,0.0,0.0,0.0,0.0,0.0,0.0,0.0,3.295929,0.0,0.0,nan,0.0,0.0,0.22099492,-0.008993849,0.0072342977,0.05088125,0.0,0.0,0.0,0.0,0.0
481713253,481706487,0.0,0.0,0.0,-33.39223,-4.541905,0.0,0.0,0.0,0.0,0.0,0.0,0.0,0.0,3.3456116,0.0,0.0,nan,0.0,0.0,0.22099492,-0.006869599,0.0011922866,0.032783598,0.0,0.0,0.0,0.0,0.0
482208895,482206750,0.0,0.0,0.0,-33.138622,-5.7990503,0.0,0.0,0.0,0.0,0.0,0.0,0.0,0.0,2.6695862,0.0,0.0,nan,0.0,0.0,0.22099492,-0.007596731,0.0015808269,0.025073782,0.0,0.0,0.0,0.0,0.0
482713425,482706996,0.0,0.0,0.0,-33.435207,-6.145407,0.0,0.0,0.0,0.0,0.0,0.0,0.0,0.0,2.67836,0.0,0.0,nan,0.0,0.0,0.22099492,0.0030207708,-0.0010845214,0.026111796,0.0,0.0,0.0,0.0,0.0
483209116,483207248,0.0,0.0,0.0,-34.40743,-5.777762,0.0,0.0,0.0,0.0,0.0,0.0,0.0,0.0,1.6815948,0.0,0.0,nan,0.0,0.0,0.22099492,0.0024267025,-0.008822154,0.0074462593,0.0,0.0,0.0,0.0,0.0
483709727,483707505,0.0,0.0,0.0,-37.0679,-4.7407427,0.0,0.0,0.0,0.0,0.0,0.0,0.0,0.0,1.0956116,0.0,0.0,nan,0.0,0.0,0.22099492,0.0024681017,0.0007446483,0.012103826,0.0,0.0,0.0,0.0,0.0
484214426,484207751,0.0,0.0,0.0,-39.10805,-3.7459261,0.0,0.0,0.0,0.0,0.0,0.0,0.0,0.0,0.13139343,0.0,0.0,nan,0.0,0.0,0.22099492,0.021429047,-0.008063965,-0.006001964,0.0,0.0,0.0,0.0,0.0
484709935,484708012,0.0,0.0,0.0,-41.128586,-2.4530578,0.0,0.0,0.0,0.0,0.0,0.0,0.0,0.0,0.17140198,0.0,0.0,nan,0.0,0.0,0.22099492,0.022957265,-0.00788527,-0.0080215335,0.0,0.0,0.0,0.0,0.0
485210169,485208283,0.0,0.0,0.0,-41.748905,-1.6177334,0.0,0.0,0.0,0.0,0.0,0.0,0.0,0.0,-0.030929565,0.0,0.0,nan,0.0,0.0,0.22099492,0.03156106,-0.0049078017,-0.019581854,0.0,0.0,0.0,0.0,0.0
486210802,486208755,0.0,0.0,0.0,-40.7614,-0.11954397,0.0,0.0,0.0,0.0,0.0,0.0,0.0,0.0,-0.003768921,0.0,0.0,nan,0.0,0.0,0.22099492,0.036687717,-0.0046055317,-0.019923717,0.0,0.0,0.0,0.0,0.0
486716078,486709017,0.0,0.0,0.0,-38.741962,-0.18639912,0.0,0.0,0.0,0.0,0.0,0.0,0.0,0.0,0.01335144,0.0,0.0,nan,0.0,0.0,0.22099492,0.035997316,-0.006798908,-0.016576052,0.0,0.0,0.0,0.0,0.0
487211061,487209256,0.0,0.0,0.0,-37.19834,-0.6186381,0.0,0.0,0.0,0.0,0.0,0.0,0.0,0.0,-0.030685425,0.0,0.0,nan,0.0,0.0,0.22099492,0.032173887,-0.014273591,-0.017629266,0.0,0.0,0.0,0.0,0.0
487716215,487709497,0.0,0.0,0.0,-34.80312,-1.360939,0.0,0.0,0.0,0.0,0.0,0.0,0.0,0.0,-0.50987244,0.0,0.0,nan,0.0,0.0,0.22099492,0.029219627,-0.013882171,-0.006479576,0.0,0.0,0.0,0.0,0.0
488211812,488209739,0.0,0.0,0.0,-33.389053,-1.6722631,0.0,0.0,0.0,0.0,0.0,0.0,0.0,0.0,0.09005737,0.0,0.0,nan,0.0,0.0,0.22099492,0.024771944,-0.0060471185,-0.0009711981,0.0,0.0,0.0,0.0,0.0
488711942,488709997,0.0,0.0,0.0,-31.475027,-1.5322148,0.0,0.0,0.0,0.0,0.0,0.0,0.0,0.0,-0.34521484,0.0,0.0,nan,0.0,0.0,0.22099492,0.019520462,-0.011981782,0.0011802763,0.0,0.0,0.0,0.0,0.0
489216924,489210227,0.0,0.0,0.0,-30.574984,-0.8997894,0.0,0.0,0.0,0.0,0.0,0.0,0.0,0.0,-0.8436737,0.0,0.0,nan,0.0,0.0,0.22099492,0.015143648,-0.014614355,0.017365932,0.0,0.0,0.0,0.0,0.0
489712767,489710474,0.0,0.0,0.0,-29.8242,0.7795627,0.0,0.0,0.0,0.0,0.0,0.0,0.0,0.0,-1.0414886,0.0,0.0,nan,0.0,0.0,0.22099492,0.01870431,-0.013942691,0.01182653,0.0,0.0,0.0,0.0,0.0
490217256,490210711,0.0,0.0,0.0,-29.824835,2.2372887,0.0,0.0,0.0,0.0,0.0,0.0,0.0,0.0,-1.1308899,0.0,0.0,nan,0.0,0.0,0.22099492,0.011898369,-0.025290221,-0.009307519,0.0,0.0,0.0,0.0,0.0
490713533,490710957,0.0,0.0,0.0,-30.7262,4.79732,0.0,0.0,0.0,0.0,0.0,0.0,0.0,0.0,-2.134491,0.0,0.0,nan,0.0,0.0,0.22099492,0.014545508,-0.027671993,-0.002811879,0.0,0.0,0.0,0.0,0.0
492213751,492211678,0.0,0.0,0.0,-35.363026,10.262683,0.0,0.0,0.0,0.0,0.0,0.0,0.0,0.0,-2.885254,0.0,0.0,nan,0.0,0.0,0.22099492,0.0139737595,-0.023816481,-0.021431327,0.0,0.0,0.0,0.0,0.0
492718428,492711918,0.0,0.0,0.0,-38.125275,11.924467,0.0,0.0,0.0,0.0,0.0,0.0,0.0,0.0,-3.4373016,0.0,0.0,nan,0.0,0.0,0.22099492,0.0067432225,-0.023019806,-0.015952662,0.0,0.0,0.0,0.0,0.0
493214065,493212158,0.0,0.0,0.0,-39.862175,12.77561,0.0,0.0,0.0,0.0,0.0,0.0,0.0,0.0,-3.9157104,0.0,0.0,nan,0.0,0.0,0.22099492,0.0070073344,-0.024672493,-0.015232712,0.0,0.0,0.0,0.0,0.0
493719260,493712409,0.0,0.0,0.0,-42.756115,13.542249,0.0,0.0,0.0,0.0,0.0,0.0,0.0,0.0,-3.986557,0.0,0.0,nan,0.0,0.0,0.22099492,0.0025091767,-0.0149000585,-0.011101946,0.0,0.0,0.0,0.0,0.0
494214639,494212635,0.0,0.0,0.0,-44.85919,13.686293,0.0,0.0,0.0,0.0,0.0,0.0,0.0,0.0,-4.712784,0.0,0.0,nan,0.0,0.0,0.22099492,0.0047470257,-0.020663276,-0.016510963,0.0,0.0,0.0,0.0,0.0
494719506,494712873,0.0,0.0,0.0,-48.01559,13.552182,0.0,0.0,0.0,0.0,0.0,0.0,0.0,0.0,-4.5767975,0.0,0.0,nan,0.0,0.0,0.22099492,0.0040546283,-0.021285802,-0.028007299,0.0,0.0,0.0,0.0,0.0
495215192,495213109,0.0,0.0,0.0,-50.085865,13.329889,0.0,0.0,0.0,0.0,0.0,0.0,0.0,0.0,-5.0386353,0.0,0.0,nan,0.0,0.0,0.22099492,0.0064301267,-0.014590502,-0.03211908,0.0,0.0,0.0,0.0,0.0
495715834,495713352,0.0,0.0,0.0,-52.684464,12.751543,0.0,0.0,0.0,0.0,0.0,0.0,0.0,0.0,-4.454422,0.0,0.0,nan,0.0,0.0,0.22099492,0.00994242,-0.013244569,-0.036455825,0.0,0.0,0.0,0.0,0.0
496215748,496213594,0.0,0.0,0.0,-53.983814,12.220455,0.0,0.0,0.0,0.0,0.0,0.0,0.0,0.0,-4.825577,0.0,0.0,nan,0.0,0.0,0.22099492,0.010452241,-0.01544559,-0.034569517,0.0,0.0,0.0,0.0,0.0
496720597,496713820,0.0,0.0,0.0,-55.198273,11.407276,0.0,0.0,0.0,0.0,0.0,0.0,0.0,0.0,-4.405731,0.0,0.0,nan,0.0,0.0,0.22099492,0.009299502,-0.016247153,-0.032130316,0.0,0.0,0.0,0.0,0.0
497215957,497214085,0.0,0.0,0.0,-55.510376,10.743355,0.0,0.0,0.0,0.0,0.0,0.0,0.0,0.0,-4.132904,0.0,0.0,nan,0.0,0.0,0.22099492,0.014097825,-0.0064407587,-0.025614083,0.0,0.0,0.0,0.0,0.0
498221209,498214518,0.0,0.0,0.0,-55.03657,8.820036,0.0,0.0,0.0,0.0,0.0,0.0,0.0,0.0,-3.1484528,0.0,0.0,nan,0.0,0.0,0.22099492,0.0056511536,-0.013172671,-0.01667893,0.0,0.0,0.0,0.0,0.0
499206885,499204977,0.0,0.0,0.0,-53.506763,6.478585,0.0,0.0,0.0,0.0,0.0,0.0,0.0,0.0,-3.0090332,0.0,0.0,nan,0.0,0.0,0.22099492,-0.0069945455,-0.016518384,-0.009749487,0.0,0.0,0.0,0.0,0.0
499707140,499705208,0.0,0.0,0.0,-52.762173,4.5071516,0.0,0.0,0.0,0.0,0.0,0.0,0.0,0.0,-1.8038635,0.0,0.0,nan,0.0,0.0,0.22099492,-0.011019558,-0.014995657,0.00348337,0.0,0.0,0.0,0.0,0.0
500211867,500205441,0.0,0.0,0.0,-52.62855,2.4743485,0.0,0.0,0.0,0.0,0.0,0.0,0.0,0.0,-1.862442,0.0,0.0,nan,0.0,0.0,0.22099492,-0.010230735,-0.010198414,-0.020483091,0.0,0.0,0.0,0.0,0.0
500707890,500705675,0.0,0.0,0.0,-51.983955,-1.5598583,0.0,0.0,0.0,0.0,0.0,0.0,0.0,0.0,-1.7664032,0.0,0.0,nan,0.0,0.0,0.22099492,0.0020187795,0.002483204,-0.0052016973,0.0,0.0,0.0,0.0,0.0
501208536,501205918,0.0,0.0,0.0,-50.598434,-4.6724415,0.0,0.0,0.0,0.0,0.0,0.0,0.0,0.0,-1.5201111,0.0,0.0,nan,0.0,0.0,0.22099492,0.012103647,-0.0071805567,-0.026374094,0.0,0.0,0.0,0.0,0.0
501712752,501706128,0.0,0.0,0.0,-46.936447,-9.322277,0.0,0.0,0.0,0.0,0.0,0.0,0.0,0.0,-0.53053284,0.0,0.0,nan,0.0,0.0,0.22099492,0.009577006,0.0020921826,-0.022668261,0.0,0.0,0.0,0.0,0.0
502208495,502206356,0.0,0.0,0.0,-43.55406,-12.084573,0.0,0.0,0.0,0.0,0.0,0.0,0.0,0.0,0.094329834,0.0,0.0,nan,0.0,0.0,0.22099492,0.012207687,-0.013991602,-0.042165626,0.0,0.0,0.0,0.0,0.0
502713509,502706585,0.0,0.0,0.0,-37.31972,-16.165218,0.0,0.0,0.0,0.0,0.0,0.0,0.0,0.0,0.33106995,0.0,0.0,nan,0.0,0.0,0.22099492,-0.0034629107,-0.014394157,-0.017414428,0.0,0.0,0.0,0.0,0.0
503213476,503206813,0.0,0.0,0.0,-32.84761,-18.989025,0.0,0.0,0.0,0.0,0.0,0.0,0.0,0.0,0.68006897,0.0,0.0,nan,0.0,0.0,0.22099492,-0.0149565935,-0.013708325,-0.02309063,0.0,0.0,0.0,0.0,0.0
503713862,503707041,0.0,0.0,0.0,-26.881678,-22.089607,0.0,0.0,0.0,0.0,0.0,0.0,0.0,0.0,0.32469177,0.0,0.0,nan,0.0,0.0,0.22099492,-0.026758552,-0.0128935985,-0.023064196,0.0,0.0,0.0,0.0,0.0
504209220,504207274,0.0,0.0,0.0,-23.53389,-23.747635,0.0,0.0,0.0,0.0,0.0,0.0,0.0,0.0,0.8977051,0.0,0.0,nan,0.0,0.0,0.22099492,-0.02077195,-0.010452822,-0.01803182,0.0,0.0,0.0,0.0,0.0
504714252,504707500,0.0,0.0,0.0,-19.337202,-25.641619,0.0,0.0,0.0,0.0,0.0,0.0,0.0,0.0,0.8273926,0.0,0.0,nan,0.0,0.0,0.22099492,-0.031013325,-0.013443321,-0.016071483,0.0,0.0,0.0,0.0,0.0
505209539,505207741,0.0,0.0,0.0,-17.11946,-26.721441,0.0,0.0,0.0,0.0,0.0,0.0,0.0,0.0,0.77970886,0.0,0.0,nan,0.0,0.0,0.22099492,-0.03344427,-0.012418732,-0.017965123,0.0,0.0,0.0,0.0,0.0
505709972,505707951,0.0,0.0,0.0,-14.371248,-28.114264,0.0,0.0,0.0,0.0,0.0,0.0,0.0,0.0,1.1896973,0.0,0.0,nan,0.0,0.0,0.22099492,-0.037337787,-0.003041491,-0.014547169,0.0,0.0,0.0,0.0,0.0
506210262,506208174,0.0,0.0,0.0,-12.837395,-29.188221,0.0,0.0,0.0,0.0,0.0,0.0,0.0,0.0,1.1985931,0.0,0.0,nan,0.0,0.0,0.22099492,-0.033803336,-0.0025369078,-0.011069566,0.0,0.0,0.0,0.0,0.0
506715110,506708409,0.0,0.0,0.0,-10.725249,-31.565523,0.0,0.0,0.0,0.0,0.0,0.0,0.0,0.0,0.9837494,0.0,0.0,nan,0.0,0.0,0.22099492,-0.034990415,-0.006498292,-0.020247415,0.0,0.0,0.0,0.0,0.0
507215470,507208624,0.0,0.0,0.0,-9.341564,-33.91339,0.0,0.0,0.0,0.0,0.0,0.0,0.0,0.0,0.8587189,0.0,0.0,nan,0.0,0.0,0.22099492,-0.033403695,0.0019061416,-0.01296635,0.0,0.0,0.0,0.0,0.0
507711124,507708847,0.0,0.0,0.0,-6.9786587,-37.442142,0.0,0.0,0.0,0.0,0.0,0.0,0.0,0.0,1.3621216,0.0,0.0,nan,0.0,0.0,0.22099492,-0.030028403,-0.01271762,-0.063080326,0.0,0.0,0.0,0.0,0.0
508210967,508209073,0.0,0.0,0.0,-4.8299503,-39.341953,0.0,0.0,0.0,0.0,0.0,0.0,0.0,0.0,0.44493103,0.0,0.0,nan,0.0,0.0,0.22099492,-0.031759992,-0.0034702122,-0.049812693,0.0,0.0,0.0,0.0,0.0
508711590,508709318,0.0,0.0,0.0,0.05485733,-41.831852,0.0,0.0,0.0,0.0,0.0,0.0,0.0,0.0,0.2653656,0.0,0.0,nan,0.0,0.0,0.22099492,-0.03584619,0.0015640259,-0.04923905,0.0,0.0,0.0,0.0,0.0
509211364,509209522,0.0,0.0,0.0,4.411043,-42.87625,0.0,0.0,0.0,0.0,0.0,0.0,0.0,0.0,-0.046722412,0.0,0.0,nan,0.0,0.0,0.22099492,-0.033320457,-0.0028434396,-0.07305747,0.0,0.0,0.0,0.0,0.0
509712012,509709746,0.0,0.0,0.0,11.589633,-42.68686,0.0,0.0,0.0,0.0,0.0,0.0,0.0,0.0,-0.24708557,0.0,0.0,nan,0.0,0.0,0.22099492,-0.030518875,-0.007126361,-0.09182212,0.0,0.0,0.0,0.0,0.0
510216579,510209974,0.0,0.0,0.0,16.327736,-41.53318,0.0,0.0,0.0,0.0,0.0,0.0,0.0,0.0,-1.0440826,0.0,0.0,nan,0.0,0.0,0.22099492,-0.03138253,-0.0051653385,-0.087731294,0.0,0.0,0.0,0.0,0.0
510712392,510710202,0.0,0.0,0.0,23.529774,-38.377705,0.0,0.0,0.0,0.0,0.0,0.0,0.0,0.0,-1.366394,0.0,0.0,nan,0.0,0.0,0.22099492,-0.029156491,-0.019408643,-0.09208876,0.0,0.0,0.0,0.0,0.0
511212648,511210427,0.0,0.0,0.0,28.123219,-35.308605,0.0,0.0,0.0,0.0,0.0,0.0,0.0,0.0,-2.0226593,0.0,0.0,nan,0.0,0.0,0.22099492,-0.025985613,-0.020730972,-0.08883216,0.0,0.0,0.0,0.0,0.0
511712724,511710663,0.0,0.0,0.0,34.178806,-29.96605,0.0,0.0,0.0,0.0,0.0,0.0,0.0,0.0,-2.7562866,0.0,0.0,nan,0.0,0.0,0.22099492,-0.01948604,-0.025641263,-0.08066973,0.0,0.0,0.0,0.0,0.0
512217725,512210873,0.0,0.0,0.0,37.49102,-26.112873,0.0,0.0,0.0,0.0,0.0,0.0,0.0,0.0,-3.3802948,0.0,0.0,nan,0.0,0.0,0.22099492,-0.010223001,-0.025660604,-0.09232545,0.0,0.0,0.0,0.0,0.0
512713462,512711100,0.0,0.0,0.0,41.47554,-20.552523,0.0,0.0,0.0,0.0,0.0,0.0,0.0,0.0,-3.671692,0.0,0.0,nan,0.0,0.0,0.22099492,-0.0037172139,-0.02816084,-0.07306437,0.0,0.0,0.0,0.0,0.0
513218124,513211333,0.0,0.0,0.0,43.775406,-17.074734,0.0,0.0,0.0,0.0,0.0,0.0,0.0,0.0,-3.663559,0.0,0.0,nan,0.0,0.0,0.22099492,-0.0037570894,-0.034324497,-0.059132084,0.0,0.0,0.0,0.0,0.0
513713708,513711573,0.0,0.0,0.0,47.1211,-12.403883,0.0,0.0,0.0,0.0,0.0,0.0,0.0,0.0,-3.757248,0.0,0.0,nan,0.0,0.0,0.22099492,-0.008960843,-0.036301143,-0.073724404,0.0,0.0,0.0,0.0,0.0
514218280,514211786,0.0,0.0,0.0,48.907448,-9.672282,0.0,0.0,0.0,0.0,0.0,0.0,0.0,0.0,-3.1130219,0.0,0.0,nan,0.0,0.0,0.22099492,-0.012935385,-0.039444357,-0.09308493,0.0,0.0,0.0,0.0,0.0
514718943,514712009,0.0,0.0,0.0,50.31261,-5.9307547,0.0,0.0,0.0,0.0,0.0,0.0,0.0,0.0,-3.383072,0.0,0.0,nan,0.0,0.0,0.22099492,-0.018869162,-0.021147817,-0.035051644,0.0,0.0,0.0,0.0,0.0
515218938,515212237,0.0,0.0,0.0,50.769615,-3.7693298,0.0,0.0,0.0,0.0,0.0,0.0,0.0,0.0,-3.1259766,0.0,0.0,nan,0.0,0.0,0.22099492,-0.016939417,-0.012296371,-0.02216953,0.0,0.0,0.0,0.0,0.0
515719211,515712463,0.0,0.0,0.0,51.15663,-1.1238353,0.0,0.0,0.0,0.0,0.0,0.0,0.0,0.0,-2.635315,0.0,0.0,nan,0.0,0.0,0.22099492,-0.00743261,-0.0074940175,-0.0026462972,0.0,0.0,0.0,0.0,0.0
516214842,516212690,0.0,0.0,0.0,51.314564,0.30500296,0.0,0.0,0.0,0.0,0.0,0.0,0.0,0.0,-1.7189331,0.0,0.0,nan,0.0,0.0,0.22099492,0.004056275,-0.02063854,-0.03666675,0.0,0.0,0.0,0.0,0.0
516715093,516712924,0.0,0.0,0.0,51.16405,2.1284487,0.0,0.0,0.0,0.0,0.0,0.0,0.0,0.0,-0.80622864,0.0,0.0,nan,0.0,0.0,0.22099492,0.013306528,-0.026360735,-0.052381292,0.0,0.0,0.0,0.0,0.0
517219867,517213147,0.0,0.0,0.0,50.798244,3.0670378,0.0,0.0,0.0,0.0,0.0,0.0,0.0,0.0,0.2287445,0.0,0.0,nan,0.0,0.0,0.22099492,0.02096358,-0.028436843,-0.054611146,0.0,0.0,0.0,0.0,0.0
517720161,517713366,0.0,0.0,0.0,50.145042,3.851306,0.0,0.0,0.0,0.0,0.0,0.0,0.0,0.0,1.1194305,0.0,0.0,nan,0.0,0.0,0.22099492,0.018197596,-0.039545488,-0.06661944,0.0,0.0,0.0,0.0,0.0
518215798,518213623,0.0,0.0,0.0,49.77829,3.6876137,0.0,0.0,0.0,0.0,0.0,0.0,0.0,0.0,1.7190094,0.0,0.0,nan,0.0,0.0,0.22099492,0.01423642,-0.0392335,-0.07306039,0.0,0.0,0.0,0.0,0.0
518720453,518713816,0.0,0.0,0.0,48.78693,2.6320105,0.0,0.0,0.0,0.0,0.0,0.0,0.0,0.0,2.1546173,0.0,0.0,nan,0.0,0.0,0.22099492,0.0024051368,-0.022233486,-0.05765128,0.0,0.0,0.0,0.0,0.0
519215961,519214041,0.0,0.0,0.0,47.76927,1.9743756,0.0,0.0,0.0,0.0,0.0,0.0,0.0,0.0,2.8145294,0.0,0.0,nan,0.0,0.0,0.22099492,-0.00096172094,-0.023748413,-0.05313036,0.0,0.0,0.0,0.0,0.0
519716372,519714265,0.0,0.0,0.0,45.78985,1.7227136,0.0,0.0,0.0,0.0,0.0,0.0,0.0,0.0,3.1159515,0.0,0.0,nan,0.0,0.0,0.22099492,-0.0072918385,-0.0188829,-0.04083997,0.0,0.0,0.0,0.0,0.0
520220912,520214489,0.0,0.0,0.0,44.108627,2.288579,0.0,0.0,0.0,0.0,0.0,0.0,0.0,0.0,3.639511,0.0,0.0,nan,0.0,0.0,0.22099492,-0.003866583,-0.024522744,-0.05411811,0.0,0.0,0.0,0.0,0.0
520716735,520714713,0.0,0.0,0.0,40.930153,3.6943712,0.0,0.0,0.0,0.0,0.0,0.0,0.0,0.0,4.0497894,0.0,0.0,nan,0.0,0.0,0.22099492,0.0031560361,-0.036476433,-0.055673108,0.0,0.0,0.0,0.0,0.0
521206777,521204931,0.0,0.0,0.0,38.412945,4.571591,0.0,0.0,0.0,0.0,0.0,0.0,0.0,0.0,4.6955414,0.0,0.0,nan,0.0,0.0,0.22099492,0.008687317,-0.039496128,-0.06692895,0.0,0.0,0.0,0.0,0.0
522207248,522205389,0.0,0.0,0.0,31.907972,5.661948,0.0,0.0,0.0,0.0,0.0,0.0,0.0,0.0,4.697418,0.0,0.0,nan,0.0,0.0,0.22099492,0.008821607,-0.021880567,-0.02631241,0.0,0.0,0.0,0.0,0.0
522707642,522705601,0.0,0.0,0.0,28.369257,5.227977,0.0,0.0,0.0,0.0,0.0,0.0,0.0,0.0,5.6609344,0.0,0.0,nan,0.0,0.0,0.22099492,0.005541116,-0.027728282,-0.047344625,0.0,0.0,0.0,0.0,0.0
523212796,523205823,0.0,0.0,0.0,26.040895,4.9966726,0.0,0.0,0.0,0.0,0.0,0.0,0.0,0.0,6.197006,0.0,0.0,nan,0.0,0.0,0.22099492,0.005940318,-0.025445104,-0.046786293,0.0,0.0,0.0,0.0,0.0
523712618,523706045,0.0,0.0,0.0,22.570202,4.7687335,0.0,0.0,0.0,0.0,0.0,0.0,0.0,0.0,6.488846,0.0,0.0,nan,0.0,0.0,0.22099492,0.006424159,-0.031292424,-0.053882167,0.0,0.0,0.0,0.0,0.0
524208280,524206278,0.0,0.0,0.0,20.200058,4.6296945,0.0,0.0,0.0,0.0,0.0,0.0,0.0,0.0,6.728882,0.0,0.0,nan,0.0,0.0,0.22099492,0.010712057,-0.038547445,-0.083571404,0.0,0.0,0.0,0.0,0.0
524713015,524706489,0.0,0.0,0.0,15.903744,4.456918,0.0,0.0,0.0,0.0,0.0,0.0,0.0,0.0,7.5180054,0.0,0.0,nan,0.0,0.0,0.22099492,0.008269995,-0.035331294,-0.07733077,0.0,0.0,0.0,0.0,0.0
525208926,525206711,0.0,0.0,0.0,12.804086,4.5604615,0.0,0.0,0.0,0.0,0.0,0.0,0.0,0.0,7.9211273,0.0,0.0,nan,0.0,0.0,0.22099492,0.019335002,-0.047468558,-0.110061914,0.0,0.0,0.0,0.0,0.0
525713611,525706932,0.0,0.0,0.0,7.586592,4.5986004,0.0,0.0,0.0,0.0,0.0,0.0,0.0,0.0,8.0082245,0.0,0.0,nan,0.0,0.0,0.22099492,0.00881812,-0.0432666,-0.105663106,0.0,0.0,0.0,0.0,0.0
526209111,526207155,0.0,0.0,0.0,4.066679,4.6390367,0.0,0.0,0.0,0.0,0.0,0.0,0.0,0.0,7.816635,0.0,0.0,nan,0.0,0.0,0.22099492,0.009185955,-0.049339283,-0.11464894,0.0,0.0,0.0,0.0,0.0
526709690,526707451,0.0,0.0,0.0,-1.2459973,4.3457375,0.0,0.0,0.0,0.0,0.0,0.0,0.0,0.0,8.041977,0.0,0.0,nan,0.0,0.0,0.22099492,-0.009119689,-0.037131757,-0.105647296,0.0,0.0,0.0,0.0,0.0
527214152,527207607,0.0,0.0,0.0,-4.923975,4.045675,0.0,0.0,0.0,0.0,0.0,0.0,0.0,0.0,8.486969,0.0,0.0,nan,0.0,0.0,0.22099492,-0.01036185,-0.038874913,-0.10424706,0.0,0.0,0.0,0.0,0.0
528210241,528208052,0.0,0.0,0.0,-14.755239,4.1911726,0.0,0.0,0.0,0.0,0.0,0.0,0.0,0.0,7.4925995,0.0,0.0,nan,0.0,0.0,0.22099492,-0.0051563233,-0.020689368,-0.08986884,0.0,0.0,0.0,0.0,0.0
528714843,528708279,0.0,0.0,0.0,-20.414394,4.456027,0.0,0.0,0.0,0.0,0.0,0.0,0.0,0.0,7.894516,0.0,0.0,nan,0.0,0.0,0.22099492,0.009215623,-0.029091313,-0.09149666,0.0,0.0,0.0,0.0,0.0
529215133,529208509,0.0,0.0,0.0,-23.80252,4.6119423,0.0,0.0,0.0,0.0,0.0,0.0,0.0,0.0,7.6411896,0.0,0.0,nan,0.0,0.0,0.22099492,0.012156099,-0.03243508,-0.09714532,0.0,0.0,0.0,0.0,0.0
529715292,529708724,0.0,0.0,0.0,-28.044586,5.0410357,0.0,0.0,0.0,0.0,0.0,0.0,0.0,0.0,6.9336243,0.0,0.0,nan,0.0,0.0,0.22099492,-0.017540067,0.027939212,0.06813714,0.0,0.0,0.0,0.0,0.0
530211607,530208949,0.0,0.0,0.0,-29.60051,5.536471,0.0,0.0,0.0,0.0,0.0,0.0,0.0,0.0,7.0086517,0.0,0.0,nan,0.0,0.0,0.22099492,-0.001337409,-0.032984436,-0.117002755,0.0,0.0,0.0,0.0,0.0
530711269,530709177,0.0,0.0,0.0,-32.660892,6.217538,0.0,0.0,0.0,0.0,0.0,0.0,0.0,0.0,5.3560333,0.0,0.0,nan,0.0,0.0,0.22099492,-5.789101e-05,-0.017775118,-0.05109179,0.0,0.0,0.0,0.0,0.0
531211452,531209409,0.0,0.0,0.0,-34.995316,6.6026545,0.0,0.0,0.0,0.0,0.0,0.0,0.0,0.0,5.959915,0.0,0.0,nan,0.0,0.0,0.22099492,0.018044591,-0.035550155,-0.09911223,0.0,0.0,0.0,0.0,0.0
531716508,531709630,0.0,0.0,0.0,-37.97534,6.8768435,0.0,0.0,0.0,0.0,0.0,0.0,0.0,0.0,5.169281,0.0,0.0,nan,0.0,0.0,0.22099492,0.016582444,-0.038584635,-0.10742204,0.0,0.0,0.0,0.0,0.0
532216421,532209857,0.0,0.0,0.0,-39.62927,6.7452526,0.0,0.0,0.0,0.0,0.0,0.0,0.0,0.0,5.430496,0.0,0.0,nan,0.0,0.0,0.22099492,0.018964127,-0.03744173,-0.10117933,0.0,0.0,0.0,0.0,0.0
532712540,532710088,0.0,0.0,0.0,-41.66889,5.6260524,0.0,0.0,0.0,0.0,0.0,0.0,0.0,0.0,4.402115,0.0,0.0,nan,0.0,0.0,0.22099492,0.012670517,-0.029228605,-0.09511326,0.0,0.0,0.0,0.0,0.0
533217195,533210313,0.0,0.0,0.0,-42.063816,3.8519523,0.0,0.0,0.0,0.0,0.0,0.0,0.0,0.0,0.38084412,0.0,0.0,nan,0.0,0.0,0.22099492,-0.011278659,0.039488025,0.11753315,0.0,0.0,0.0,0.0,0.0
533717122,533710562,0.0,0.0,0.0,-40.922585,-0.22874628,0.0,0.0,0.0,0.0,0.0,0.0,0.0,0.0,0.21354675,0.0,0.0,nan,0.0,0.0,0.22099492,-0.02175998,0.042039365,0.09961207,0.0,0.0,0.0,0.0,0.0
534212816,534210771,0.0,0.0,0.0,-39.9715,-2.778187,0.0,0.0,0.0,0.0,0.0,0.0,0.0,0.0,0.82751465,0.0,0.0,nan,0.0,0.0,0.22099492,-0.02030655,0.04337763,0.09426981,0.0,0.0,0.0,0.0,0.0
534713119,534710993,0.0,0.0,0.0,-38.27602,-5.860669,0.0,0.0,0.0,0.0,0.0,0.0,0.0,0.0,2.2375183,0.0,0.0,nan,0.0,0.0,0.22099492,-0.014716528,0.043315604,0.07791549,0.0,0.0,0.0,0.0,0.0
535213258,535211225,0.0,0.0,0.0,-36.629395,-7.310518,0.0,0.0,0.0,0.0,0.0,0.0,0.0,0.0,1.3670197,0.0,0.0,nan,0.0,0.0,0.22099492,-0.00967408,0.0421644,0.07940153,0.0,0.0,0.0,0.0,0.0
535718005,535711456,0.0,0.0,0.0,-33.516087,-8.678767,0.0,0.0,0.0,0.0,0.0,0.0,0.0,0.0,1.0079193,0.0,0.0,nan,0.0,0.0,0.22099492,0.00037063658,0.03974384,0.075665966,0.0,0.0,0.0,0.0,0.0
536213542,536211668,0.0,0.0,0.0,-31.028687,-9.37466,0.0,0.0,0.0,0.0,0.0,0.0,0.0,0.0,1.7532043,0.0,0.0,nan,0.0,0.0,0.22099492,0.011963382,0.034037523,0.07143912,0.0,0.0,0.0,0.0,0.0
536714307,536711896,0.0,0.0,0.0,-26.659042,-9.732359,0.0,0.0,0.0,0.0,0.0,0.0,0.0,0.0,0.41859436,0.0,0.0,nan,0.0,0.0,0.22099492,0.014549583,0.038163573,0.07977185,0.0,0.0,0.0,0.0,0.0
537214349,537212118,0.0,0.0,0.0,-23.543085,-9.629371,0.0,0.0,0.0,0.0,0.0,0.0,0.0,0.0,1.3563995,0.0,0.0,nan,0.0,0.0,0.22099492,0.01968436,0.029291697,0.06419441,0.0,0.0,0.0,0.0,0.0
537714396,537712354,0.0,0.0,0.0,-18.959646,-8.8807125,0.0,0.0,0.0,0.0,0.0,0.0,0.0,0.0,0.85868835,0.0,0.0,nan,0.0,0.0,0.22099492,0.028609097,0.027507393,0.05627568,0.0,0.0,0.0,0.0,0.0
538219268,538212564,0.0,0.0,0.0,-16.213987,-8.283143,0.0,0.0,0.0,0.0,0.0,0.0,0.0,0.0,0.6949158,0.0,0.0,nan,0.0,0.0,0.22099492,0.037846327,0.030466393,0.0649156,0.0,0.0,0.0,0.0,0.0
538715249,538712781,0.0,0.0,0.0,-12.609544,-7.553214,0.0,0.0,0.0,0.0,0.0,0.0,0.0,0.0,0.59010315,0.0,0.0,nan,0.0,0.0,0.22099492,0.025569499,0.020828005,0.058458507,0.0,0.0,0.0,0.0,0.0
539214899,539213025,0.0,0.0,0.0,-10.802519,-6.7951317,0.0,0.0,0.0,0.0,0.0,0.0,0.0,0.0,0.6707306,0.0,0.0,nan,0.0,0.0,0.22099492,0.028954491,0.01880794,0.05565393,0.0,0.0,0.0,0.0,0.0
539720125,539713222,0.0,0.0,0.0,-8.686518,-5.551138,0.0,0.0,0.0,0.0,0.0,0.0,0.0,0.0,-0.63345337,0.0,0.0,nan,0.0,0.0,0.22099492,0.03679581,0.014067341,0.049188912,0.0,0.0,0.0,0.0,0.0
540215454,540213459,0.0,0.0,0.0,-7.1170473,-4.710514,0.0,0.0,0.0,0.0,0.0,0.0,0.0,0.0,-0.24824524,0.0,0.0,nan,0.0,0.0,0.22099492,0.038197026,0.009556565,0.0399262,0.0,0.0,0.0,0.0,0.0
540720440,540713662,0.0,0.0,0.0,-4.407172,-3.3041914,0.0,0.0,0.0,0.0,0.0,0.0,0.0,0.0,-0.38549805,0.0,0.0,nan,0.0,0.0,0.22099492,0.038739666,0.00838276,0.032005936,0.0,0.0,0.0,0.0,0.0
541216227,541213887,0.0,0.0,0.0,-2.2882617,-2.2794235,0.0,0.0,0.0,0.0,0.0,0.0,0.0,0.0,-0.25613403,0.0,0.0,nan,0.0,0.0,0.22099492,0.03249842,0.008741481,0.056228325,0.0,0.0,0.0,0.0,0.0
541721062,541714099,0.0,0.0,0.0,0.7082865,-0.037804537,0.0,0.0,0.0,0.0,0.0,0.0,0.0,0.0,0.20552063,0.0,0.0,nan,0.0,0.0,0.22099492,0.028088316,0.005370764,0.055470422,0.0,0.0,0.0,0.0,0.0
542216589,542214324,0.0,0.0,0.0,2.217454,1.955812,0.0,0.0,0.0,0.0,0.0,0.0,0.0,0.0,-0.46827698,0.0,0.0,nan,0.0,0.0,0.22099492,0.028838351,-0.0011494784,0.050376967,0.0,0.0,0.0,0.0,0.0
543221267,543214752,0.0,0.0,0.0,3.3828769,7.983125,0.0,0.0,0.0,0.0,0.0,0.0,0.0,0.0,-0.7806244,0.0,0.0,nan,0.0,0.0,0.22099492,0.020086482,-0.0027758144,0.055687323,0.0,0.0,0.0,0.0,0.0
543707233,543704965,0.0,0.0,0.0,2.2123847,12.07106,0.0,0.0,0.0,0.0,0.0,0.0,0.0,0.0,-1.2554474,0.0,0.0,nan,0.0,0.0,0.22099492,0.017796196,-0.016096383,0.030475482,0.0,0.0,0.0,0.0,0.0
544211687,544205181,0.0,0.0,0.0,0.98327184,14.769636,0.0,0.0,0.0,0.0,0.0,0.0,0.0,0.0,-1.9864349,0.0,0.0,nan,0.0,0.0,0.22099492,0.02358,-0.020132974,0.02054751,0.0,0.0,0.0,0.0,0.0
544711968,544705405,0.0,0.0,0.0,-0.8808384,18.696955,0.0,0.0,0.0,0.0,0.0,0.0,0.0,0.0,-2.16716,0.0,0.0,nan,0.0,0.0,0.22099492,0.022252932,-0.021562591,0.017207712,0.0,0.0,0.0,0.0,0.0
545207492,545205612,0.0,0.0,0.0,-2.182404,21.326807,0.0,0.0,0.0,0.0,0.0,0.0,0.0,0.0,-2.4624023,0.0,0.0,nan,0.0,0.0,0.22099492,0.023140833,-0.023645028,0.012585521,0.0,0.0,0.0,0.0,0.0
545707683,545705827,0.0,0.0,0.0,-4.162274,25.263931,0.0,0.0,0.0,0.0,0.0,0.0,0.0,0.0,-2.798172,0.0,0.0,nan,0.0,0.0,0.22099492,0.021675944,-0.022543132,0.00845781,0.0,0.0,0.0,0.0,0.0
546208318,546206041,0.0,0.0,0.0,-5.9608536,27.530876,0.0,0.0,0.0,0.0,0.0,0.0,0.0,0.0,-1.0785675,0.0,0.0,nan,0.0,0.0,0.22099492,0.04742396,-0.07492769,-0.1682242,0.0,0.0,0.0,0.0,0.0
546708299,546706256,0.0,0.0,0.0,-7.0699353,29.712326,0.0,0.0,0.0,0.0,0.0,0.0,0.0,0.0,-1.5233002,0.0,0.0,nan,0.0,0.0,0.22099492,0.05042827,-0.07119322,-0.1739404,0.0,0.0,0.0,0.0,0.0
547209063,547206471,0.0,0.0,0.0,-7.44693,30.47062,0.0,0.0,0.0,0.0,0.0,0.0,0.0,0.0,-1.4724121,0.0,0.0,nan,0.0,0.0,0.22099492,0.051163837,-0.07345438,-0.17378859,0.0,0.0,0.0,0.0,0.0
547708574,547706707,0.0,0.0,0.0,-7.541739,30.788347,0.0,0.0,0.0,0.0,0.0,0.0,0.0,0.0,-1.5083618,0.0,0.0,nan,0.0,0.0,0.22099492,0.058250368,-0.06829059,-0.17976858,0.0,0.0,0.0,0.0,0.0
548208859,548206902,0.0,0.0,0.0,-7.2198577,30.60409,0.0,0.0,0.0,0.0,0.0,0.0,0.0,0.0,-1.9353485,0.0,0.0,nan,0.0,0.0,0.22099492,0.064225465,-0.06743917,-0.18893883,0.0,0.0,0.0,0.0,0.0
548709537,548707117,0.0,0.0,0.0,-6.0337486,29.789923,0.0,0.0,0.0,0.0,0.0,0.0,0.0,0.0,-1.7778625,0.0,0.0,nan,0.0,0.0,0.22099492,0.067423224,-0.057836086,-0.19664901,0.0,0.0,0.0,0.0,0.0
549209328,549207341,0.0,0.0,0.0,-4.7259836,28.872625,0.0,0.0,0.0,0.0,0.0,0.0,0.0,0.0,-1.274704,0.0,0.0,nan,0.0,0.0,0.22099492,0.063580334,-0.016022414,-0.11309249,0.0,0.0,0.0,0.0,0.0
549709673,549707555,0.0,0.0,0.0,-3.9360945,27.474659,0.0,0.0,0.0,0.0,0.0,0.0,0.0,0.0,-0.61901855,0.0,0.0,nan,0.0,0.0,0.22099492,0.076503634,-0.03835967,-0.1308556,0.0,0.0,0.0,0.0,0.0
550214341,550207764,0.0,0.0,0.0,-1.529075,25.903889,0.0,0.0,0.0,0.0,0.0,0.0,0.0,0.0,-0.8002472,0.0,0.0,nan,0.0,0.0,0.22099492,0.0681611,-0.024082199,-0.0674022,0.0,0.0,0.0,0.0,0.0
550710050,550707980,0.0,0.0,0.0,2.330178,21.959997,0.0,0.0,0.0,0.0,0.0,0.0,0.0,0.0,-0.9686432,0.0,0.0,nan,0.0,0.0,0.22099492,0.053041846,-0.02557984,-0.062004313,0.0,0.0,0.0,0.0,0.0
551210006,551208206,0.0,0.0,0.0,4.464908,19.159193,0.0,0.0,0.0,0.0,0.0,0.0,0.0,0.0,0.055496216,0.0,0.0,nan,0.0,0.0,0.22099492,0.045924693,-0.027174681,-0.04945156,0.0,0.0,0.0,0.0,0.0
551715094,551708413,0.0,0.0,0.0,6.7769475,15.18457,0.0,0.0,0.0,0.0,0.0,0.0,0.0,0.0,0.02003479,0.0,0.0,nan,0.0,0.0,0.22099492,0.026734747,-0.016384073,-0.026227325,0.0,0.0,0.0,0.0,0.0
552215597,552208625,0.0,0.0,0.0,7.827207,12.682897,0.0,0.0,0.0,0.0,0.0,0.0,0.0,0.0,-0.20173645,0.0,0.0,nan,0.0,0.0,0.22099492,0.00829076,-0.00756809,0.003249973,0.0,0.0,0.0,0.0,0.0
552710854,552708839,0.0,0.0,0.0,6.4185896,8.605782,0.0,0.0,0.0,0.0,0.0,0.0,0.0,0.0,-0.1118927,0.0,0.0,nan,0.0,0.0,0.22099492,0.007014185,-0.01097269,0.0042528063,0.0,0.0,0.0,0.0,0.0
553215952,553209054,0.0,0.0,0.0,4.104811,5.8261204,0.0,0.0,0.0,0.0,0.0,0.0,0.0,0.0,-0.35968018,0.0,0.0,nan,0.0,0.0,0.22099492,0.022668347,-0.021843523,-0.038345546,0.0,0.0,0.0,0.0,0.0
553716264,553709267,0.0,0.0,0.0,0.92267144,2.6055593,0.0,0.0,0.0,0.0,0.0,0.0,0.0,0.0,-0.6097412,0.0,0.0,nan,0.0,0.0,0.22099492,0.0069676936,-0.0028497726,-0.0051054657,0.0,0.0,0.0,0.0,0.0
554211671,554209481,0.0,0.0,0.0,-1.1115407,1.0808138,0.0,0.0,0.0,0.0,0.0,0.0,0.0,0.0,-1.0663147,0.0,0.0,nan,0.0,0.0,0.22099492,0.0011115521,-0.0022140294,0.012454435,0.0,0.0,0.0,0.0,0.0
554716434,554709695,0.0,0.0,0.0,-4.854744,-1.1380857,0.0,0.0,0.0,0.0,0.0,0.0,0.0,0.0,-0.6735687,0.0,0.0,nan,0.0,0.0,0.22099492,0.00025835633,-0.002393037,-0.0034026057,0.0,0.0,0.0,0.0,0.0
555211850,555209909,0.0,0.0,0.0,-7.604275,-2.841317,0.0,0.0,0.0,0.0,0.0,0.0,0.0,0.0,-1.0526276,0.0,0.0,nan,0.0,0.0,0.22099492,0.010879427,0.00018751621,-0.013623267,0.0,0.0,0.0,0.0,0.0
555712140,555710122,0.0,0.0,0.0,-11.363987,-5.6767936,0.0,0.0,0.0,0.0,0.0,0.0,0.0,0.0,-1.1413727,0.0,0.0,nan,0.0,0.0,0.22099492,0.0087376535,0.0046580285,0.0018354878,0.0,0.0,0.0,0.0,0.0
556217110,556210334,0.0,0.0,0.0,-13.4837055,-7.6150293,0.0,0.0,0.0,0.0,0.0,0.0,0.0,0.0,-1.2635651,0.0,0.0,nan,0.0,0.0,0.22099492,0.0060989857,0.0069929957,-0.0047200024,0.0,0.0,0.0,0.0,0.0
556717312,556710547,0.0,0.0,0.0,-16.247353,-10.321199,0.0,0.0,0.0,0.0,0.0,0.0,0.0,0.0,-1.2407532,0.0,0.0,nan,0.0,0.0,0.22099492,0.0138198435,0.015578389,-0.0005253479,0.0,0.0,0.0,0.0,0.0
557217470,557210760,0.0,0.0,0.0,-17.85663,-11.839379,0.0,0.0,0.0,0.0,0.0,0.0,0.0,0.0,-0.9719696,0.0,0.0,nan,0.0,0.0,0.22099492,0.022534817,0.0011358261,-0.054089434,0.0,0.0,0.0,0.0,0.0
557712935,557710972,0.0,0.0,0.0,-20.527895,-13.317486,0.0,0.0,0.0,0.0,0.0,0.0,0.0,0.0,-0.43582153,0.0,0.0,nan,0.0,0.0,0.22099492,0.0241168,-0.0038429797,-0.05515988,0.0,0.0,0.0,0.0,0.0
558213371,558211190,0.0,0.0,0.0,-21.771841,-13.955383,0.0,0.0,0.0,0.0,0.0,0.0,0.0,0.0,-0.53848267,0.0,0.0,nan,0.0,0.0,0.22099492,0.03137012,-0.00029829144,-0.056329012,0.0,0.0,0.0,0.0,0.0
558713697,558711451,0.0,0.0,0.0,-22.635317,-14.458876,0.0,0.0,0.0,0.0,0.0,0.0,0.0,0.0,-0.37876892,0.0,0.0,nan,0.0,0.0,0.22099492,0.020000517,-0.010024652,-0.049038827,0.0,0.0,0.0,0.0,0.0
559218091,559211610,0.0,0.0,0.0,-22.849463,-14.683325,0.0,0.0,0.0,0.0,0.0,0.0,0.0,0.0,-0.8388672,0.0,0.0,nan,0.0,0.0,0.22099492,0.0325308,-0.0027623773,-0.05110261,0.0,0.0,0.0,0.0,0.0
559713849,559711823,0.0,0.0,0.0,-22.778584,-14.781782,0.0,0.0,0.0,0.0,0.0,0.0,0.0,0.0,-0.65444946,0.0,0.0,nan,0.0,0.0,0.22099492,0.03261414,-0.00082808733,-0.04990083,0.0,0.0,0.0,0.0,0.0
560218602,560212044,0.0,0.0,0.0,-22.322668,-14.442588,0.0,0.0,0.0,0.0,0.0,0.0,0.0,0.0,-0.30166626,0.0,0.0,nan,0.0,0.0,0.22099492,0.03306806,-0.0001232028,-0.04913722,0.0,0.0,0.0,0.0,0.0
560714415,560712247,0.0,0.0,0.0,-21.010397,-13.601333,0.0,0.0,0.0,0.0,0.0,0.0,0.0,0.0,-0.50686646,0.0,0.0,nan,0.0,0.0,0.22099492,0.036702186,0.0040464103,-0.038249552,0.0,0.0,0.0,0.0,0.0
561214617,561212468,0.0,0.0,0.0,-19.819239,-12.908823,0.0,0.0,0.0,0.0,0.0,0.0,0.0,0.0,-0.24072266,0.0,0.0,nan,0.0,0.0,0.22099492,0.03352192,-0.0034747124,-0.04683782,0.0,0.0,0.0,0.0,0.0
561719314,561712674,0.0,0.0,0.0,-17.865053,-11.784209,0.0,0.0,0.0,0.0,0.0,0.0,0.0,0.0,-0.019729614,0.0,0.0,nan,0.0,0.0,0.22099492,0.032880127,-0.0039312243,-0.031616896,0.0,0.0,0.0,0.0,0.0
562215126,562212883,0.0,0.0,0.0,-16.643435,-10.980715,0.0,0.0,0.0,0.0,0.0,0.0,0.0,0.0,-0.2992401,0.0,0.0,nan,0.0,0.0,0.22099492,0.034323186,-0.0030333698,-0.035519153,0.0,0.0,0.0,0.0,0.0
562715116,562713099,0.0,0.0,0.0,-0.3625473,0.021417713,0.0,0.0,0.0,0.0,0.0,0.0,0.0,0.0,0.38200378,0.0,0.0,nan,0.0,0.0,0.09450889,0.033418253,-0.0014680326,-0.03255634,0.0,0.0,0.0,0.0,0.0
563215355,563213307,0.0,0.0,0.0,0.26975906,0.757817,0.0,0.0,0.0,0.0,0.0,0.0,0.0,0.0,0.49290466,0.0,0.0,nan,0.0,0.0,0.13493705,0.033418253,-0.0014680326,-0.03255634,0.0,0.0,0.0,0.0,0.0
563715832,563713518,0.0,0.0,0.0,0.17356338,1.5295902,0.0,0.0,0.0,0.0,0.0,0.0,0.0,0.0,0.50852966,0.0,0.0,nan,0.0,0.0,0.16066289,0.033418253,-0.0014680326,-0.03255634,0.0,0.0,0.0,0.0,0.0
564215607,564213730,0.0,0.0,0.0,-0.25598377,1.7253187,0.0,0.0,0.0,0.0,0.0,0.0,0.0,0.0,0.66737366,0.0,0.0,nan,0.0,0.0,0.16227865,0.033418253,-0.0014680326,-0.03255634,0.0,0.0,0.0,0.0,0.0
564716551,564713947,0.0,0.0,0.0,-1.0560617,1.6536938,0.0,0.0,0.0,0.0,0.0,0.0,0.0,0.0,1.2572174,0.0,0.0,nan,0.0,0.0,0.15680313,0.033418253,-0.0014680326,-0.03255634,0.0,0.0,0.0,0.0,0.0
565216038,565214160,0.0,0.0,0.0,-2.039466,1.9308977,0.0,0.0,0.0,0.0,0.0,0.0,0.0,0.0,1.0554657,0.0,0.0,nan,0.0,0.0,0.14976478,0.033418253,-0.0014680326,-0.03255634,0.0,0.0,0.0,0.0,0.0
565716711,565714364,0.0,0.0,0.0,-4.910281,2.9166987,0.0,0.0,0.0,0.0,0.0,0.0,0.0,0.0,1.1133728,0.0,0.0,nan,0.0,0.0,0.12265444,0.033418253,-0.0014680326,-0.03255634,0.0,0.0,0.0,0.0,0.0
566217040,566214575,0.0,0.0,0.0,-7.0347457,3.6633577,0.0,0.0,0.0,0.0,0.0,0.0,0.0,0.0,0.92884827,0.0,0.0,nan,0.0,0.0,0.14576125,0.033418253,-0.0014680326,-0.03255634,0.0,0.0,0.0,0.0,0.0
566717042,566714793,0.0,0.0,0.0,-10.07963,4.697885,0.0,0.0,0.0,0.0,0.0,0.0,0.0,0.0,0.76345825,0.0,0.0,nan,0.0,0.0,0.1984179,0.033418253,-0.0014680326,-0.03255634,0.0,0.0,0.0,0.0,0.0
