timestamp,data_rate,rate_multiplier,tx_rate_avg,tx_error_rate_avg,tx_message_count,tx_buffer_overruns,rx_rate_avg,rx_message_count,rx_message_lost_count,rx_buffer_overruns,rx_parse_errors,rx_packet_drop_count,rx_message_lost_rate,type,mode,flow_control,forwarding,mavlink_v2,ftp,streams,heartbeat_type_antenna_tracker,heartbeat_type_gcs,heartbeat_type_onboard_controller,heartbeat_type_gimbal,heartbeat_type_adsb,heartbeat_type_camera,heartbeat_component_telemetry_radio,heartbeat_component_log,heartbeat_component_osd,heartbeat_component_obstacle_avoidance,heartbeat_component_vio,heartbeat_component_pairing_manager,heartbeat_component_udp_bridge,heartbeat_component_uart_bridge,avoidance_system_healthy
394240762,921600.0,1.0,1374.8114,0.0,11206,8,111.578896,634,4,0,0,0,0.0063091484,0,0,0,1,1,1,33,0,1,0,0,0,0,0,0,0,0,0,0,0,0,0
394991696,921600.0,1.0,1374.8114,0.0,11227,8,111.578896,634,4,0,0,0,0.0063091484,0,0,0,1,1,1,33,0,1,0,0,0,0,0,0,0,0,0,0,0,0,0
395161690,921600.0,1.0,1249.4379,0.0,11238,8,20.940298,635,4,0,0,0,0.0062992126,0,0,0,1,1,1,33,0,1,0,0,0,0,0,0,0,0,0,0,0,0,0
396313174,921600.0,1.0,1299.4136,0.0,11271,8,20.942198,636,4,0,0,0,0.006289308,0,0,0,1,1,1,33,0,1,0,0,0,0,0,0,0,0,0,0,0,0,0
397236150,921600.0,1.0,1187.4528,0.0,11301,8,20.972673,637,4,0,0,0,0.006279435,0,0,0,1,1,1,33,0,1,0,0,0,0,0,0,0,0,0,0,0,0,0
398300695,921600.0,1.0,1302.0144,0.0,11332,8,20.984116,638,4,0,0,0,0.0062695923,0,0,0,1,1,1,33,0,1,0,0,0,0,0,0,0,0,0,0,0,0,0
399305785,921600.0,1.0,1187.9321,0.0,11364,8,20.981138,639,4,0,0,0,0.006259781,0,0,0,1,1,1,33,0,1,0,0,0,0,0,0,0,0,0,0,0,0,0
400224883,921600.0,1.0,1301.19,0.0,11393,8,20.970829,640,4,0,0,0,0.00625,0,0,0,1,1,1,33,0,1,0,0,0,0,0,0,0,0,0,0,0,0,0
401385716,921600.0,1.0,1187.7245,0.0,11432,8,20.97747,641,4,0,0,0,0.0062402496,0,0,0,1,1,1,33,0,1,0,0,0,0,0,0,0,0,0,0,0,0,0
402298757,921600.0,1.0,1504.4955,0.0,11461,8,90.90909,644,4,0,0,0,0.0062111802,0,0,0,1,1,1,33,0,1,0,0,0,0,0,0,0,0,0,0,0,0,0
403218861,921600.0,1.0,1200.5953,0.0,11492,8,20.992926,645,4,0,0,0,0.0062015504,0,0,0,1,1,1,33,0,1,0,0,0,0,0,0,0,0,0,0,0,0,0
404319725,921600.0,1.0,1314.6936,0.0,11524,8,20.995108,646,4,0,0,0,0.0061919503,0,0,0,1,1,1,33,0,1,0,0,0,0,0,0,0,0,0,0,0,0,0
405288739,921600.0,1.0,1198.9521,0.0,11555,8,20.964193,647,4,0,0,0,0.00618238,0,0,0,1,1,1,33,0,1,0,0,0,0,0,0,0,0,0,0,0,0,0
406211063,921600.0,1.0,1311.0837,0.0,11584,8,20.93746,648,4,0,0,0,0.0061728396,0,0,0,1,1,1,33,0,1,0,0,0,0,0,0,0,0,0,0,0,0,0
407325666,921600.0,1.0,1196.5358,0.0,11618,8,20.92194,649,4,0,0,0,0.0061633284,0,0,0,1,1,1,33,0,1,0,0,0,0,0,0,0,0,0,0,0,0,0
408285428,921600.0,1.0,1314.2588,0.0,11647,8,20.988163,650,4,0,0,0,0.006153846,0,0,0,1,1,1,33,0,1,0,0,0,0,0,0,0,0,0,0,0,0,0
409206329,921600.0,1.0,1200.377,0.0,11678,8,20.989105,651,4,0,0,0,0.0061443932,0,0,0,1,1,1,33,0,1,0,0,0,0,0,0,0,0,0,0,0,0,0
410307728,921600.0,1.0,1313.6667,0.0,11709,8,20.978708,652,4,0,0,0,0.006134969,0,0,0,1,1,1,33,0,1,0,0,0,0,0,0,0,0,0,0,0,0,0
411276076,921600.0,1.0,1198.1664,0.0,11743,8,20.950453,653,4,0,0,0,0.0061255745,0,0,0,1,1,1,33,0,1,0,0,0,0,0,0,0,0,0,0,0,0,0
412426401,921600.0,1.0,1405.7872,0.0,11778,8,46.926136,655,4,0,0,0,0.0061068702,0,0,0,1,1,1,33,0,1,0,0,0,0,0,0,0,0,0,0,0,0,0
413346260,921600.0,1.0,1199.4635,0.0,11807,8,20.973133,656,4,0,0,0,0.0060975607,0,0,0,1,1,1,33,0,1,0,0,0,0,0,0,0,0,0,0,0,0,0
414266225,921600.0,1.0,1310.7976,0.0,11835,8,20.932888,657,4,0,0,0,0.00608828,0,0,0,1,1,1,33,0,1,0,0,0,0,0,0,0,0,0,0,0,0,0
415418319,921600.0,1.0,1197.7911,0.0,11871,8,20.943892,658,4,0,0,0,0.0060790274,0,0,0,1,1,1,33,0,1,0,0,0,0,0,0,0,0,0,0,0,0,0
416341784,921600.0,1.0,1313.7637,0.0,11899,8,20.980257,659,4,0,0,0,0.0060698027,0,0,0,1,1,1,33,0,1,0,0,0,0,0,0,0,0,0,0,0,0,0
417488706,921600.0,1.0,1199.5748,0.0,11936,8,20.97508,660,4,0,0,0,0.006060606,0,0,0,1,1,1,33,0,1,0,0,0,0,0,0,0,0,0,0,0,0,0
418324361,921600.0,1.0,1329.8137,0.0,11961,8,20.90276,661,4,0,0,0,0.006051437,0,0,0,1,1,1,33,0,1,0,0,0,0,0,0,0,0,0,0,0,0,0
419331101,921600.0,1.0,1200.4321,0.0,11993,8,20.99007,662,4,0,0,0,0.006042296,0,0,0,1,1,1,33,0,1,0,0,0,0,0,0,0,0,0,0,0,0,0
420482567,921600.0,1.0,1313.2141,0.0,12028,8,20.97148,663,4,0,0,0,0.0060331826,0,0,0,1,1,1,33,0,1,0,0,0,0,0,0,0,0,0,0,0,0,0
421404549,921600.0,1.0,1199.7188,0.0,12060,8,20.977596,664,4,0,0,0,0.006024096,0,0,0,1,1,1,33,0,1,0,0,0,0,0,0,0,0,0,0,0,0,0
422317308,921600.0,1.0,1367.1838,0.0,12087,8,46.97196,666,4,0,0,0,0.006006006,0,0,0,1,1,1,33,0,1,0,0,0,0,0,0,0,0,0,0,0,0,0
423467700,921600.0,1.0,1197.2277,0.0,12124,8,20.934038,667,4,0,0,0,0.0059970017,0,0,0,1,1,1,33,0,1,0,0,0,0,0,0,0,0,0,0,0,0,0
424390989,921600.0,1.0,1314.1956,0.0,12152,8,20.971205,668,4,0,0,0,0.005988024,0,0,0,1,1,1,33,0,1,0,0,0,0,0,0,0,0,0,0,0,0,0
425309786,921600.0,1.0,1203.7361,0.0,12180,8,20.977974,669,4,0,0,0,0.0059790732,0,0,0,1,1,1,33,0,1,0,0,0,0,0,0,0,0,0,0,0,0,0
426460465,921600.0,1.0,1315.6163,0.0,12216,8,20.946127,670,4,0,0,0,0.0059701493,0,0,0,1,1,1,33,0,1,0,0,0,0,0,0,0,0,0,0,0,0,0
427381469,921600.0,1.0,1267.1968,0.0,12247,8,20.97016,671,4,0,0,0,0.005961252,0,0,0,1,1,1,33,0,1,0,0,0,0,0,0,0,0,0,0,0,0,0
428533699,921600.0,1.0,1314.0146,0.0,12280,8,20.920628,672,4,0,0,0,0.005952381,0,0,0,1,1,1,33,0,1,0,0,0,0,0,0,0,0,0,0,0,0,0
429454730,921600.0,1.0,1202.0873,0.0,12311,8,20.94924,673,4,0,0,0,0.0059435363,0,0,0,1,1,1,33,0,1,0,0,0,0,0,0,0,0,0,0,0,0,0
430376399,921600.0,1.0,1304.1444,0.0,12338,8,20.763483,674,4,0,0,0,0.005934718,0,0,0,1,1,1,33,0,1,0,0,0,0,0,0,0,0,0,0,0,0,0
431537469,921600.0,1.0,1197.5095,0.0,12377,8,20.869461,676,4,0,0,0,0.00591716,0,0,0,1,1,1,33,0,1,0,0,0,0,0,0,0,0,0,0,0,0,0
432447567,921600.0,1.0,1371.8218,0.0,12405,8,46.993893,677,4,0,0,0,0.0059084194,0,0,0,1,1,1,33,0,1,0,0,0,0,0,0,0,0,0,0,0,0,0
433519058,921600.0,1.0,1204.8083,0.0,12438,8,20.99666,678,4,0,0,0,0.005899705,0,0,0,1,1,1,33,0,1,0,0,0,0,0,0,0,0,0,0,0,0,0
434516904,921600.0,1.0,1337.501,0.0,12468,8,20.80557,679,4,0,0,0,0.005891016,0,0,0,1,1,1,33,0,1,0,0,0,0,0,0,0,0,0,0,0,0,0
435439050,921600.0,1.0,1204.7927,0.0,12498,8,20.996387,680,4,0,0,0,0.005882353,0,0,0,1,1,1,33,0,1,0,0,0,0,0,0,0,0,0,0,0,0,0
436508431,921600.0,1.0,1317.3125,0.0,12529,8,20.973133,681,4,0,0,0,0.005873715,0,0,0,1,1,1,33,0,1,0,0,0,0,0,0,0,0,0,0,0,0,0
437510332,921600.0,1.0,1202.7101,0.0,12561,8,20.960093,682,4,0,0,0,0.0058651026,0,0,0,1,1,1,33,0,1,0,0,0,0,0,0,0,0,0,0,0,0,0
438431288,921600.0,1.0,1317.6969,0.0,12590,8,20.979252,683,4,0,0,0,0.0058565154,0,0,0,1,1,1,33,0,1,0,0,0,0,0,0,0,0,0,0,0,0,0
439580646,921600.0,1.0,1493.035,0.0,12626,8,20.777824,684,4,0,0,0,0.0058479533,0,0,0,1,1,1,33,0,1,0,0,0,0,0,0,0,0,0,0,0,0,0
440502175,921600.0,1.0,1198.4769,0.0,12653,8,20.921043,685,4,0,0,0,0.005839416,0,0,0,1,1,1,33,0,1,0,0,0,0,0,0,0,0,0,0,0,0,0
441437476,921600.0,1.0,1357.1072,0.0,12686,8,20.893879,687,4,0,0,0,0.0058224164,0,0,0,1,1,1,33,0,1,0,0,0,0,0,0,0,0,0,0,0,0,0
442534072,921600.0,1.0,1197.0726,0.0,12719,8,46.92445,688,4,0,0,0,0.0058139535,0,0,0,1,1,1,33,0,1,0,0,0,0,0,0,0,0,0,0,0,0,0
443494780,921600.0,1.0,1370.2278,0.0,12749,8,20.942345,689,4,0,0,0,0.005805515,0,0,0,1,1,1,33,0,1,0,0,0,0,0,0,0,0,0,0,0,0,0
444648841,921600.0,1.0,1193.8647,0.0,12784,8,20.805943,690,4,0,0,0,0.0057971017,0,0,0,1,1,1,33,0,1,0,0,0,0,0,0,0,0,0,0,0,0,0
445536613,921600.0,1.0,1305.1061,0.0,12813,8,20.763052,691,4,0,0,0,0.005788712,0,0,0,1,1,1,33,0,1,0,0,0,0,0,0,0,0,0,0,0,0,0
446486770,921600.0,1.0,1203.9622,0.0,12841,8,20.981913,692,4,0,0,0,0.0057803467,0,0,0,1,1,1,33,0,1,0,0,0,0,0,0,0,0,0,0,0,0,0
447638233,921600.0,1.0,1307.2451,0.0,12877,8,20.797083,693,4,0,0,0,0.0057720058,0,0,0,1,1,1,33,0,1,0,0,0,0,0,0,0,0,0,0,0,0,0
448561573,921600.0,1.0,1202.3633,0.0,12905,8,20.954048,694,4,0,0,0,0.0057636886,0,0,0,1,1,1,33,0,1,0,0,0,0,0,0,0,0,0,0,0,0,0
449476116,921600.0,1.0,1314.7135,0.0,12935,8,20.915895,695,4,0,0,0,0.0057553956,0,0,0,1,1,1,33,0,1,0,0,0,0,0,0,0,0,0,0,0,0,0
450550120,921600.0,1.0,1237.5857,0.0,12967,8,20.874939,696,4,0,0,0,0.0057471264,0,0,0,1,1,1,33,0,1,0,0,0,0,0,0,0,0,0,0,0,0,0
451569418,921600.0,1.0,1371.1613,0.0,13001,8,20.971876,698,4,0,0,0,0.0057306592,0,0,0,1,1,1,33,0,1,0,0,0,0,0,0,0,0,0,0,0,0,0
453539949,921600.0,1.0,1319.8192,0.0,13063,8,20.997124,700,4,0,0,0,0.0057142857,0,0,0,1,1,1,33,0,1,0,0,0,0,0,0,0,0,0,0,0,0,0
454542093,921600.0,1.0,1201.9255,0.0,13093,8,20.946419,701,4,0,0,0,0.0057061343,0,0,0,1,1,1,33,0,1,0,0,0,0,0,0,0,0,0,0,0,0,0
455612536,921600.0,1.0,1312.174,0.0,13127,8,20.891323,702,4,0,0,0,0.0056980057,0,0,0,1,1,1,33,0,1,0,0,0,0,0,0,0,0,0,0,0,0,0
456613628,921600.0,1.0,1204.9072,0.0,13157,8,20.998383,703,4,0,0,0,0.0056899004,0,0,0,1,1,1,33,0,1,0,0,0,0,0,0,0,0,0,0,0,0,0
457531839,921600.0,1.0,1318.7574,0.0,13186,8,20.996138,704,4,0,0,0,0.0056818184,0,0,0,1,1,1,33,0,1,0,0,0,0,0,0,0,0,0,0,0,0,0
458604596,921600.0,1.0,1204.0933,0.0,13219,8,20.984198,705,4,0,0,0,0.0056737587,0,0,0,1,1,1,33,0,1,0,0,0,0,0,0,0,0,0,0,0,0,0
459604118,921600.0,1.0,1318.2644,0.0,13251,8,20.988289,706,4,0,0,0,0.0056657223,0,0,0,1,1,1,33,0,1,0,0,0,0,0,0,0,0,0,0,0,0,0
460523269,921600.0,1.0,1204.8386,0.0,13278,8,20.997187,707,4,0,0,0,0.0056577087,0,0,0,1,1,1,33,0,1,0,0,0,0,0,0,0,0,0,0,0,0,0
461596024,921600.0,1.0,1372.0027,0.0,13314,8,20.984745,709,4,0,0,0,0.005641749,0,0,0,1,1,1,33,0,1,0,0,0,0,0,0,0,0,0,0,0,0,0
462595042,921600.0,1.0,1202.884,0.0,13344,8,46.91747,710,4,0,0,0,0.0056338026,0,0,0,1,1,1,33,0,1,0,0,0,0,0,0,0,0,0,0,0,0,0
463517257,921600.0,1.0,1316.1989,0.0,13374,8,20.939528,711,4,0,0,0,0.005625879,0,0,0,1,1,1,33,0,1,0,0,0,0,0,0,0,0,0,0,0,0,0
464666812,921600.0,1.0,1197.9417,0.0,13408,8,20.876991,712,4,0,0,0,0.0056179776,0,0,0,1,1,1,33,0,1,0,0,0,0,0,0,0,0,0,0,0,0,0
465588752,921600.0,1.0,1317.594,0.0,13438,8,20.961723,713,4,0,0,0,0.005610098,0,0,0,1,1,1,33,0,1,0,0,0,0,0,0,0,0,0,0,0,0,0
466348869,921600.0,1.0,1204.5315,0.0,13462,8,20.991835,713,4,0,0,0,0.005610098,0,0,0,1,1,1,33,0,1,0,0,0,0,0,0,0,0,0,0,0,0,0
467663686,921600.0,1.0,1318.0559,0.0,13502,8,20.96907,715,4,0,0,0,0.005594406,0,0,0,1,1,1,33,0,1,0,0,0,0,0,0,0,0,0,0,0,0,0
468590053,921600.0,1.0,1204.5603,0.0,13530,8,20.992338,716,4,0,0,0,0.005586592,0,0,0,1,1,1,33,0,1,0,0,0,0,0,0,0,0,0,0,0,0,0
469350319,921600.0,1.0,1316.2842,0.0,13556,8,20.940884,716,4,0,0,0,0.005586592,0,0,0,1,1,1,33,0,1,0,0,0,0,0,0,0,0,0,0,0,0,0
470650915,921600.0,1.0,1196.696,0.0,13594,8,20.855284,718,4,0,0,0,0.0055710305,0,0,0,1,1,1,33,0,1,0,0,0,0,0,0,0,0,0,0,0,0,0
471586343,921600.0,1.0,1371.2612,0.0,13626,8,20.973406,720,4,0,0,0,0.0055555557,0,0,0,1,1,1,33,0,1,0,0,0,0,0,0,0,0,0,0,0,0,0
472342293,921600.0,1.0,1203.6555,0.0,13649,8,46.94756,720,4,0,0,0,0.0055555557,0,0,0,1,1,1,33,0,1,0,0,0,0,0,0,0,0,0,0,0,0,0
473651302,921600.0,1.0,1305.9608,0.0,13690,8,20.77665,722,4,0,0,0,0.005540166,0,0,0,1,1,1,33,0,1,0,0,0,0,0,0,0,0,0,0,0,0,0
474713283,921600.0,1.0,1204.2089,0.0,13721,8,20.986214,723,4,0,0,0,0.0055325036,0,0,0,1,1,1,33,0,1,0,0,0,0,0,0,0,0,0,0,0,0,0
475714025,921600.0,1.0,1305.3988,0.0,13753,8,20.815016,724,4,0,0,0,0.005524862,0,0,0,1,1,1,33,0,1,0,0,0,0,0,0,0,0,0,0,0,0,0
476634131,921600.0,1.0,1228.2338,0.0,13781,8,20.783972,725,4,0,0,0,0.0055172415,0,0,0,1,1,1,33,0,1,0,0,0,0,0,0,0,0,0,0,0,0,0
477684757,921600.0,1.0,1315.8538,0.0,13814,8,20.94991,726,4,0,0,0,0.005509642,0,0,0,1,1,1,33,0,1,0,0,0,0,0,0,0,0,0,0,0,0,0
478708166,921600.0,1.0,1199.6853,0.0,13844,8,20.90738,727,4,0,0,0,0.0055020633,0,0,0,1,1,1,33,0,1,0,0,0,0,0,0,0,0,0,0,0,0,0
479630128,921600.0,1.0,1317.5271,0.0,13875,8,20.97655,728,4,0,0,0,0.0054945056,0,0,0,1,1,1,33,0,1,0,0,0,0,0,0,0,0,0,0,0,0,0
480695206,921600.0,1.0,1201.2257,0.0,13906,8,20.934225,729,4,0,0,0,0.0054869684,0,0,0,1,1,1,33,0,1,0,0,0,0,0,0,0,0,0,0,0,0,0
481695901,921600.0,1.0,1372.9067,0.0,13940,8,20.998573,731,4,0,0,0,0.0054719565,0,0,0,1,1,1,33,0,1,0,0,0,0,0,0,0,0,0,0,0,0,0
482611104,921600.0,1.0,1197.4192,0.0,13969,8,46.704315,732,4,0,0,0,0.0054644807,0,0,0,1,1,1,33,0,1,0,0,0,0,0,0,0,0,0,0,0,0,0
483368050,921600.0,1.0,1317.427,0.0,13994,8,20.959066,732,4,0,0,0,0.0054644807,0,0,0,1,1,1,33,0,1,0,0,0,0,0,0,0,0,0,0,0,0,0
484685612,921600.0,1.0,1197.1907,0.0,14032,8,20.863905,734,4,0,0,0,0.005449591,0,0,0,1,1,1,33,0,1,0,0,0,0,0,0,0,0,0,0,0,0,0
486588895,921600.0,1.0,1201.6857,0.0,14092,8,20.942242,735,4,0,0,0,0.005442177,0,0,0,1,1,1,33,0,1,0,0,0,0,0,0,0,0,0,0,0,0,0
487679306,921600.0,1.0,1318.8091,0.0,14126,8,20.981054,737,4,0,0,0,0.0054274085,0,0,0,1,1,1,33,0,1,0,0,0,0,0,0,0,0,0,0,0,0,0
488438950,921600.0,1.0,1196.4525,0.0,14150,8,20.85104,737,4,0,0,0,0.0054274085,0,0,0,1,1,1,33,0,1,0,0,0,0,0,0,0,0,0,0,0,0,0
489584776,921600.0,1.0,1317.4717,0.0,14186,8,20.975668,738,4,0,0,0,0.0054200543,0,0,0,1,1,1,33,0,1,0,0,0,0,0,0,0,0,0,0,0,0,0
490668971,921600.0,1.0,1201.9686,0.0,14218,8,20.947172,740,4,0,0,0,0.0054054055,0,0,0,1,1,1,33,0,1,0,0,0,0,0,0,0,0,0,0,0,0,0
491429447,921600.0,1.0,1361.7642,0.0,14246,8,20.828148,741,4,0,0,0,0.0053981105,0,0,0,1,1,1,33,0,1,0,0,0,0,0,0,0,0,0,0,0,0,0
492655058,921600.0,1.0,1204.9325,0.0,14282,8,46.997368,743,4,0,0,0,0.00538358,0,0,0,1,1,1,33,0,1,0,0,0,0,0,0,0,0,0,0,0,0,0
493659992,921600.0,1.0,1315.8196,0.0,14314,8,20.933493,744,4,0,0,0,0.005376344,0,0,0,1,1,1,33,0,1,0,0,0,0,0,0,0,0,0,0,0,0,0
494415155,921600.0,1.0,1203.0222,0.0,14337,8,20.965532,744,4,0,0,0,0.005376344,0,0,0,1,1,1,33,0,1,0,0,0,0,0,0,0,0,0,0,0,0,0
495492623,921600.0,1.0,1315.1143,0.0,14371,8,20.922274,745,4,0,0,0,0.0053691277,0,0,0,1,1,1,33,0,1,0,0,0,0,0,0,0,0,0,0,0,0,0
496493427,921600.0,1.0,1204.5411,0.0,14401,8,20.992002,746,4,0,0,0,0.0053619305,0,0,0,1,1,1,33,0,1,0,0,0,0,0,0,0,0,0,0,0,0,0
497574927,921600.0,1.0,1356.35,0.0,14435,8,20.94364,747,4,0,0,0,0.0053547523,0,0,0,1,1,1,33,0,1,0,0,0,0,0,0,0,0,0,0,0,0,0
498493559,921600.0,1.0,1203.1196,0.0,14463,8,20.96723,748,4,0,0,0,0.0053475937,0,0,0,1,1,1,33,0,1,0,0,0,0,0,0,0,0,0,0,0,0,0
499474070,921600.0,1.0,1319.2019,0.0,14495,8,20.987303,749,4,0,0,0,0.005340454,0,0,0,1,1,1,33,0,1,0,0,0,0,0,0,0,0,0,0,0,0,0
500711085,921600.0,1.0,1204.4015,0.0,14530,8,20.989569,751,4,0,0,0,0.0053262315,0,0,0,1,1,1,33,0,1,0,0,0,0,0,0,0,0,0,0,0,0,0
501466738,921600.0,1.0,1372.8132,0.0,14559,8,20.997145,751,4,0,0,0,0.0053262315,0,0,0,1,1,1,33,0,1,0,0,0,0,0,0,0,0,0,0,0,0,0
502466058,921600.0,1.0,1200.6956,0.0,14589,8,46.832108,753,4,0,0,0,0.005312085,0,0,0,1,1,1,33,0,1,0,0,0,0,0,0,0,0,0,0,0,0,0
503626526,921600.0,1.0,1316.3431,0.0,14625,8,20.941822,754,4,0,0,0,0.0053050397,0,0,0,1,1,1,33,0,1,0,0,0,0,0,0,0,0,0,0,0,0,0
504387898,921600.0,1.0,1201.6582,0.0,14649,8,0.0,754,4,0,0,0,0.0053050397,0,0,0,1,1,1,33,0,0,0,0,0,0,0,0,0,0,0,0,0,0,0
505616629,921600.0,1.0,1318.3118,0.0,14687,8,20.989044,755,5,0,0,0,0.0066225166,0,0,0,1,1,1,33,0,1,0,0,0,0,0,0,0,0,0,0,0,0,0
506618252,921600.0,1.0,1204.1606,0.0,14717,8,20.985373,756,5,0,0,0,0.0066137565,0,0,0,1,1,1,33,0,1,0,0,0,0,0,0,0,0,0,0,0,0,0
507538876,921600.0,1.0,1360.0028,0.0,14747,8,20.786068,757,5,0,0,0,0.00660502,0,0,0,1,1,1,33,0,1,0,0,0,0,0,0,0,0,0,0,0,0,0
508679830,921600.0,1.0,1202.3824,0.0,14780,8,20.954382,758,5,0,0,0,0.006596306,0,0,0,1,1,1,33,0,1,0,0,0,0,0,0,0,0,0,0,0,0,0
509609245,921600.0,1.0,1319.2955,0.0,14811,8,20.988792,759,5,0,0,0,0.0065876152,0,0,0,1,1,1,33,0,1,0,0,0,0,0,0,0,0,0,0,0,0,0
510674235,921600.0,1.0,1203.486,0.0,14842,8,20.973616,760,5,0,0,0,0.0065789474,0,0,0,1,1,1,33,0,1,0,0,0,0,0,0,0,0,0,0,0,0,0
511670584,921600.0,1.0,1372.3508,0.0,14876,8,46.97778,762,5,0,0,0,0.0065616798,0,0,0,1,1,1,33,0,1,0,0,0,0,0,0,0,0,0,0,0,0,0
512599993,921600.0,1.0,1201.4569,0.0,14904,8,20.938253,763,5,0,0,0,0.00655308,0,0,0,1,1,1,33,0,1,0,0,0,0,0,0,0,0,0,0,0,0,0
513681956,921600.0,1.0,1342.5166,0.0,14938,8,20.868134,764,5,0,0,0,0.0065445025,0,0,0,1,1,1,33,0,1,0,0,0,0,0,0,0,0,0,0,0,0,0
514612033,921600.0,1.0,1203.8492,0.0,14967,8,20.979944,765,5,0,0,0,0.006535948,0,0,0,1,1,1,33,0,1,0,0,0,0,0,0,0,0,0,0,0,0,0
515582542,921600.0,1.0,1318.6167,0.0,14998,8,20.977993,766,5,0,0,0,0.006527415,0,0,0,1,1,1,33,0,1,0,0,0,0,0,0,0,0,0,0,0,0,0
516653457,921600.0,1.0,1200.9371,0.0,15030,8,20.929195,767,5,0,0,0,0.006518905,0,0,0,1,1,1,33,0,1,0,0,0,0,0,0,0,0,0,0,0,0,0
517626097,921600.0,1.0,1319.6846,0.0,15061,8,20.994982,768,5,0,0,0,0.0065104165,0,0,0,1,1,1,33,0,1,0,0,0,0,0,0,0,0,0,0,0,0,0
518583715,921600.0,1.0,1196.9327,0.0,15090,8,20.859407,769,5,0,0,0,0.006501951,0,0,0,1,1,1,33,0,1,0,0,0,0,0,0,0,0,0,0,0,0,0
518976662,921600.0,1.0,1196.9327,0.0,15099,8,20.859407,770,5,0,0,0,0.0064935065,0,0,0,1,1,1,33,0,1,0,0,0,0,0,0,0,0,0,0,0,0,0
520623612,921600.0,1.0,1204.2269,0.0,15153,8,20.986528,771,5,0,0,0,0.0064850845,0,0,0,1,1,1,33,0,1,0,0,0,0,0,0,0,0,0,0,0,0,0
521043051,921600.0,1.0,1204.2269,0.0,15162,8,20.986528,772,5,0,0,0,0.006476684,0,0,0,1,1,1,33,0,1,0,0,0,0,0,0,0,0,0,0,0,0,0
521963994,921600.0,1.0,1359.9917,0.0,15195,8,20.801039,774,5,0,0,0,0.006459948,0,0,0,1,1,1,33,0,1,0,0,0,0,0,0,0,0,0,0,0,0,0
523635250,921600.0,1.0,1316.8995,0.0,15249,8,20.966558,775,5,0,0,0,0.006451613,0,0,0,1,1,1,33,0,1,0,0,0,0,0,0,0,0,0,0,0,0,0
524035213,921600.0,1.0,1316.8995,0.0,15258,8,20.966558,776,5,0,0,0,0.006443299,0,0,0,1,1,1,33,0,1,0,0,0,0,0,0,0,0,0,0,0,0,0
525617545,921600.0,1.0,1313.7435,0.0,15311,8,20.93218,777,5,0,0,0,0.0064350064,0,0,0,1,1,1,33,0,1,0,0,0,0,0,0,0,0,0,0,0,0,0
526638024,921600.0,1.0,1200.431,0.0,15341,8,20.990051,778,5,0,0,0,0.0064267353,0,0,0,1,1,1,33,0,1,0,0,0,0,0,0,0,0,0,0,0,0,0
527687781,921600.0,1.0,1309.2975,0.0,15374,8,20.87718,779,5,0,0,0,0.006418485,0,0,0,1,1,1,33,0,1,0,0,0,0,0,0,0,0,0,0,0,0,0
528697350,921600.0,1.0,1203.9531,0.0,15404,8,20.999182,780,5,0,0,0,0.0064102565,0,0,0,1,1,1,33,0,1,0,0,0,0,0,0,0,0,0,0,0,0,0
529072401,921600.0,1.0,1203.9531,0.0,15413,8,20.999182,781,5,0,0,0,0.0064020487,0,0,0,1,1,1,33,0,1,0,0,0,0,0,0,0,0,0,0,0,0,0
530688872,921600.0,1.0,1198.2822,0.0,15466,8,20.987429,782,5,0,0,0,0.006393862,0,0,0,1,1,1,33,0,1,0,0,0,0,0,0,0,0,0,0,0,0,0
531689133,921600.0,1.0,1372.6981,0.0,15500,8,46.989666,784,5,0,0,0,0.0063775512,0,0,0,1,1,1,33,0,1,0,0,0,0,0,0,0,0,0,0,0,0,0
532059924,921600.0,1.0,1372.6981,0.0,15509,8,46.989666,785,5,0,0,0,0.006369427,0,0,0,1,1,1,33,0,1,0,0,0,0,0,0,0,0,0,0,0,0,0
533009346,921600.0,1.0,1202.3895,0.0,15538,8,20.954508,786,5,0,0,0,0.006361323,0,0,0,1,1,1,33,0,1,0,0,0,0,0,0,0,0,0,0,0,0,0
534680625,921600.0,1.0,1252.2144,0.0,15592,8,20.771328,787,5,0,0,0,0.00635324,0,0,0,1,1,1,33,0,1,0,0,0,0,0,0,0,0,0,0,0,0,0
534998268,921600.0,1.0,1252.2144,0.0,15600,8,20.771328,788,5,0,0,0,0.0063451775,0,0,0,1,1,1,33,0,1,0,0,0,0,0,0,0,0,0,0,0,0,0
536002139,921600.0,1.0,1316.1962,0.0,15632,8,20.939486,789,5,0,0,0,0.0063371356,0,0,0,1,1,1,33,0,1,0,0,0,0,0,0,0,0,0,0,0,0,0
537677522,921600.0,1.0,1306.81,0.0,15686,8,20.805922,790,5,0,0,0,0.006329114,0,0,0,1,1,1,33,0,1,0,0,0,0,0,0,0,0,0,0,0,0,0
538072699,921600.0,1.0,1306.81,0.0,15695,8,20.805922,791,5,0,0,0,0.0063211126,0,0,0,1,1,1,33,0,1,0,0,0,0,0,0,0,0,0,0,0,0,0
538991178,921600.0,1.0,1232.6842,0.0,15724,8,20.792263,792,5,0,0,0,0.006313131,0,0,0,1,1,1,33,0,1,0,0,0,0,0,0,0,0,0,0,0,0,0
540683835,921600.0,1.0,1192.059,0.0,15778,8,20.774471,793,5,0,0,0,0.0063051702,0,0,0,1,1,1,33,0,1,0,0,0,0,0,0,0,0,0,0,0,0,0
541063935,921600.0,1.0,1192.059,0.0,15787,8,20.774471,794,5,0,0,0,0.0062972293,0,0,0,1,1,1,33,0,1,0,0,0,0,0,0,0,0,0,0,0,0,0
543059640,921600.0,1.0,1203.4608,0.0,15851,8,20.973175,797,5,0,0,0,0.0062735258,0,0,0,1,1,1,33,0,1,0,0,0,0,0,0,0,0,0,0,0,0,0
544064648,921600.0,1.0,1305.1692,0.0,15883,8,20.779797,798,5,0,0,0,0.006265664,0,0,0,1,1,1,33,0,1,0,0,0,0,0,0,0,0,0,0,0,0,0
544976160,921600.0,1.0,1191.802,0.0,15911,8,20.769995,799,5,0,0,0,0.0062578223,0,0,0,1,1,1,33,0,1,0,0,0,0,0,0,0,0,0,0,0,0,0
546050109,921600.0,1.0,1316.249,0.0,15945,8,20.956202,800,5,0,0,0,0.00625,0,0,0,1,1,1,33,0,1,0,0,0,0,0,0,0,0,0,0,0,0,0
547049546,921600.0,1.0,1196.7167,0.0,15975,8,20.960009,801,5,0,0,0,0.0062421975,0,0,0,1,1,1,33,0,1,0,0,0,0,0,0,0,0,0,0,0,0,0
548122256,921600.0,1.0,1309.7493,0.0,16014,8,20.979965,802,5,0,0,0,0.006234414,0,0,0,1,1,1,33,0,1,0,0,0,0,0,0,0,0,0,0,0,0,0
549044177,921600.0,1.0,1193.2913,0.0,16037,8,20.934935,803,5,0,0,0,0.00622665,0,0,0,1,1,1,33,0,1,0,0,0,0,0,0,0,0,0,0,0,0,0
550047916,921600.0,1.0,1375.3444,0.0,16070,8,20.94433,804,5,0,0,0,0.0062189056,0,0,0,1,1,1,33,0,1,0,0,0,0,0,0,0,0,0,0,0,0,0
551122843,921600.0,1.0,1198.801,0.0,16111,8,20.89197,805,5,0,0,0,0.0062111802,0,0,0,1,1,1,33,0,1,0,0,0,0,0,0,0,0,0,0,0,0,0
552071539,921600.0,1.0,1367.5977,0.0,16134,8,46.849194,807,5,0,0,0,0.006195787,0,0,0,1,1,1,33,0,1,0,0,0,0,0,0,0,0,0,0,0,0,0
553264169,921600.0,1.0,1201.1406,0.0,16176,8,20.932741,808,5,0,0,0,0.006188119,0,0,0,1,1,1,33,0,1,0,0,0,0,0,0,0,0,0,0,0,0,0
554119632,921600.0,1.0,1353.8756,0.0,16203,8,20.920815,809,5,0,0,0,0.00618047,0,0,0,1,1,1,33,0,1,0,0,0,0,0,0,0,0,0,0,0,0,0
555065619,921600.0,1.0,1202.7136,0.0,16226,8,20.960154,810,5,0,0,0,0.0061728396,0,0,0,1,1,1,33,0,1,0,0,0,0,0,0,0,0,0,0,0,0,0
556250548,921600.0,1.0,1311.4331,0.0,16268,8,20.879526,811,5,0,0,0,0.0061652283,0,0,0,1,1,1,33,0,1,0,0,0,0,0,0,0,0,0,0,0,0,0
557093610,921600.0,1.0,1199.818,0.0,16288,8,20.909693,812,5,0,0,0,0.0061576352,0,0,0,1,1,1,33,0,1,0,0,0,0,0,0,0,0,0,0,0,0,0
558095224,921600.0,1.0,1313.0375,0.0,16320,8,20.90507,813,5,0,0,0,0.0061500617,0,0,0,1,1,1,33,0,1,0,0,0,0,0,0,0,0,0,0,0,0,0
559240477,921600.0,1.0,1204.9783,0.0,16361,8,20.999622,814,5,0,0,0,0.006142506,0,0,0,1,1,1,33,0,1,0,0,0,0,0,0,0,0,0,0,0,0,0
560161271,921600.0,1.0,1317.7035,0.0,16390,8,20.979357,815,5,0,0,0,0.006134969,0,0,0,1,1,1,33,0,1,0,0,0,0,0,0,0,0,0,0,0,0,0
561311957,921600.0,1.0,1202.5132,0.0,16427,8,20.956661,816,5,0,0,0,0.006127451,0,0,0,1,1,1,33,0,1,0,0,0,0,0,0,0,0,0,0,0,0,0
562232154,921600.0,1.0,1420.3866,0.0,16455,8,46.814987,818,5,0,0,0,0.0061124694,0,0,0,1,1,1,33,0,1,0,0,0,0,0,0,0,0,0,0,0,0,0
563153541,921600.0,1.0,1265.9175,0.0,16487,8,20.94899,819,5,0,0,0,0.006105006,0,0,0,1,1,1,33,0,1,0,0,0,0,0,0,0,0,0,0,0,0,0
564303092,921600.0,1.0,1314.7626,0.0,16519,8,20.932535,820,5,0,0,0,0.0060975607,0,0,0,1,1,1,33,0,1,0,0,0,0,0,0,0,0,0,0,0,0,0
565223738,921600.0,1.0,1202.3728,0.0,16551,8,20.954216,821,5,0,0,0,0.006090134,0,0,0,1,1,1,33,0,1,0,0,0,0,0,0,0,0,0,0,0,0,0
566142747,921600.0,1.0,1382.946,0.0,16580,8,20.999182,822,5,0,0,0,0.0060827252,0,0,0,1,1,1,33,0,1,0,0,0,0,0,0,0,0,0,0,0,0,0
567292471,921600.0,1.0,1204.0343,0.0,16614,8,20.983171,823,5,0,0,0,0.0060753343,0,0,0,1,1,1,33,0,1,0,0,0,0,0,0,0,0,0,0,0,0,0
568212770,921600.0,1.0,1317.2639,0.0,16643,8,20.972359,824,5,0,0,0,0.006067961,0,0,0,1,1,1,33,0,1,0,0,0,0,0,0,0,0,0,0,0,0,0
569135954,921600.0,1.0,1195.4294,0.0,16674,8,20.83321,825,5,0,0,0,0.006060606,0,0,0,1,1,1,33,0,1,0,0,0,0,0,0,0,0,0,0,0,0,0
570285496,921600.0,1.0,1316.8219,0.0,16706,8,20.965322,826,5,0,0,0,0.006053269,0,0,0,1,1,1,33,0,1,0,0,0,0,0,0,0,0,0,0,0,0,0
571224853,921600.0,1.0,1203.2373,0.0,16739,8,20.96928,827,5,0,0,0,0.006045949,0,0,0,1,1,1,33,0,1,0,0,0,0,0,0,0,0,0,0,0,0,0
572276592,921600.0,1.0,1361.2705,0.0,16770,8,46.632442,829,5,0,0,0,0.0060313633,0,0,0,1,1,1,33,0,1,0,0,0,0,0,0,0,0,0,0,0,0,0
573276873,921600.0,1.0,1204.9144,0.0,16802,8,20.998508,830,5,0,0,0,0.006024096,0,0,0,1,1,1,33,0,1,0,0,0,0,0,0,0,0,0,0,0,0,0
574197771,921600.0,1.0,1317.8931,0.0,16831,8,20.982376,831,5,0,0,0,0.006016847,0,0,0,1,1,1,33,0,1,0,0,0,0,0,0,0,0,0,0,0,0,0
575346431,921600.0,1.0,1198.2633,0.0,16866,8,20.882597,832,5,0,0,0,0.0060096155,0,0,0,1,1,1,33,0,1,0,0,0,0,0,0,0,0,0,0,0,0,0
576107935,921600.0,1.0,1316.847,0.0,16885,8,20.965721,832,5,0,0,0,0.0060096155,0,0,0,1,1,1,33,0,1,0,0,0,0,0,0,0,0,0,0,0,0,0
577189494,921600.0,1.0,1204.6832,0.0,16925,8,0.0,833,6,0,0,0,0.007202881,0,0,0,1,1,1,33,0,1,0,0,0,0,0,0,0,0,0,0,0,0,0
578342204,921600.0,1.0,1349.6122,0.0,16958,8,20.854933,834,6,0,0,0,0.007194245,0,0,0,1,1,1,33,0,1,0,0,0,0,0,0,0,0,0,0,0,0,0
579269215,921600.0,1.0,1193.7372,0.0,16988,8,20.803719,835,6,0,0,0,0.0071856286,0,0,0,1,1,1,33,0,1,0,0,0,0,0,0,0,0,0,0,0,0,0
580330412,921600.0,1.0,1314.0172,0.0,17019,8,20.920668,836,6,0,0,0,0.0071770335,0,0,0,1,1,1,33,0,1,0,0,0,0,0,0,0,0,0,0,0,0,0
581333695,921600.0,1.0,1204.9204,0.0,17054,8,20.998613,837,6,0,0,0,0.007168459,0,0,0,1,1,1,33,0,1,0,0,0,0,0,0,0,0,0,0,0,0,0
582254279,921600.0,1.0,1395.9635,0.0,17082,8,46.730972,839,6,0,0,0,0.007151371,0,0,0,1,1,1,33,0,1,0,0,0,0,0,0,0,0,0,0,0,0,0
583405761,921600.0,1.0,1203.1688,0.0,17118,8,20.968088,840,6,0,0,0,0.007142857,0,0,0,1,1,1,33,0,1,0,0,0,0,0,0,0,0,0,0,0,0,0
584332634,921600.0,1.0,1317.6454,0.0,17145,8,20.962542,841,6,0,0,0,0.007134364,0,0,0,1,1,1,33,0,1,0,0,0,0,0,0,0,0,0,0,0,0,0
585246742,921600.0,1.0,1195.6725,0.0,17176,8,20.837446,842,6,0,0,0,0.007125891,0,0,0,1,1,1,33,0,1,0,0,0,0,0,0,0,0,0,0,0,0,0
586402200,921600.0,1.0,1317.1497,0.0,17210,8,20.954655,843,6,0,0,0,0.0071174377,0,0,0,1,1,1,33,0,1,0,0,0,0,0,0,0,0,0,0,0,0,0
587313989,921600.0,1.0,1200.6381,0.0,17239,8,20.923983,844,6,0,0,0,0.0071090045,0,0,0,1,1,1,33,0,1,0,0,0,0,0,0,0,0,0,0,0,0,0
588241960,921600.0,1.0,1313.1049,0.0,17267,8,20.890305,845,6,0,0,0,0.007100592,0,0,0,1,1,1,33,0,1,0,0,0,0,0,0,0,0,0,0,0,0,0
589383714,921600.0,1.0,1203.1917,0.0,17303,8,20.968485,846,6,0,0,0,0.0070921984,0,0,0,1,1,1,33,0,1,0,0,0,0,0,0,0,0,0,0,0,0,0
590304887,921600.0,1.0,1317.2128,0.0,17330,8,20.955658,847,6,0,0,0,0.0070838253,0,0,0,1,1,1,33,0,1,0,0,0,0,0,0,0,0,0,0,0,0,0
591464829,921600.0,1.0,1194.0564,0.0,17370,8,20.809282,848,6,0,0,0,0.007075472,0,0,0,1,1,1,33,0,1,0,0,0,0,0,0,0,0,0,0,0,0,0
592265540,921600.0,1.0,1360.6412,0.0,17394,8,46.57694,850,6,0,0,0,0.0070588235,0,0,0,1,1,1,33,0,1,0,0,0,0,0,0,0,0,0,0,0,0,0
593299772,921600.0,1.0,1241.5286,0.0,17426,8,20.941446,851,6,0,0,0,0.0070505287,0,0,0,1,1,1,33,0,1,0,0,0,0,0,0,0,0,0,0,0,0,0
594368898,921600.0,1.0,1315.1163,0.0,17459,8,20.938168,852,6,0,0,0,0.0070422534,0,0,0,1,1,1,33,0,1,0,0,0,0,0,0,0,0,0,0,0,0,0
595329712,921600.0,1.0,1204.5205,0.0,17489,8,20.991644,853,6,0,0,0,0.0070339977,0,0,0,1,1,1,33,0,1,0,0,0,0,0,0,0,0,0,0,0,0,0
596296858,921600.0,1.0,1317.106,0.0,17518,8,20.969845,854,6,0,0,0,0.007025761,0,0,0,1,1,1,33,0,1,0,0,0,0,0,0,0,0,0,0,0,0,0
597346502,921600.0,1.0,1194.0493,0.0,17552,8,20.809158,855,6,0,0,0,0.007017544,0,0,0,1,1,1,33,0,1,0,0,0,0,0,0,0,0,0,0,0,0,0
598340828,921600.0,1.0,1318.1418,0.0,17582,8,20.986338,856,6,0,0,0,0.0070093456,0,0,0,1,1,1,33,0,1,0,0,0,0,0,0,0,0,0,0,0,0,0
599436968,921600.0,1.0,1197.3954,0.0,17617,8,20.867472,857,6,0,0,0,0.0070011667,0,0,0,1,1,1,33,0,1,0,0,0,0,0,0,0,0,0,0,0,0,0
600435588,921600.0,1.0,1319.1149,0.0,17647,8,20.985918,858,6,0,0,0,0.006993007,0,0,0,1,1,1,33,0,1,0,0,0,0,0,0,0,0,0,0,0,0,0
601372076,921600.0,1.0,1198.2109,0.0,17679,8,20.881683,860,6,0,0,0,0.006976744,0,0,0,1,1,1,33,0,1,0,0,0,0,0,0,0,0,0,0,0,0,0
602508689,921600.0,1.0,1372.9656,0.0,17712,8,46.998825,861,6,0,0,0,0.006968641,0,0,0,1,1,1,33,0,1,0,0,0,0,0,0,0,0,0,0,0,0,0
604528009,921600.0,1.0,1302.9368,0.0,17775,8,20.791544,863,6,0,0,0,0.006952491,0,0,0,1,1,1,33,0,1,0,0,0,0,0,0,0,0,0,0,0,0,0
605495266,921600.0,1.0,1189.2562,0.0,17806,8,20.794655,864,6,0,0,0,0.0069444445,0,0,0,1,1,1,33,0,1,0,0,0,0,0,0,0,0,0,0,0,0,0
606415852,921600.0,1.0,1315.0248,0.0,17834,8,20.968504,865,6,0,0,0,0.006936416,0,0,0,1,1,1,33,0,1,0,0,0,0,0,0,0,0,0,0,0,0,0
608496497,921600.0,1.0,1349.4098,0.0,17898,8,20.836475,867,6,0,0,0,0.0069204154,0,0,0,1,1,1,33,0,1,0,0,0,0,0,0,0,0,0,0,0,0,0
609411920,921600.0,1.0,1203.6783,0.0,17928,8,20.976967,868,6,0,0,0,0.0069124424,0,0,0,1,1,1,33,0,1,0,0,0,0,0,0,0,0,0,0,0,0,0
610520929,921600.0,1.0,1314.1482,0.0,17961,8,20.906902,869,6,0,0,0,0.006904488,0,0,0,1,1,1,33,0,1,0,0,0,0,0,0,0,0,0,0,0,0,0
611493721,921600.0,1.0,1194.7538,0.0,17994,8,20.821434,871,6,0,0,0,0.0068886336,0,0,0,1,1,1,33,0,1,0,0,0,0,0,0,0,0,0,0,0,0,0
612633334,921600.0,1.0,1375.111,0.0,18028,8,46.901463,872,6,0,0,0,0.006880734,0,0,0,1,1,1,33,0,1,0,0,0,0,0,0,0,0,0,0,0,0,0
613529470,921600.0,1.0,1200.211,0.0,18057,8,20.916542,873,6,0,0,0,0.0068728523,0,0,0,1,1,1,33,0,1,0,0,0,0,0,0,0,0,0,0,0,0,0
614474076,921600.0,1.0,1318.4673,0.0,18086,8,20.99152,874,6,0,0,0,0.0068649887,0,0,0,1,1,1,33,0,1,0,0,0,0,0,0,0,0,0,0,0,0,0
615623208,921600.0,1.0,1245.9031,0.0,18122,8,20.781544,875,6,0,0,0,0.006857143,0,0,0,1,1,1,33,0,1,0,0,0,0,0,0,0,0,0,0,0,0,0
616385581,921600.0,1.0,1313.4843,0.0,18147,8,20.975796,875,6,0,0,0,0.006857143,0,0,0,1,1,1,33,0,1,0,0,0,0,0,0,0,0,0,0,0,0,0
617140545,921600.0,1.0,1319.1338,0.0,18174,8,0.0,875,6,0,0,0,0.006857143,0,0,0,1,1,1,33,0,0,0,0,0,0,0,0,0,0,0,0,0,0,0
618646765,921600.0,1.0,1309.5635,0.0,18217,8,0.0,875,6,0,0,0,0.006857143,0,0,0,1,1,1,33,0,0,0,0,0,0,0,0,0,0,0,0,0,0,0
619406988,921600.0,1.0,1193.6837,0.0,18242,8,0.0,875,6,0,0,0,0.006857143,0,0,0,1,1,1,33,0,0,0,0,0,0,0,0,0,0,0,0,0,0,0
620156651,921600.0,1.0,1312.1261,0.0,18266,8,0.0,875,6,0,0,0,0.006857143,0,0,0,1,1,1,33,0,0,0,0,0,0,0,0,0,0,0,0,0,0,0
621671841,921600.0,1.0,1195.9612,0.0,18313,8,0.0,875,6,0,0,0,0.006857143,0,0,0,1,1,1,33,0,0,0,0,0,0,0,0,0,0,0,0,0,0,0
622427034,921600.0,1.0,1371.7079,0.0,18337,8,0.0,875,6,0,0,0,0.006857143,0,0,0,1,1,1,33,0,0,0,0,0,0,0,0,0,0,0,0,0,0,0
623186362,921600.0,1.0,1196.3319,0.0,18363,8,0.0,875,6,0,0,0,0.006857143,0,0,0,1,1,1,33,0,0,0,0,0,0,0,0,0,0,0,0,0,0,0
624703110,921600.0,1.0,1305.9637,0.0,18405,8,0.0,875,6,0,0,0,0.006857143,0,0,0,1,1,1,33,0,0,0,0,0,0,0,0,0,0,0,0,0,0,0
626212785,921600.0,1.0,1306.7378,0.0,18455,8,0.0,875,6,0,0,0,0.006857143,0,0,0,1,1,1,33,0,0,0,0,0,0,0,0,0,0,0,0,0,0,0
626967815,921600.0,1.0,1194.0101,0.0,18474,8,0.0,875,6,0,0,0,0.006857143,0,0,0,1,1,1,33,0,0,0,0,0,0,0,0,0,0,0,0,0,0,0
628479105,921600.0,1.0,1311.2002,0.0,18524,8,0.0,875,6,0,0,0,0.006857143,0,0,0,1,1,1,33,0,0,0,0,0,0,0,0,0,0,0,0,0,0,0
629240493,921600.0,1.0,1193.9983,0.0,18549,8,0.0,875,6,0,0,0,0.006857143,0,0,0,1,1,1,33,0,0,0,0,0,0,0,0,0,0,0,0,0,0,0
629994771,921600.0,1.0,1305.777,0.0,18569,8,0.0,875,6,0,0,0,0.006857143,0,0,0,1,1,1,33,0,0,0,0,0,0,0,0,0,0,0,0,0,0,0
631501508,921600.0,1.0,1231.0356,0.0,18620,8,0.0,875,6,0,0,0,0.006857143,0,0,0,1,1,1,33,0,0,0,0,0,0,0,0,0,0,0,0,0,0,0
632260808,921600.0,1.0,1365.838,0.0,18644,8,0.0,875,6,0,0,0,0.006857143,0,0,0,1,1,1,33,0,0,0,0,0,0,0,0,0,0,0,0,0,0,0
633012885,921600.0,1.0,1193.2329,0.0,18663,8,0.0,875,6,0,0,0,0.006857143,0,0,0,1,1,1,33,0,0,0,0,0,0,0,0,0,0,0,0,0,0,0
634527077,921600.0,1.0,1309.6654,0.0,18713,8,0.0,875,6,0,0,0,0.006857143,0,0,0,1,1,1,33,0,0,0,0,0,0,0,0,0,0,0,0,0,0,0
635279007,921600.0,1.0,1196.6292,0.0,18738,8,0.0,875,6,0,0,0,0.006857143,0,0,0,1,1,1,33,0,0,0,0,0,0,0,0,0,0,0,0,0,0,0
637552474,921600.0,1.0,1194.2604,0.0,18808,8,0.0,875,6,0,0,0,0.006857143,0,0,0,1,1,1,33,0,0,0,0,0,0,0,0,0,0,0,0,0,0,0
638305206,921600.0,1.0,1308.0243,0.0,18830,8,0.0,875,6,0,0,0,0.006857143,0,0,0,1,1,1,33,0,0,0,0,0,0,0,0,0,0,0,0,0,0,0
639064017,921600.0,1.0,1194.8839,0.0,18850,8,0.0,875,6,0,0,0,0.006857143,0,0,0,1,1,1,33,0,0,0,0,0,0,0,0,0,0,0,0,0,0,0
640574131,921600.0,1.0,1304.7463,0.0,18900,8,0.0,875,6,0,0,0,0.006857143,0,0,0,1,1,1,33,0,0,0,0,0,0,0,0,0,0,0,0,0,0,0
641334880,921600.0,1.0,1196.2333,0.0,18928,8,0.0,875,6,0,0,0,0.006857143,0,0,0,1,1,1,33,0,0,0,0,0,0,0,0,0,0,0,0,0,0,0
642092079,921600.0,1.0,1366.854,0.0,18946,8,0.0,875,6,0,0,0,0.006857143,0,0,0,1,1,1,33,0,0,0,0,0,0,0,0,0,0,0,0,0,0,0
643605616,921600.0,1.0,1194.7421,0.0,18998,8,0.0,875,6,0,0,0,0.006857143,0,0,0,1,1,1,33,0,0,0,0,0,0,0,0,0,0,0,0,0,0,0
644356817,921600.0,1.0,1308.5803,0.0,19021,8,0.0,875,6,0,0,0,0.006857143,0,0,0,1,1,1,33,0,0,0,0,0,0,0,0,0,0,0,0,0,0,0
645116774,921600.0,1.0,1196.1208,0.0,19045,8,0.0,875,6,0,0,0,0.006857143,0,0,0,1,1,1,33,0,0,0,0,0,0,0,0,0,0,0,0,0,0,0
646624569,921600.0,1.0,1309.3176,0.0,19090,8,0.0,875,6,0,0,0,0.006857143,0,0,0,1,1,1,33,0,0,0,0,0,0,0,0,0,0,0,0,0,0,0
647385672,921600.0,1.0,1196.195,0.0,19116,8,0.0,875,6,0,0,0,0.006857143,0,0,0,1,1,1,33,0,0,0,0,0,0,0,0,0,0,0,0,0,0,0
648140587,921600.0,1.0,1310.9856,0.0,19140,8,0.0,875,6,0,0,0,0.006857143,0,0,0,1,1,1,33,0,0,0,0,0,0,0,0,0,0,0,0,0,0,0
649654450,921600.0,1.0,1196.0897,0.0,19185,8,0.0,875,6,0,0,0,0.006857143,0,0,0,1,1,1,33,0,0,0,0,0,0,0,0,0,0,0,0,0,0,0
650409534,921600.0,1.0,1310.6763,0.0,19208,8,2.9992592,875,6,0,0,0,0.006857143,0,0,0,1,1,1,33,0,0,0,0,0,0,0,0,0,0,0,0,0,0,0
651164923,921600.0,1.0,1196.5477,0.0,19236,8,0.0,875,6,0,0,0,0.006857143,0,0,0,1,1,1,33,0,0,0,0,0,0,0,0,0,0,0,0,0,0,0
652566116,921600.0,1.0,1368.7236,0.0,19276,8,32.993336,877,44,0,0,0,0.050171036,0,0,0,1,1,1,33,0,1,0,0,0,0,0,0,0,0,0,0,0,0,0
653484114,921600.0,1.0,1193.2175,0.0,19306,8,34.8894,878,44,0,0,0,0.050113894,0,0,0,1,1,1,33,0,1,0,0,0,0,0,0,0,0,0,0,0,0,0
654241521,921600.0,1.0,1306.0098,0.0,19329,8,0.0,878,44,0,0,0,0.050113894,0,0,0,1,1,1,33,0,0,0,0,0,0,0,0,0,0,0,0,0,0,0
655715039,921600.0,1.0,1196.4556,0.0,19374,8,0.0,879,46,0,0,0,0.052332196,0,0,0,1,1,1,33,0,1,0,0,0,0,0,0,0,0,0,0,0,0,0
656470531,921600.0,1.0,1310.5951,0.0,19398,8,20.993513,879,46,0,0,0,0.052332196,0,0,0,1,1,1,33,0,1,0,0,0,0,0,0,0,0,0,0,0,0,0
657220098,921600.0,1.0,1193.7386,0.0,19423,8,0.0,879,46,0,0,0,0.052332196,0,0,0,1,1,1,33,0,0,0,0,0,0,0,0,0,0,0,0,0,0,0
657981581,921600.0,1.0,1306.6398,0.0,19443,8,0.0,879,46,0,0,0,0.052332196,0,0,0,1,1,1,33,0,0,0,0,0,0,0,0,0,0,0,0,0,0,0
659495954,921600.0,1.0,1196.0874,0.0,19492,8,0.0,879,46,0,0,0,0.052332196,0,0,0,1,1,1,33,0,0,0,0,0,0,0,0,0,0,0,0,0,0,0
660552168,921600.0,1.0,1307.98,0.0,19524,8,0.0,880,50,0,0,0,0.056818184,0,0,0,1,1,1,33,0,1,0,0,0,0,0,0,0,0,0,0,0,0,0
661304961,921600.0,1.0,1195.3624,0.0,19550,8,20.97127,880,50,0,0,0,0.056818184,0,0,0,1,1,1,33,0,1,0,0,0,0,0,0,0,0,0,0,0,0,0
662064908,921600.0,1.0,1365.518,0.0,19570,8,25.933868,881,50,0,0,0,0.056753688,0,0,0,1,1,1,33,0,0,0,0,0,0,0,0,0,0,0,0,0,0,0
663579080,921600.0,1.0,1193.6448,0.0,19621,8,0.0,881,50,0,0,0,0.056753688,0,0,0,1,1,1,33,0,0,0,0,0,0,0,0,0,0,0,0,0,0,0
664337582,921600.0,1.0,1309.6302,0.0,19644,8,0.0,881,50,0,0,0,0.056753688,0,0,0,1,1,1,33,0,0,0,0,0,0,0,0,0,0,0,0,0,0,0
665090527,921600.0,1.0,1194.0209,0.0,19662,8,0.0,881,50,0,0,0,0.056753688,0,0,0,1,1,1,33,0,0,0,0,0,0,0,0,0,0,0,0,0,0,0
666599311,921600.0,1.0,1309.7466,0.0,19714,8,0.0,881,50,0,0,0,0.056753688,0,0,0,1,1,1,33,0,0,0,0,0,0,0,0,0,0,0,0,0,0,0
667690149,921600.0,1.0,1193.6982,0.0,19747,8,20.942074,883,55,0,0,0,0.062287655,0,0,0,1,1,1,33,0,1,0,0,0,0,0,0,0,0,0,0,0,0,0
668442169,921600.0,1.0,1310.9868,0.0,19771,8,20.99979,883,55,0,0,0,0.062287655,0,0,0,1,1,1,33,0,1,0,0,0,0,0,0,0,0,0,0,0,0,0
669686215,921600.0,1.0,1195.8568,0.0,19809,8,0.0,884,56,0,0,0,0.06334842,0,0,0,1,1,1,33,0,1,0,0,0,0,0,0,0,0,0,0,0,0,0
670680063,921600.0,1.0,1345.9513,0.0,19839,8,20.921522,885,56,0,0,0,0.063276835,0,0,0,1,1,1,33,0,1,0,0,0,0,0,0,0,0,0,0,0,0,0
671440695,921600.0,1.0,1194.6597,0.0,19867,8,20.958942,886,56,0,0,0,0.06320542,0,0,0,1,1,1,33,0,1,0,0,0,0,0,0,0,0,0,0,0,0,0
672591346,921600.0,1.0,1393.2699,0.0,19901,8,46.840977,887,56,0,0,0,0.06313416,0,0,0,1,1,1,33,0,1,0,0,0,0,0,0,0,0,0,0,0,0,0
673679982,921600.0,1.0,1195.7766,0.0,19935,8,20.978539,889,56,0,0,0,0.062992126,0,0,0,1,1,1,33,0,1,0,0,0,0,0,0,0,0,0,0,0,0,0
674437957,921600.0,1.0,1310.358,0.0,19959,8,20.989716,889,56,0,0,0,0.062992126,0,0,0,1,1,1,33,0,1,0,0,0,0,0,0,0,0,0,0,0,0,0
675503762,921600.0,1.0,1196.5405,0.0,19992,8,20.99194,890,56,0,0,0,0.062921345,0,0,0,1,1,1,33,0,1,0,0,0,0,0,0,0,0,0,0,0,0,0
676501582,921600.0,1.0,1309.396,0.0,20022,8,20.974306,891,56,0,0,0,0.06285073,0,0,0,1,1,1,33,0,1,0,0,0,0,0,0,0,0,0,0,0,0,0
677600830,921600.0,1.0,1194.451,0.0,20058,8,20.955282,892,56,0,0,0,0.06278027,0,0,0,1,1,1,33,0,1,0,0,0,0,0,0,0,0,0,0,0,0,0
678567075,921600.0,1.0,1310.1091,0.0,20086,8,20.985731,893,56,0,0,0,0.062709965,0,0,0,1,1,1,33,0,1,0,0,0,0,0,0,0,0,0,0,0,0,0
679487089,921600.0,1.0,1196.6194,0.0,20116,8,20.993322,894,56,0,0,0,0.06263982,0,0,0,1,1,1,33,0,1,0,0,0,0,0,0,0,0,0,0,0,0,0
680637700,921600.0,1.0,1306.9928,0.0,20150,8,0.0,895,56,0,0,0,0.062569834,0,0,0,1,1,1,33,0,1,0,0,0,0,0,0,0,0,0,0,0,0,0
681481516,921600.0,1.0,1194.9852,0.0,20180,8,41.92931,896,56,0,0,0,0.0625,0,0,0,1,1,1,33,0,1,0,0,0,0,0,0,0,0,0,0,0,0,0
682479763,921600.0,1.0,1368.9001,0.0,20210,8,46.99657,898,56,0,0,0,0.0623608,0,0,0,1,1,1,33,0,1,0,0,0,0,0,0,0,0,0,0,0,0,0
683637408,921600.0,1.0,1196.4316,0.0,20246,8,0.0,899,56,0,0,0,0.062291436,0,0,0,1,1,1,33,0,1,0,0,0,0,0,0,0,0,0,0,0,0,0
684550581,921600.0,1.0,1307.7516,0.0,20274,8,41.89593,900,56,0,0,0,0.062222224,0,0,0,1,1,1,33,0,1,0,0,0,0,0,0,0,0,0,0,0,0,0
685710484,921600.0,1.0,1194.7812,0.0,20310,8,0.0,901,56,0,0,0,0.062153164,0,0,0,1,1,1,33,0,1,0,0,0,0,0,0,0,0,0,0,0,0,0
686656535,921600.0,1.0,1307.0879,0.0,20340,8,50.847813,903,56,0,0,0,0.062015504,0,0,0,1,1,1,33,0,1,0,0,0,0,0,0,0,0,0,0,0,0,0
687545545,921600.0,1.0,1283.2865,0.0,20369,8,102.942764,904,56,0,0,0,0.061946902,0,0,0,1,1,1,33,0,1,0,0,0,0,0,0,0,0,0,0,0,0,0
688620644,921600.0,1.0,1307.5338,0.0,20401,8,20.944477,905,56,0,0,0,0.061878454,0,0,0,1,1,1,33,0,1,0,0,0,0,0,0,0,0,0,0,0,0,0
689597998,921600.0,1.0,1195.6274,0.0,20432,8,20.97592,906,56,0,0,0,0.061810154,0,0,0,1,1,1,33,0,1,0,0,0,0,0,0,0,0,0,0,0,0,0
690542102,921600.0,1.0,1310.0345,0.0,20461,8,20.984535,907,56,0,0,0,0.061742008,0,0,0,1,1,1,33,0,1,0,0,0,0,0,0,0,0,0,0,0,0,0
691688014,921600.0,1.0,1190.8766,0.0,20498,8,0.0,909,56,0,0,0,0.06160616,0,0,0,1,1,1,33,0,1,0,0,0,0,0,0,0,0,0,0,0,0,0
692610047,921600.0,1.0,1367.9318,0.0,20527,8,67.94694,910,56,0,0,0,0.06153846,0,0,0,1,1,1,33,0,1,0,0,0,0,0,0,0,0,0,0,0,0,0
693676614,921600.0,1.0,1195.8138,0.0,20560,8,0.0,911,56,0,0,0,0.06147091,0,0,0,1,1,1,33,0,1,0,0,0,0,0,0,0,0,0,0,0,0,0
694670986,921600.0,1.0,1307.5063,0.0,20590,8,20.944038,912,56,0,0,0,0.06140351,0,0,0,1,1,1,33,0,1,0,0,0,0,0,0,0,0,0,0,0,0,0
695595089,921600.0,1.0,1196.5117,0.0,20620,8,41.98287,913,56,0,0,0,0.061336253,0,0,0,1,1,1,33,0,1,0,0,0,0,0,0,0,0,0,0,0,0,0
696666176,921600.0,1.0,1310.8256,0.0,20652,8,0.0,914,56,0,0,0,0.061269145,0,0,0,1,1,1,33,0,1,0,0,0,0,0,0,0,0,0,0,0,0,0
697671685,921600.0,1.0,1193.4138,0.0,20686,8,20.937084,916,56,0,0,0,0.06113537,0,0,0,1,1,1,33,0,1,0,0,0,0,0,0,0,0,0,0,0,0,0
