timestamp,time_utc_usec,device_id,lat,lon,alt,alt_ellipsoid,s_variance_m_s,c_variance_rad,eph,epv,hdop,vdop,noise_per_ms,jamming_indicator,vel_m_s,vel_n_m_s,vel_e_m_s,vel_d_m_s,cog_rad,timestamp_time_relative,heading,heading_offset,automatic_gain_control,fix_type,jamming_state,vel_ned_valid,satellites_used
394691196,1627401603200096,11010077,386218859,-91532949,53370,101596,1.3440001,0.6437645,5.5030003,12.834001,1.17,2.45,88,5,1.2470001,-0.647,1.0660001,-0.58100003,4.789542,0,nan,0.0,2652,3,0,1,8
394890452,1627401603400096,11010077,386218853,-91532938,53296,101522,1.1090001,0.64381176,5.498,12.835001,1.17,2.45,88,5,0.51000005,0.044000003,0.508,0.36800003,4.789542,0,nan,0.0,2652,3,0,1,8
395701667,1627401604200096,11010077,386218826,-91532975,54292,102518,1.5780001,0.64406675,5.491,12.867001,1.17,2.45,88,5,0.59300005,-0.492,-0.33,0.52000004,4.789542,0,nan,0.0,2652,3,0,1,8
396692562,1627401605200096,11010077,386218795,-91532995,53755,101981,1.588,0.69148684,5.504,12.84,1.17,2.45,88,19,2.1090002,2.0800002,0.35200003,0.45100003,5.3220854,0,nan,0.0,2652,3,0,1,8
397692429,1627401606200096,11010077,386218804,-91532949,52000,100225,1.2880001,0.6131228,5.499,12.821001,1.17,2.45,88,6,0.77800006,-0.31800002,-0.71000004,0.20700002,0.67075515,0,nan,0.0,2652,3,0,1,8
398693460,1627401607200097,11010077,386218782,-91532961,50915,99141,1.3920001,0.74926406,5.4360003,12.693001,1.17,2.45,88,14,0.517,-0.097,-0.508,0.744,1.1557313,0,nan,0.0,2652,3,0,1,8
399694435,1627401608200097,11010077,386218756,-91532865,52726,100952,1.5050001,0.62561184,5.366,12.611001,1.17,2.45,88,33,2.2220001,-0.568,2.1490002,0.63000005,1.5526394,0,nan,0.0,2652,3,0,1,8
400686012,1627401609200097,11010077,386218692,-91532860,49239,97464,1.4820001,0.6259471,5.3900003,12.672001,1.17,2.45,88,8,0.314,-0.266,-0.16600001,1.279,1.5526394,0,nan,0.0,2652,3,0,1,8
401689642,1627401610200097,11010077,386218723,-91532776,48711,96937,1.6980001,0.5554687,5.4160004,12.714001,1.17,2.45,89,10,0.65000004,0.187,0.623,0.675,1.0850682,0,nan,0.0,2652,3,0,1,8
402690520,1627401611200097,11010077,386218675,-91532711,49861,98087,1.2340001,0.55584425,5.425,12.689,1.17,2.44,89,6,0.544,-0.531,-0.116000004,0.094000004,1.0850682,0,nan,0.0,2652,3,0,1,8
403687195,1627401612200097,11010077,386218693,-91532792,49238,97464,1.342,0.55618775,5.407,12.682,1.17,2.44,89,5,0.98,-0.48800004,0.85,0.441,1.0850682,0,nan,0.0,2652,3,0,1,8
404692032,1627401613200097,11010077,386218734,-91532910,51877,100102,1.4230001,0.44515145,5.407,12.701,1.17,2.44,89,5,2.775,1.7340001,-2.167,-0.551,5.5022435,0,nan,0.0,2652,3,0,1,8
405693437,1627401614200097,11010077,386218744,-91533002,50867,99093,1.7750001,0.4456913,5.447,12.750001,1.17,2.44,89,11,0.22700001,-0.035,-0.224,0.30600002,5.5022435,0,nan,0.0,2652,3,0,1,8
406685686,1627401615200097,11010077,386218726,-91533041,49054,97280,1.531,0.44619393,5.426,12.674001,1.17,2.44,89,20,0.634,0.469,-0.42700002,0.342,5.5022435,0,nan,0.0,2652,3,0,1,8
407690816,1627401616200097,11010077,386218705,-91533085,47697,95923,1.5860001,0.4466458,5.3640003,12.485001,1.17,2.44,89,23,0.76900005,-0.72400004,-0.25800002,0.675,5.5022435,0,nan,0.0,2730,3,0,1,8
408691577,1627401617200097,11010077,386218715,-91533047,48977,97202,1.468,0.44712803,5.347,12.516001,1.17,2.44,89,4,1.307,0.411,1.241,1.069,5.5022435,0,nan,0.0,2730,3,0,1,8
409689478,1627401618200098,11010077,386218665,-91533026,50240,98466,2.0370002,0.4476204,5.4030004,12.559001,1.17,2.44,89,6,1.32,-1.121,-0.697,0.397,5.5022435,0,nan,0.0,2574,3,0,1,8
410687761,1627401619200098,11010077,386218547,-91533097,50908,99134,1.3970001,0.62264514,5.472,12.620001,1.17,2.44,89,7,0.52900004,0.15400001,-0.50600004,-0.26000002,3.6032524,0,nan,0.0,2574,3,0,1,8
411689627,1627401620200098,11010077,386218489,-91533120,49908,98133,1.8620001,0.62306297,5.5820003,12.776001,1.17,2.44,89,4,1.6350001,-0.53000003,-1.547,0.365,3.6032524,0,nan,0.0,2574,3,0,1,8
412694575,1627401621200098,11010077,386218491,-91533075,51986,100211,1.6500001,0.6234232,5.635,12.807,1.17,2.44,89,18,0.49500003,0.067,0.49,-0.467,3.6032524,0,nan,0.0,2652,3,0,1,8
413690439,1627401622200098,11010077,386218485,-91533014,53164,101390,1.8140001,0.6238243,5.7260003,12.948001,1.17,2.44,89,6,0.75500005,0.15,0.74,-0.48700002,3.6032524,0,nan,0.0,2574,3,0,1,8
414690346,1627401623200098,11010077,386218472,-91533035,52336,100562,1.6,0.6241871,5.8290005,13.128,1.17,2.44,89,8,0.05,-0.030000001,-0.040000003,-0.342,3.6032524,0,nan,0.0,2574,3,0,1,8
415691033,1627401624200098,11010077,386218484,-91533124,51536,99762,1.7860001,0.6245401,5.861,13.202001,1.17,2.44,88,16,0.573,-0.37100002,-0.43600002,0.011000001,3.6032524,0,nan,0.0,2574,3,0,1,8
416692418,1627401625200098,11010077,386218500,-91533072,52603,100829,1.6840001,0.6249179,5.8910003,13.297001,1.17,2.44,83,20,0.65500003,0.62100005,0.209,-0.057000004,3.6032524,0,nan,0.0,2574,3,0,1,8
417689534,1627401626200098,11010077,386218546,-91533088,52213,100439,1.5830001,0.7236236,5.9350004,13.426001,1.17,2.44,83,4,2.1950002,1.144,-1.8740001,-0.23500001,4.311669,0,nan,0.0,2574,3,0,1,8
418689737,1627401627200098,11010077,386218588,-91533070,53263,101488,1.7820001,0.723976,5.998,13.603001,1.17,2.44,83,4,1.8360001,1.8310001,0.136,-1.366,4.311669,0,nan,0.0,2574,3,0,1,8
420686463,1627401629200099,11010077,386218623,-91533076,53162,101388,1.4870001,0.72461915,6.0790005,13.931001,1.17,2.44,83,4,0.878,0.878,0.015000001,-0.17400001,4.311669,0,nan,0.0,2496,3,0,1,8
421689427,1627401630200099,11010077,386218599,-91533026,53654,101880,1.9890001,0.72493523,6.0950003,14.069,1.17,2.44,83,5,1.491,-1.4540001,0.33,0.446,4.311669,0,nan,0.0,2496,3,0,1,8
422688824,1627401631200099,11010077,386218549,-91533019,55110,103335,1.577,0.72524226,6.129,14.160001,1.17,2.44,83,23,0.19800001,-0.18300001,0.07700001,-0.80500007,4.311669,0,nan,0.0,2496,3,0,1,8
423693724,1627401632200099,11010077,386218564,-91532942,56114,104340,1.715,0.7853695,6.1460004,14.271001,1.17,2.44,83,5,1.988,0.149,1.983,-0.85300004,3.0149848,0,nan,0.0,2496,3,0,1,8
424690492,1627401633200099,11010077,386218565,-91532975,56978,105204,1.5940001,0.7856762,6.1720004,14.434001,1.17,2.44,83,4,1.4430001,0.94900006,-1.087,-1.6610001,3.0149848,0,nan,0.0,2496,3,0,1,8
425696024,1627401634200099,11010077,386218547,-91533021,54547,102772,1.7110001,0.78596765,6.1910005,14.51,1.17,2.44,83,20,1.1780001,0.23600002,-1.154,0.202,3.0149848,0,nan,0.0,2496,3,0,1,8
427697123,1627401636200099,11010077,386218971,-91533243,53262,101488,1.5100001,0.25283763,6.2530003,14.626,1.17,2.44,83,10,6.2200003,5.6860003,-2.5210001,1.1550001,5.876238,0,nan,0.0,2496,3,0,1,8
428697598,1627401637200099,11010077,386219575,-91533535,54427,102653,2.005,0.19005223,6.2700005,14.659,1.17,2.44,83,15,9.113001,8.185,-4.007,-1.478,5.827985,0,nan,0.0,2496,3,0,1,8
429692785,1627401638200099,11010077,386220336,-91534124,57919,106145,2.0300002,0.17041203,6.4150004,14.887001,1.17,2.44,83,13,10.929001,8.5130005,-6.854,-3.0110002,5.6053305,0,nan,0.0,2496,3,0,1,8
430694423,1627401639200099,11010077,386220959,-91534821,61431,109657,1.9030001,0.17653586,6.5610003,15.093,1.17,2.44,83,8,9.339001,7.7230005,-5.2510004,-3.3000002,5.686052,0,nan,0.0,2496,3,0,1,8
431691189,1627401640200100,11010077,386221678,-91535280,67234,115460,2.0340002,0.16217704,6.6050005,15.176001,1.17,2.44,83,21,10.759001,9.88,-4.26,-2.4840002,5.876139,0,nan,0.0,2496,3,0,1,8
432695841,1627401641200100,11010077,386222608,-91535799,70076,118302,1.5790001,0.11985909,6.5610003,15.193001,1.17,2.44,83,18,12.188001,11.195001,-4.8180003,-2.4420002,5.8767786,0,nan,0.0,2496,3,0,1,8
433691663,1627401642200100,11010077,386223728,-91536288,71365,119591,2.1780002,0.15881744,6.6000004,15.340001,1.17,2.44,83,7,12.499001,12.153001,-2.924,-1.6860001,6.047099,0,nan,0.0,2496,3,0,1,8
434688766,1627401643200100,11010077,386224855,-91536787,78060,126286,1.7680001,0.12766297,6.682,15.47,1.17,2.44,83,7,14.498001,13.266001,-5.8500004,-3.466,5.867822,0,nan,0.0,2496,3,0,1,8
435697450,1627401644200100,11010077,386226103,-91537428,82948,131174,1.909,0.13873954,6.7170005,15.545001,1.17,2.44,82,10,13.846001,13.116,-4.438,-1.5630001,5.9569407,0,nan,0.0,2496,3,0,1,8
436693453,1627401645200100,11010077,386227574,-91538155,83825,132051,1.595,0.09244432,6.7450004,15.559001,1.17,2.44,82,10,19.183,18.371,-5.5220003,0.66200006,5.9911847,0,nan,0.0,2496,3,0,1,8
437689182,1627401646200100,11010077,386229164,-91538468,88107,136334,1.9840001,0.1301485,6.8050003,15.644001,1.17,2.44,82,6,15.864,15.845001,-0.768,-6.42,6.234736,0,nan,0.0,2496,3,0,1,8
438692420,1627401647200100,11010077,386230346,-91538237,94083,142310,2.1000001,0.1037792,6.7860003,15.558001,1.17,2.44,82,27,16.493,16.126001,3.4600003,-5.545,0.21138084,0,nan,0.0,2496,3,0,1,8
439691415,1627401648200100,11010077,386231568,-91537518,94570,142797,2.167,0.10432059,6.78,15.555,1.17,2.44,82,8,16.730001,13.132001,10.365001,-2.23,0.6681946,0,nan,0.0,2496,3,0,1,8
440690296,1627401649200100,11010077,386232620,-91536233,92508,140734,1.9310001,0.11332335,6.7250004,15.468,1.31,2.44,82,32,15.346001,10.200001,11.465,-0.54300004,0.8437608,0,nan,0.0,2496,3,0,1,7
441688626,1627401650200100,11010077,386233486,-91534889,93113,141340,1.84,0.12197425,6.6910005,15.515,1.31,2.44,82,21,14.551001,9.369,11.134001,0.087000005,0.8712704,0,nan,0.0,2496,3,0,1,7
442692431,1627401651200101,11010077,386234246,-91533661,91291,139518,1.7780001,0.123752564,6.7390003,15.581,1.31,2.44,83,6,15.693001,9.632001,12.3880005,0.98100007,0.90990055,0,nan,0.0,2496,3,0,1,7
443694245,1627401652200101,11010077,386234966,-91531875,88325,136552,1.866,0.09407499,6.7860003,15.620001,1.31,2.44,83,9,19.783,5.116,19.11,0.99700004,1.3092421,0,nan,0.0,2496,3,0,1,7
444688720,1627401653200101,11010077,386234934,-91529562,87572,135799,1.8900001,0.121812105,6.742,15.423,1.31,2.44,83,6,20.207,-3.282,19.939001,-5.0330005,1.7339476,0,nan,0.0,2496,3,0,1,7
445695200,1627401654200101,11010077,386234529,-91527098,90492,138719,1.7310001,0.105237596,6.7230005,15.135001,1.17,2.44,83,27,23.077002,-6.202,22.228,-5.617,1.8428859,0,nan,0.0,2496,3,0,1,8
446690091,1627401655200101,11010077,386233772,-91524620,92387,140613,1.6730001,0.09067178,6.7530003,15.033001,1.3399999,2.55,83,7,24.488,-12.689,20.944,-1.3720001,2.1154914,0,nan,0.0,2496,3,0,1,7
447696010,1627401656200101,11010077,386232489,-91522269,92667,140894,1.817,0.08427426,6.7440004,14.908001,1.3399999,2.55,83,6,25.488,-16.132,19.734001,-1.6500001,2.2561057,0,nan,0.0,2496,3,0,1,7
448696538,1627401657200101,11010077,386230913,-91520067,92885,141112,1.58,0.07348133,6.6730003,14.678,1.17,2.4299998,83,15,26.738,-16.995,20.642,-1.6630001,2.2595873,0,nan,0.0,2496,3,0,1,8
449697229,1627401658200101,11010077,386228918,-91518037,92240,140467,1.8920001,0.0760522,6.6870003,14.607,1.17,2.4299998,83,9,29.034002,-25.077002,14.632001,-2.535,2.6134067,0,nan,0.0,2496,3,0,1,8
450697522,1627401659200101,11010077,386226800,-91516154,90256,138482,2.0630002,0.06941751,6.7580004,14.446001,1.17,2.4299998,83,8,29.818,-25.272001,15.827001,-2.278,2.582089,0,nan,0.0,2496,3,0,1,8
451698274,1627401660200101,11010077,386224467,-91514513,88238,136464,2.174,0.05686492,6.7500005,14.335001,1.17,2.4299998,83,16,28.418001,-25.462002,12.619,-1.2420001,2.6814637,0,nan,0.0,2496,3,0,1,8
452693499,1627401661200102,11010077,386222186,-91513047,87694,135920,2.055,0.05688918,6.728,14.338,1.17,2.4299998,83,8,29.44,-26.241001,13.348001,-0.89900005,2.6710346,0,nan,0.0,2496,3,0,1,8
453699612,1627401662200102,11010077,386219777,-91511651,87989,136215,2.088,0.0636265,6.7690005,14.378,1.17,2.4299998,83,9,29.141,-26.142002,12.877001,-0.827,2.6838806,0,nan,0.0,2496,3,0,1,8
454690830,1627401663200102,11010077,386217411,-91510358,88757,136983,2.0600002,0.056292627,6.8020005,14.356001,1.17,2.4299998,83,27,28.552002,-26.235,11.265,-0.70000005,2.7360113,0,nan,0.0,2496,3,0,1,8
455692056,1627401664200102,11010077,386215001,-91509323,88770,136995,2.079,0.045392524,6.7590003,14.215001,1.17,2.4299998,83,7,28.768002,-27.862001,7.163,-0.462,2.8899672,0,nan,0.0,2496,3,0,1,8
456701360,1627401665200102,11010077,386212406,-91508781,86192,134417,1.7800001,0.038147837,6.6610003,13.981001,1.17,2.4299998,83,7,30.251001,-30.157001,2.3820002,1.07,3.062785,0,nan,0.0,2496,3,0,1,8
457696578,1627401666200102,11010077,386209721,-91508825,82645,130871,1.7450001,0.039589826,6.5550003,13.6380005,1.17,2.4299998,83,28,28.942001,-28.887001,-1.7780001,1.6110001,3.203065,0,nan,0.0,2496,3,0,1,8
458692436,1627401667200102,11010077,386207130,-91509530,82599,130824,2.3140001,0.056370642,6.4760003,13.517,1.17,2.4299998,83,6,27.549002,-25.920002,-9.331,-5.1530004,3.4871569,0,nan,0.0,2496,3,0,1,8
459697452,1627401668200102,11010077,386205140,-91511343,85244,133469,2.1720002,0.0845352,6.5270004,13.542001,1.17,2.4299998,83,9,25.159,-18.381,-17.178001,-3.1840003,3.8931687,0,nan,0.0,2496,3,0,1,8
460694416,1627401669200102,11010077,386203650,-91513505,86284,134509,1.373,0.06617677,6.4290004,13.434001,1.17,2.4299998,83,8,24.665,-16.137001,-18.654001,0.61700004,3.999232,0,nan,0.0,2496,3,0,1,8
461693537,1627401670200103,11010077,386202375,-91515885,76017,124242,1.327,0.068594575,6.3480005,13.2560005,1.17,2.4299998,83,24,23.51,-10.097,-21.232,6.7060003,4.2684975,0,nan,0.0,2496,3,0,1,8
462694406,1627401671200103,11010077,386201710,-91518290,70290,118515,1.3330001,0.081459746,6.306,13.1640005,1.17,2.4299998,83,14,20.689001,-2.125,-20.579,4.2770004,4.6094913,0,nan,0.0,2496,3,0,1,8
463694434,1627401672200103,11010077,386202057,-91520341,70090,118315,1.6730001,0.08610722,6.2300005,13.077001,1.17,2.4299998,83,9,17.632,7.5010004,-15.957001,1.154,5.1518216,0,nan,0.0,2496,3,0,1,8
464695773,1627401673200103,11010077,386202857,-91522004,68052,116277,2.2340002,0.114538975,6.26,13.149,1.42,3.1799998,83,24,15.691001,10.019,-12.076,2.647,5.4049497,0,nan,0.0,2496,3,0,1,7
465695985,1627401674200103,11010077,386203869,-91523386,63011,111236,1.7070001,0.08506071,6.3110003,13.243001,1.42,3.1799998,83,6,16.636002,13.47,-9.7630005,4.275,5.656051,0,nan,0.0,2496,3,0,1,7
466696461,1627401675200103,11010077,386205201,-91524507,56992,105217,1.9440001,0.10142701,6.2960005,13.397,1.42,3.1799998,83,10,18.304,15.826001,-9.1970005,4.8100004,5.756753,0,nan,0.0,2496,3,0,1,7
467697160,1627401676200103,11010077,386206583,-91525729,54395,102620,2.187,0.124265514,6.425,13.683001,1.42,3.1799998,83,21,17.389,14.080001,-10.205001,-3.134,5.6560335,0,nan,0.0,2496,3,0,1,7
468697434,1627401677200103,11010077,386207966,-91526611,58473,106698,2.15,0.1303513,6.571,13.916,1.17,2.4299998,83,22,16.376001,15.003,-6.564,-1.9080001,5.870731,0,nan,0.0,2496,3,0,1,8
469693286,1627401678200103,11010077,386209318,-91527328,54454,102679,1.71,0.12790523,6.616,14.124001,1.17,2.4299998,84,8,14.981001,14.395,-4.15,2.9440002,6.002525,0,nan,0.0,2496,3,0,1,8
471690433,1627401680200104,11010077,386211498,-91529242,46216,94442,2.351,0.22088799,6.8120003,14.678,1.17,2.4299998,84,5,10.087001,8.784,-4.959,0.606,5.7692595,0,nan,0.0,2496,3,0,1,8
472699897,1627401681200104,11010077,386212484,-91529997,46993,95219,2.1560001,0.17676467,6.945,14.848001,1.17,2.4299998,84,7,12.618001,11.1,-6.0020003,0.078,5.7875085,0,nan,0.0,2496,3,0,1,8
473700391,1627401682200104,11010077,386213624,-91530595,44548,92773,1.812,0.13264711,6.9960003,14.963,1.17,2.4299998,84,10,14.853001,14.117001,-4.618,0.98200005,5.9670353,0,nan,0.0,2496,3,0,1,8
475702225,1627401684200104,11010077,386216046,-91531661,36747,84973,1.567,0.12528637,6.985,15.225,1.17,2.4299998,84,8,14.990001,13.790001,-5.8750005,5.282,5.880439,0,nan,0.0,2496,3,0,1,8
476692913,1627401685200104,11010077,386217087,-91532489,33948,82174,1.843,0.17329007,6.9600005,15.342001,1.17,2.4299998,84,12,11.893001,9.862,-6.6460004,-1.7300001,5.6901813,0,nan,0.0,2496,3,0,1,8
478693642,1627401687200104,11010077,386218680,-91533673,41295,89521,1.8720001,0.1983181,7.0120006,15.541,1.17,2.4299998,84,4,11.219001,8.019,-7.846,-0.703,5.50868,0,nan,0.0,2496,3,0,1,8
479698236,1627401688200105,11010077,386219685,-91534415,46361,94587,2.693,0.22266018,7.1840005,15.801001,1.17,2.4299998,84,9,11.978001,10.361,-6.01,-0.43,5.7575817,0,nan,0.0,2496,3,0,1,8
480693460,1627401689200105,11010077,386220943,-91535245,47121,95347,1.9990001,0.11714859,7.2960005,15.938001,1.17,2.4299998,84,28,16.237001,14.343,-7.6110005,-0.194,5.7953444,0,nan,0.0,2496,3,0,1,8
481695366,1627401690200105,11010077,386222311,-91536076,48104,96330,1.9070001,0.116597936,7.2960005,15.908001,1.17,2.4299998,84,13,16.639,15.377001,-6.3570004,-0.89500004,5.891149,0,nan,0.0,2496,3,0,1,8
482695110,1627401691200105,11010077,386223672,-91536551,52730,100956,2.2120001,0.13288116,7.2830005,15.920001,1.17,2.4299998,84,9,15.181001,14.7890005,-3.426,-5.092,6.055549,0,nan,0.0,2496,3,0,1,8
483705436,1627401692200105,11010077,386224822,-91536505,68802,117028,1.6890001,0.1488935,7.2770004,15.954,1.17,2.4299998,84,21,11.595,11.593,-0.224,-9.655001,6.2638354,0,nan,0.0,2496,3,0,1,8
484695990,1627401693200105,11010077,386225770,-91536248,78267,126494,1.9260001,0.15240233,7.2880006,16.053001,1.17,2.4299998,84,27,12.016001,11.746,2.5340002,-3.3240001,0.2124872,0,nan,0.0,2496,3,0,1,8
486706015,1627401695200105,11010077,386227856,-91535414,74490,122716,1.557,0.116600215,7.0800004,16.067001,1.17,2.4299998,84,26,13.074,12.769001,2.808,-1.9000001,0.21644299,0,nan,0.0,2496,3,0,1,8
487703258,1627401696200105,11010077,386229076,-91535024,79795,128021,1.9150001,0.12803037,7.0210004,16.092001,1.17,2.4299998,84,14,12.427001,11.6310005,4.375,-4.9740005,0.35975787,0,nan,0.0,2496,3,0,1,8
488697581,1627401697200106,11010077,386230036,-91534428,86180,134406,1.9110001,0.124735884,6.939,16.038,1.17,2.4299998,84,7,12.422001,9.895,7.51,-4.5530005,0.6492548,0,nan,0.0,2496,3,0,1,8
489699244,1627401698200106,11010077,386230916,-91533368,92760,140986,1.9980001,0.19476967,6.9300003,16.143002,1.17,2.4299998,84,24,13.814001,7.7260003,11.451,-4.2250004,0.97722566,0,nan,0.0,2496,3,0,1,8
490709165,1627401699200106,11010077,386231374,-91531593,98514,146741,2.0970001,0.10478991,6.951,16.233002,1.17,2.4299998,84,26,18.107,4.217,17.609001,-4.5420003,1.3357296,0,nan,0.0,2496,3,0,1,8
492699870,1627401701200106,11010077,386231156,-91527460,100381,148607,1.7080001,0.07596702,6.6800003,15.85,1.17,2.4299998,84,9,21.092001,-5.629,20.327002,-1.756,1.8409437,0,nan,0.0,2496,3,0,1,8
493699432,1627401702200106,11010077,386230469,-91525131,101880,150107,1.463,0.061626352,6.5590005,15.6710005,1.17,2.4199998,84,25,22.585001,-10.257001,20.121,-1.2870001,2.0422282,0,nan,0.0,2496,3,0,1,8
494693459,1627401703200106,11010077,386229316,-91522851,99885,148112,1.4840001,0.07074081,6.4750004,15.411001,1.17,2.4199998,84,6,24.748001,-13.924001,20.459002,0.22600001,2.1683664,0,nan,0.0,2496,3,0,1,8
495696156,1627401704200106,11010077,386228044,-91520513,99228,147455,1.6980001,0.09096027,6.465,15.329,1.17,2.4199998,84,11,24.687,-13.203001,20.86,2.7340002,2.1350927,0,nan,0.0,2496,3,0,1,8
496702015,1627401705200106,11010077,386226777,-91518177,102013,150239,1.5710001,0.08524938,6.5340004,15.323001,1.17,2.4199998,84,6,25.118002,-15.204,19.994001,0.82100004,2.2209413,0,nan,0.0,2496,3,0,1,8
499703254,1627401708200107,11010077,386221809,-91511485,110542,158769,1.779,0.061004143,6.656,15.320001,1.64,4.02,84,9,27.543001,-22.326,16.130001,0.0,2.5159357,0,nan,0.0,2496,3,0,1,7
500703812,1627401709200107,11010077,386219456,-91509861,111405,159631,2.237,0.05972499,6.708,15.479001,1.64,4.02,84,30,29.049002,-26.371002,12.183001,-6.236,2.7088256,0,nan,0.0,2496,3,0,1,7
501695088,1627401710200107,11010077,386217287,-91508712,116304,164529,1.8160001,0.079838164,6.8760004,15.879001,1.64,4.02,84,8,20.783,-18.803001,8.8550005,-5.7050004,2.7014718,0,nan,0.0,2496,3,0,1,7
502695696,1627401711200107,11010077,386215677,-91508179,133235,181461,2.1660001,0.10189459,7.0490003,16.265001,1.17,2.4199998,84,9,18.697,-18.651001,1.304,-11.675,3.0718155,0,nan,0.0,2496,3,0,1,8
503700728,1627401712200107,11010077,386214475,-91508124,157124,205350,1.95,0.07382655,6.9670005,16.142,1.17,2.4199998,84,16,18.310001,-18.309,0.24200001,-9.521001,3.128374,0,nan,0.0,2496,3,0,1,8
504695629,1627401713200107,11010077,386212755,-91508102,165051,213276,1.5530001,0.056802437,6.8560004,15.788001,1.17,2.4199998,84,29,22.939001,-22.938002,-0.27400002,-4.0340004,3.153534,0,nan,0.0,2496,3,0,1,8
505697201,1627401714200107,11010077,386210655,-91508352,163393,211618,1.8650001,0.061933182,6.775,15.537001,1.17,2.4199998,84,14,24.694,-24.453001,-3.4370003,8.120001,3.2812462,0,nan,0.0,2496,3,0,1,8
506697350,1627401715200108,11010077,386208547,-91509048,158074,206299,2.009,0.060318578,6.6590004,15.306001,1.17,2.4199998,84,26,27.043001,-25.11,-10.040001,10.335,3.5219746,0,nan,0.0,2496,3,0,1,8
507696802,1627401716200108,11010077,386206531,-91510399,158084,206309,1.659,0.06732834,6.5480003,14.939001,1.17,2.4199998,84,6,27.032001,-23.485,-13.385,3.0070002,3.6596014,0,nan,0.0,2496,3,0,1,8
508707343,1627401717200108,11010077,386204866,-91512366,160142,208367,1.217,0.065546885,6.4090004,14.588,1.17,2.4199998,84,9,24.224,-15.528001,-18.593,0.16800001,4.0165715,0,nan,0.0,2496,3,0,1,8
509697492,1627401718200108,11010077,386203793,-91514496,164932,213157,1.5630001,0.091119625,6.3690004,14.477,1.17,2.4199998,84,28,21.689001,-9.109,-19.683,-3.8590002,4.278939,0,nan,0.0,2496,3,0,1,8
510692777,1627401719200108,11010077,386203442,-91516391,165616,213840,1.4970001,0.1051402,6.3180003,14.262001,1.17,2.4199998,84,7,15.436001,-1.3570001,-15.376,0.381,4.624351,0,nan,0.0,2496,3,0,1,8
511698862,1627401720200108,11010077,386203483,-91517936,162092,210317,1.6430001,0.11243428,6.1850004,13.863001,1.17,2.4199998,84,5,12.076,2.637,-11.784,4.1060004,4.932544,0,nan,0.0,2496,3,0,1,8
512699953,1627401721200108,11010077,386203682,-91519137,157587,205812,1.6610001,0.15376751,6.064,13.6050005,1.17,2.4199998,84,30,10.275001,4.3360004,-9.316,6.688,5.147974,0,nan,0.0,2496,3,0,1,8
513698809,1627401722200108,11010077,386204064,-91520144,152590,200815,2.483,0.24227822,6.1120005,13.601001,1.17,2.4199998,84,19,10.139001,5.7580004,-8.345,3.1820002,5.3163204,0,nan,0.0,2496,3,0,1,8
514700939,1627401723200109,11010077,386204493,-91521211,152244,200469,1.8440001,0.17750993,6.2320004,13.703001,1.17,2.4199998,84,12,10.048,5.4760003,-8.425,-0.58400005,5.2887793,0,nan,0.0,2496,3,0,1,8
515700433,1627401724200109,11010077,386204936,-91522135,151704,199929,1.8900001,0.17080735,6.352,13.934001,1.17,2.4199998,84,28,11.005,7.405,-8.141001,1.32,5.450482,0,nan,0.0,2496,3,0,1,8
516711054,1627401725200109,11010077,386205636,-91523072,151567,199792,1.8670001,0.16179027,6.4600005,14.052001,1.17,2.4199998,84,27,13.132001,9.609,-8.951,3.627,5.533217,0,nan,0.0,2496,3,0,1,8
517706227,1627401726200109,11010077,386206486,-91524187,140664,188889,1.764,0.12916152,6.5140004,14.198001,1.17,2.4199998,84,4,15.235001,10.887,-10.658001,7.5020003,5.5084157,0,nan,0.0,2496,3,0,1,8
518702939,1627401727200109,11010077,386207437,-91525531,133372,181597,2.105,0.10263565,6.577,14.379001,1.17,2.4199998,85,14,18.147001,12.102,-13.522,4.276,5.4424453,0,nan,0.0,2496,3,0,1,8
519697127,1627401728200109,11010077,386208501,-91526827,128836,177061,1.9060001,0.12684476,6.6380005,14.542001,1.17,2.4199998,85,24,16.072,12.854001,-9.647,2.3530002,5.63936,0,nan,0.0,2496,3,0,1,8
520702835,1627401729200109,11010077,386209604,-91527595,129510,177735,1.6450001,0.13546564,6.6580005,14.592001,1.17,2.4199998,85,20,13.977,13.067,-4.9610004,0.957,5.920358,0,nan,0.0,2496,3,0,1,8
521698166,1627401730200109,11010077,386210677,-91528286,125902,174127,1.8280001,0.1697893,6.7060003,14.660001,1.17,2.4199998,85,9,13.582001,12.559001,-5.17,2.801,5.892693,0,nan,0.0,2496,3,0,1,8
522703766,1627401731200110,11010077,386211850,-91529080,120689,168914,2.285,0.10483389,6.7110004,14.753,1.17,2.4199998,85,9,17.683,15.928,-7.6790004,4.0550003,5.833967,0,nan,0.0,2496,3,0,1,8
523699093,1627401732200110,11010077,386213141,-91530002,116631,164856,1.7780001,0.118545204,6.748,14.916,1.17,2.4199998,85,6,16.015001,13.700001,-8.294001,3.292,5.738773,0,nan,0.0,2496,3,0,1,8
524699609,1627401733200110,11010077,386214350,-91530985,114246,162472,2.012,0.11200546,6.787,14.988001,1.17,2.4199998,85,5,16.773,14.229001,-8.8810005,0.841,5.7252054,0,nan,0.0,2496,3,0,1,8
525699987,1627401734200110,11010077,386215506,-91531858,113020,161245,1.84,0.1280068,6.853,15.069,1.17,2.4199998,85,6,15.183001,13.491,-6.964,2.664,5.8066616,0,nan,0.0,2496,3,0,1,8
526705335,1627401735200110,11010077,386216587,-91532607,111041,159266,1.9350001,0.13210955,6.8580003,15.151001,1.17,2.4199998,85,8,13.586,11.627001,-7.0280004,-0.952,5.7395005,0,nan,0.0,2496,3,0,1,8
528701167,1627401737200110,11010077,386217987,-91533729,111975,160201,2.0830002,0.19481906,6.839,15.130001,1.17,2.4199998,85,9,10.488001,10.160001,-2.601,0.42700002,6.032552,0,nan,0.0,2496,3,0,1,8
529701274,1627401738200110,11010077,386218867,-91534002,107665,155891,2.183,0.16777675,6.8240004,15.042001,1.17,2.4199998,85,22,10.359,10.117001,-2.2280002,0.82100004,6.0664353,0,nan,0.0,2496,3,0,1,8
530707265,1627401739200111,11010077,386219769,-91534132,108699,156925,1.6800001,0.18160866,6.8100004,14.981001,1.17,2.4199998,85,13,9.272,9.158,-1.4490001,-3.4780002,6.12625,0,nan,0.0,2496,3,0,1,8
531702418,1627401740200111,11010077,386220481,-91534287,106478,154704,2.253,0.29506552,6.8090005,15.117001,1.65,4.0099998,85,16,7.7390003,7.6280003,-1.3080001,-1.215,6.186301,0,nan,0.0,2496,3,0,1,7
532707849,1627401741200111,11010077,386221186,-91534589,107813,156039,2.7250001,0.26024202,6.919,15.52,1.65,4.0099998,85,23,7.6570005,7.2110004,-2.5760002,-1.498,5.909541,0,nan,0.0,2496,3,0,1,7
533703105,1627401742200111,11010077,386221803,-91535074,105920,154146,2.081,0.22486699,7.0530005,15.737,1.17,2.4199998,85,6,10.271001,7.1660004,-7.3580003,-2.295,5.4845624,0,nan,0.0,2496,3,0,1,8
535700432,1627401744200111,11010077,386222696,-91536423,103657,151883,2.0530002,0.19036847,7.076,15.625001,1.17,2.4199998,85,27,10.029,8.946,-4.5340004,-3.9350002,5.814143,0,nan,0.0,2496,3,0,1,8
536700755,1627401745200111,11010077,386223670,-91536949,104033,152259,1.7270001,0.14626645,7.0580006,15.547001,1.17,2.4199998,85,13,12.493001,11.875001,-3.8810003,-0.71400005,5.967322,0,nan,0.0,2496,3,0,1,8
537701250,1627401746200112,11010077,386224787,-91537452,102759,150985,1.6810001,0.15431048,7.025,15.455001,1.17,2.4099998,85,8,12.565001,12.523001,-1.029,-1.7290001,6.2012167,0,nan,0.0,2496,3,0,1,8
538710878,1627401747200112,11010077,386225885,-91537650,106970,155197,1.8520001,0.17307015,7.024,15.571001,1.17,2.4099998,85,9,10.731001,10.466001,-2.371,-4.984,6.060406,0,nan,0.0,2496,3,0,1,8
539702104,1627401748200112,11010077,386226888,-91537771,112260,160486,1.9980001,0.17450011,7.0350003,15.766001,1.17,2.4099998,85,28,11.307,11.146001,-1.899,-4.492,6.1143956,0,nan,0.0,2496,3,0,1,8
540702954,1627401749200112,11010077,386227987,-91537708,115920,164146,1.3700001,0.12368938,6.9530005,15.919001,1.17,2.4099998,85,10,12.416,12.409,-0.418,0.497,6.249486,0,nan,0.0,2496,3,0,1,8
541702245,1627401750200112,11010077,386229064,-91537599,118085,166312,1.5920001,0.14708588,6.912,16.009,1.17,2.4099998,85,9,11.196,11.022,1.9660001,-2.2580001,0.17650078,0,nan,0.0,2496,3,0,1,8
543703826,1627401752200112,11010077,386230602,-91535994,116465,164692,1.779,0.1003107,6.806,16.019001,1.17,2.4099998,85,10,14.591001,6.531,13.048,-2.7310002,1.1067448,0,nan,0.0,2496,3,0,1,8
545704710,1627401754200113,11010077,386231376,-91532378,114870,163097,1.524,0.07726014,6.6120005,15.798,1.17,2.4099998,85,27,18.797,1.8490001,18.705002,2.252,1.4722471,0,nan,0.0,2496,3,0,1,8
546705348,1627401755200113,11010077,386231481,-91530275,110943,159170,1.19,0.08019805,6.484,15.466001,1.17,2.4099998,85,22,16.471,0.661,16.458,4.3320003,1.5306252,0,nan,0.0,2496,3,0,1,8
547704547,1627401756200113,11010077,386231459,-91528296,105835,154061,1.667,0.14155684,6.452,15.175001,1.17,2.4099998,85,24,16.900002,-0.623,16.889,4.7450004,1.6076812,0,nan,0.0,2496,3,0,1,8
549706338,1627401758200113,11010077,386231978,-91524630,87514,135741,1.9690001,0.12817349,6.498,14.874001,1.17,2.4099998,85,21,15.647,7.2130003,13.885,2.4650002,1.0916646,0,nan,0.0,2496,3,0,1,8
551500946,1627401760000113,11010077,386233087,-91522094,87234,135460,1.8750001,0.17357194,6.642,14.995001,1.17,2.4099998,85,7,13.193001,6.5990005,11.424001,-4.67,1.0469471,0,nan,0.0,2496,3,0,1,8
553701997,1627401762200114,11010077,386232676,-91518809,96471,144698,1.286,0.11082457,6.7390003,15.135001,1.17,2.4099998,85,7,14.974001,-6.0520005,13.6970005,0.19500001,1.9868622,0,nan,0.0,2496,3,0,1,8
555708948,1627401764200114,11010077,386230848,-91515651,101264,149490,1.603,0.0958383,6.5950003,14.896001,1.17,2.4099998,85,24,18.743,-13.744,12.744,-5.814,2.3939178,0,nan,0.0,2496,3,0,1,8
556703647,1627401765200114,11010077,386229478,-91514369,103540,151766,1.35,0.07855936,6.558,14.782001,1.17,2.4099998,85,8,19.326,-16.278,10.416,-4.122,2.5723825,0,nan,0.0,2496,3,0,1,8
557704942,1627401766200114,11010077,386228097,-91513089,105872,154098,1.5680001,0.10975223,6.5670004,14.77,1.17,2.4099998,85,11,18.042002,-14.246,11.071,-2.8000002,2.480969,0,nan,0.0,2496,3,0,1,8
558709351,1627401767200114,11010077,386226785,-91511906,108026,156253,1.7670001,0.113963544,6.6150002,14.753,1.17,2.4099998,85,27,18.033,-15.042001,9.946,-4.032,2.5573955,0,nan,0.0,2496,3,0,1,8
559701507,1627401768200114,11010077,386225501,-91510698,111537,159764,2.0110002,0.11331288,6.6510005,14.757001,1.17,2.4099998,85,7,17.855001,-15.208001,9.356001,-4.1520004,2.5900564,0,nan,0.0,2496,3,0,1,8
560705177,1627401769200115,11010077,386224243,-91509436,115490,163716,1.955,0.10444434,6.6600003,14.723001,1.17,2.4099998,85,23,17.244001,-13.835001,10.293,-3.7890003,2.5019557,0,nan,0.0,2496,3,0,1,8
561705667,1627401770200115,11010077,386223052,-91508272,116384,164610,1.7540001,0.13176765,6.6450005,14.681001,1.17,2.4099998,85,30,16.214,-12.243001,10.63,-3.755,2.4265668,0,nan,0.0,2496,3,0,1,8
562700547,1627401771200115,11010077,386221870,-91507071,118832,167058,1.557,0.10329364,6.676,14.679001,1.17,2.4099998,85,25,17.565,-14.208001,10.328,-3.2350001,2.5130064,0,nan,0.0,2496,3,0,1,8
563706064,1627401772200115,11010077,386220586,-91505641,121030,169256,1.8220001,0.10355388,6.7120004,14.7560005,1.17,2.4099998,85,23,20.12,-14.548,13.899001,-1.215,2.3790178,0,nan,0.0,2496,3,0,1,8
564706559,1627401773200115,11010077,386219067,-91504134,115646,163872,1.4790001,0.08372711,6.721,14.76,1.17,2.4099998,85,7,22.09,-17.728,13.179001,3.7150002,2.502336,0,nan,0.0,2496,3,0,1,8
565701654,1627401774200115,11010077,386217341,-91502613,110344,158570,1.8270001,0.074204065,6.6980004,14.667001,1.17,2.4099998,85,15,24.905,-21.195002,13.077001,0.36100003,2.58879,0,nan,0.0,2496,3,0,1,8
566702462,1627401775200115,11010077,386215451,-91501180,110037,158263,1.7010001,0.072476886,6.714,14.667001,1.17,2.4099998,85,16,24.066002,-21.229,11.336,-2.6850002,2.651123,0,nan,0.0,2496,3,0,1,8
567712459,1627401776200116,11010077,386213494,-91500062,112982,161207,1.7580001,0.072326966,6.729,14.6380005,1.17,2.4099998,85,6,22.817001,-21.963001,6.1870003,-4.735,2.8669822,0,nan,0.0,2496,3,0,1,8
568703777,1627401777200116,11010077,386211538,-91499384,117575,165800,2.1030002,0.09335609,6.7580004,14.647,1.17,2.4099998,85,26,23.026001,-22.6,4.4110003,-6.241,2.948828,0,nan,0.0,2496,3,0,1,8
569503826,1627401778000116,11010077,386210142,-91499118,120128,168353,1.6010001,0.0783192,6.7650003,14.683001,1.17,2.4099998,85,18,19.51,-19.297,2.8760002,-2.265,2.993663,0,nan,0.0,2496,3,0,1,8
570504650,1627401779000116,11010077,386208299,-91498767,119208,167434,1.8370001,0.07776506,6.669,14.623001,1.17,2.4099998,85,8,21.529001,-21.264002,3.371,2.433,2.9843845,0,nan,0.0,2496,3,0,1,8
571705124,1627401780200116,11010077,386205878,-91498262,113244,161469,1.59,0.05790112,6.5220003,14.153001,1.17,2.4099998,85,22,24.348001,-24.003,4.084,6.386,2.9730456,0,nan,0.0,2496,3,0,1,8
572705507,1627401781200116,11010077,386203655,-91497892,107606,155831,1.5680001,0.04810686,6.3840003,13.781001,1.17,2.4099998,85,28,25.911001,-25.730001,3.062,4.1930003,3.0231483,0,nan,0.0,2496,3,0,1,8
573505680,1627401782000116,11010077,386201717,-91497708,103213,151438,1.6620001,0.050727293,6.3030005,13.606001,1.17,2.4099998,85,13,27.362001,-27.352001,0.768,2.329,3.1135352,0,nan,0.0,2496,3,0,1,8
574706366,1627401783200116,11010077,386198927,-91498025,101852,150077,1.3360001,0.057922937,6.1980004,13.398001,1.17,2.4099998,85,7,25.842001,-25.480001,-4.3110003,0.07300001,3.3091805,0,nan,0.0,2496,3,0,1,8
575701230,1627401784200117,11010077,386196817,-91498751,103046,151271,1.3700001,0.06303291,6.1010003,13.222001,1.17,2.4099998,85,11,24.215002,-22.344002,-9.332001,-3.5140002,3.5372133,0,nan,0.0,2496,3,0,1,8
576511662,1627401785000117,11010077,386195333,-91499761,105045,153269,1.695,0.06293849,6.097,13.179001,1.17,2.4099998,85,7,24.289001,-20.613,-12.848001,-3.3170002,3.6989474,0,nan,0.0,2496,3,0,1,8
577508033,1627401786000117,11010077,386193935,-91501423,108029,156253,1.5280001,0.07540084,6.024,12.960001,1.17,2.4099998,85,5,20.589,-13.682001,-15.385001,-3.5500002,3.9855437,0,nan,0.0,2496,3,0,1,8
578507691,1627401787000117,11010077,386192963,-91503364,108441,156665,1.169,0.073685005,5.978,12.8220005,1.17,2.4099998,85,16,19.972,-9.523001,-17.555,-0.098000005,4.2153425,0,nan,0.0,2496,3,0,1,8
580708739,1627401789200117,11010077,386191417,-91508349,105592,153816,1.4120001,0.07338656,5.998,12.514001,1.17,2.4099998,85,30,22.318,-7.2760005,-21.099,3.4240003,4.380321,0,nan,0.0,2496,3,0,1,8
581708724,1627401790200117,11010077,386191341,-91510760,101894,150118,1.3560001,0.074042104,5.938,12.244,1.17,2.3999999,85,10,20.414001,3.4950001,-20.113,4.3190002,4.884464,0,nan,0.0,2496,3,0,1,8
582704490,1627401791200118,11010077,386191943,-91512982,95124,143348,1.5870001,0.08076755,5.8630004,12.113001,1.17,2.3999999,85,6,20.248001,8.863001,-18.205,5.0160003,5.1654425,0,nan,0.0,2496,3,0,1,8
583709961,1627401792200118,11010077,386192778,-91514939,94096,142320,1.631,0.08848243,5.8830004,12.128,1.17,2.3999999,85,10,18.334002,8.811001,-16.078001,-2.499,5.213692,0,nan,0.0,2496,3,0,1,8
584705422,1627401793200118,11010077,386193714,-91516594,95599,143823,1.9520001,0.1324813,5.9810004,12.217001,1.17,2.3999999,85,17,15.301001,9.005,-12.371,1.544,5.341578,0,nan,0.0,2496,3,0,1,8
585699733,1627401794200118,11010077,386194681,-91518026,92363,140587,1.7160001,0.10730075,6.044,12.301001,1.17,2.3999999,85,4,16.489,12.303,-10.978001,5.4230003,5.5546412,0,nan,0.0,2496,3,0,1,8
587710817,1627401796200118,11010077,386197277,-91520000,85874,134098,2.081,0.12177337,6.1050005,12.571001,1.17,2.3999999,86,22,16.614,14.330001,-8.406,2.072,5.752663,0,nan,0.0,2496,3,0,1,8
588702087,1627401797200118,11010077,386198572,-91520964,83540,131765,1.628,0.10653734,6.1250005,12.758,1.17,2.3999999,86,27,16.918001,14.110001,-9.334001,2.1320002,5.6987348,0,nan,0.0,2496,3,0,1,8
589506951,1627401798000118,11010077,386199538,-91521974,80453,128678,1.9790001,0.12557732,6.1770005,12.959001,1.17,2.3999999,86,22,16.505001,12.129001,-11.194,2.334,5.537862,0,nan,0.0,2496,3,0,1,8
590507113,1627401799000119,11010077,386200558,-91523196,78499,126724,1.983,0.12908821,6.2650003,13.154,1.17,2.3999999,86,9,15.698001,12.674001,-9.262,3.0240002,5.65209,0,nan,0.0,2496,3,0,1,8
591707593,1627401800200119,11010077,386202308,-91524351,76760,124985,1.7340001,0.087469965,6.385,13.389001,1.17,2.3999999,86,19,20.023,18.880001,-6.669,-0.44200003,5.943622,0,nan,0.0,2496,3,0,1,8
592704563,1627401801200119,11010077,386203765,-91525464,74019,122243,1.7470001,0.09732252,6.386,13.51,1.17,2.3999999,86,8,20.122002,15.897,-12.336,-0.16100001,5.623244,0,nan,0.0,2496,3,0,1,8
593508602,1627401802000119,11010077,386204887,-91526354,73525,121750,1.9570001,0.1058385,6.4010005,13.587001,1.17,2.3999999,86,10,18.699001,16.417002,-8.951,-0.32500002,5.784008,0,nan,0.0,2496,3,0,1,8
594709483,1627401803200119,11010077,386206444,-91527446,70670,118894,1.6450001,0.101523705,6.4900002,13.6970005,1.17,2.3999999,86,28,16.533,15.476001,-5.8160005,2.887,5.9237323,0,nan,0.0,2496,3,0,1,8
595704722,1627401804200119,11010077,386207689,-91528134,64198,112423,1.371,0.11377208,6.492,13.688001,1.17,2.3999999,86,15,14.952001,13.771001,-5.8250003,6.477,5.8830147,0,nan,0.0,2496,3,0,1,8
596505152,1627401805000119,11010077,386208557,-91528646,60136,108361,1.9650002,0.15038158,6.497,13.683001,1.17,2.3999999,86,29,14.209001,12.517,-6.7250004,2.137,5.7902102,0,nan,0.0,2496,3,0,1,8
597706865,1627401806200120,11010077,386209706,-91529507,63603,111828,2.3830001,0.1912818,6.6070004,13.893001,1.17,2.3999999,86,30,11.751,10.394,-5.4810004,-1.09,5.7979374,0,nan,0.0,2496,3,0,1,8
598506550,1627401807000120,11010077,386210418,-91529964,62514,110740,1.7310001,0.16439134,6.6720004,13.936001,1.17,2.3999999,86,27,10.726001,9.71,-4.556,1.547,5.844508,0,nan,0.0,2496,3,0,1,8
599705551,1627401808200120,11010077,386211537,-91530729,57626,105852,1.8460001,0.14415337,6.709,14.004001,1.17,2.3999999,86,22,13.144001,11.562,-6.2510004,2.841,5.787572,0,nan,0.0,2496,3,0,1,8
600706435,1627401809200120,11010077,386212873,-91531280,56897,105123,1.9300001,0.11303432,6.7180004,13.968,1.29,2.3999999,86,22,17.325,16.926,-3.6970003,1.4790001,6.0681367,0,nan,0.0,2496,3,0,1,7
601699645,1627401810200120,11010077,386214164,-91531722,57701,105926,1.6420001,0.11992995,6.767,14.012001,1.29,2.3999999,86,13,14.896001,14.024001,-5.0210004,1.325,5.9393897,0,nan,0.0,2496,3,0,1,7
602507664,1627401811000120,11010077,386215178,-91532226,56474,104700,1.5790001,0.11185554,6.8040004,14.070001,1.29,2.3999999,86,28,15.77,14.458001,-6.2970004,-0.20400001,5.8724213,0,nan,0.0,2496,3,0,1,7
604703683,1627401813200121,11010077,386217604,-91533335,57597,105823,1.7040001,0.18140428,6.867,14.221001,1.17,2.3999999,86,19,10.672001,9.802,-4.222,0.80200005,5.8764825,0,nan,0.0,2496,3,0,1,8
605707924,1627401814200121,11010077,386218351,-91533709,60005,108230,2.598,0.38685936,6.9870005,14.406001,1.1999999,2.52,86,6,7.439,7.439,0.032,-2.433,5.9847965,0,nan,0.0,2496,3,0,1,7
606708332,1627401815200121,11010077,386218976,-91534089,60015,108241,2.042,0.33380553,7.0390005,14.476001,1.1999999,2.52,86,8,5.8300004,5.2440004,-2.548,-2.394,5.87769,0,nan,0.0,2418,3,0,1,7
609704926,1627401818200121,11010077,386220382,-91535555,59155,107381,1.9060001,0.35468596,7.3090005,14.628,1.1999999,2.52,86,7,7.5000005,5.321,-5.2850003,-0.65300006,5.4936366,0,nan,0.0,1716,3,0,1,7
610511110,1627401819000121,11010077,386220798,-91536073,59362,107588,1.963,0.2520044,7.5340004,14.815001,1.1999999,2.52,75,0,9.715,7.2750006,-6.438,0.768,5.5587597,0,nan,0.0,0,3,0,1,7
611502247,1627401820000121,11010077,386221609,-91536476,60790,109016,4.563,0.41773984,8.351001,15.315001,2.35,2.75,69,19,9.811001,9.683001,-1.585,0.49600002,6.120941,0,nan,0.0,702,3,0,1,4
612701470,1627401821200122,11010077,386222071,-91537248,61264,109490,2.8530002,0.6832011,9.961,15.703001,2.35,2.75,65,7,7.787,4.993,-5.9760003,-0.67200005,5.3178616,0,nan,0.0,2730,3,0,1,4
613510981,1627401822000122,11010077,386222171,-91537902,60928,109154,2.6680002,0.5900799,10.8810005,15.992001,2.35,2.75,65,0,8.081,1.235,-7.9860005,-0.059000004,4.8658457,0,nan,0.0,312,3,0,1,4
616698425,1627401825200122,11010077,386226495,-91537246,47578,95804,3.427,0.17965528,41.997,58.261,2.3799999,5.69,65,1,11.1640005,11.122001,0.96700007,0.57500005,0.08671634,0,nan,0.0,1404,3,0,1,5
617703369,1627401826200122,11010077,386229512,-91534806,37501,85728,2.4350002,0.44308987,53.356003,78.247,4.11,12.849999,79,21,6.359,6.359,0.031000001,3.1420002,0.12390877,0,nan,0.0,2574,3,0,1,4
618700398,1627401827200123,11010077,386229372,-91534908,34455,82681,3.2570002,0.642566,43.767002,66.711006,4.12,12.87,79,7,2.45,1.041,2.2180002,0.521,0.12647808,0,nan,0.0,2418,3,0,1,4
619704888,1627401828200123,11010077,386228921,-91535235,32990,81216,2.296,0.64305764,35.43,57.004,4.14,7.16,91,17,0.74300003,0.22100002,0.70900005,1.6530001,0.12647808,0,nan,0.0,2652,3,0,1,4
620705458,1627401829200123,11010077,386228524,-91535630,33004,81230,1.978,0.64360255,28.259,47.821003,2.3799999,5.69,84,37,0.45100003,0.44900003,-0.032,1.529,0.12647808,0,nan,0.0,2886,3,0,1,5
621710512,1627401830200123,11010077,386228159,-91535971,34399,82625,2.2050002,0.64401025,21.369001,38.996002,2.3799999,5.69,84,33,1.4100001,1.2880001,0.57500005,0.48200002,0.12647808,0,nan,0.0,2262,3,0,1,5
622706412,1627401831200123,11010077,386227888,-91536309,34894,83121,3.1710002,0.6446138,16.811,32.132,2.3799999,5.69,84,11,2.992,-2.135,-2.0960002,1.7340001,0.12647808,0,nan,0.0,2418,3,0,1,5
623701560,1627401832200123,11010077,386227568,-91536461,34217,82443,2.706,0.6451992,13.892,27.400002,2.3799999,5.69,84,62,0.72200006,0.558,-0.45900002,2.2710001,0.12647808,0,nan,0.0,2730,3,0,1,5
624711841,1627401833200123,11010077,386227296,-91536616,34568,82795,2.025,0.64569324,11.134001,22.958,2.3799999,5.69,84,6,0.887,-0.52000004,0.71800005,0.794,0.12647808,0,nan,0.0,1404,3,0,1,5
626707425,1627401835200124,11010077,386226655,-91537066,35246,83473,2.151,0.65436286,10.6310005,24.368002,2.1599998,5.56,84,53,0.762,0.762,-0.015000001,1.167,1.5316,0,nan,0.0,2886,3,0,1,6
627707620,1627401836200124,11010077,386226344,-91537206,35308,83534,2.065,0.65475625,10.081,24.833002,2.1599998,5.56,90,40,1.3470001,-0.569,1.22,1.1880001,1.5316,0,nan,0.0,1872,3,0,1,6
628508626,1627401837000124,11010077,386226219,-91537272,37285,85511,1.7240001,0.655047,9.852,25.182001,2.1599998,5.56,90,46,0.846,-0.83800006,-0.11000001,1.2420001,1.5316,0,nan,0.0,1872,3,0,1,6
630704751,1627401839200124,11010077,386226081,-91537382,41088,89314,1.7270001,0.655845,9.462001,26.109001,2.1599998,5.56,90,34,0.437,-0.354,-0.256,1.087,1.5316,0,nan,0.0,1794,3,0,1,6
631705520,1627401840200124,11010077,386226032,-91537407,43373,91599,1.702,0.6562113,9.428,26.568,2.1599998,5.56,90,47,0.165,-0.016,0.165,0.66200006,1.5316,0,nan,0.0,1872,3,0,1,6
632709774,1627401841200124,11010077,386226020,-91537453,45549,93775,1.733,0.65657663,9.419001,26.912,2.1599998,5.56,90,45,0.18800001,-0.17,-0.079,0.521,1.5316,0,nan,0.0,1950,3,0,1,6
633706438,1627401842200125,11010077,386225966,-91537425,45846,94072,2.009,0.6569499,9.339001,27.218,2.1599998,5.56,90,32,0.629,-0.21200001,0.592,0.77900004,1.5316,0,nan,0.0,2184,3,0,1,6
634706808,1627401843200125,11010077,386226169,-91537548,51386,99613,1.9080001,0.282481,9.346001,27.621002,2.1599998,5.56,90,48,4.123,3.7540002,-1.7030001,1.9430001,5.9306307,0,nan,0.0,2340,3,0,1,6
635707601,1627401844200125,11010077,386226183,-91537550,54420,102646,1.764,0.2834071,9.394,27.947,2.1599998,5.56,90,50,0.096,-0.011000001,0.095000006,-0.22600001,5.9306307,0,nan,0.0,2652,3,0,1,6
637703570,1627401846200125,11010077,386226041,-91537413,55396,103623,1.794,0.7401479,9.478001,28.521002,2.1599998,5.56,90,39,0.541,-0.36600003,0.39800003,0.291,1.581327,0,nan,0.0,2652,3,0,1,6
638704776,1627401847200125,11010077,386226037,-91537438,57101,105328,3.5300002,0.7406511,9.678,28.932001,3.1799998,6.29,90,34,1.052,0.771,-0.716,0.37300003,1.581327,0,nan,0.0,2262,3,0,1,5
639709444,1627401848200125,11010077,386226104,-91537540,60050,108276,1.9560001,0.7410518,9.785001,29.107002,2.1599998,5.56,90,32,0.24200001,-0.19700001,0.14,0.16000001,1.581327,0,nan,0.0,2262,3,0,1,6
640701128,1627401849200125,11010077,386226102,-91537537,61758,109984,2.7580001,0.54086965,9.830001,29.509,2.1599998,5.56,90,38,2.2580001,1.843,-1.3050001,1.195,0.14717576,0,nan,0.0,2496,3,0,1,6
642710864,1627401851200126,11010077,386226040,-91537565,60054,108281,1.9180001,0.54178053,9.828,29.757002,2.1599998,5.56,90,30,0.791,0.32200003,-0.72300005,0.61700004,0.14717576,0,nan,0.0,2262,3,0,1,6
643512423,1627401852000126,11010077,386226045,-91537557,60742,108968,1.5550001,0.54211444,9.825001,29.823002,2.1599998,5.56,90,18,1.153,0.545,1.016,0.115,0.14717576,0,nan,0.0,2652,3,0,1,6
644511934,1627401853000126,11010077,386226061,-91537640,60773,108999,1.8850001,0.5426503,9.966001,30.139002,2.1599998,5.56,89,4,0.83800006,0.24100001,-0.80300003,0.404,0.14717576,0,nan,0.0,156,3,0,1,6
645512414,1627401854000126,11010077,386226012,-91537608,63001,111227,1.8700001,0.2576085,9.686001,29.642002,1.67,3.97,89,26,4.4820004,-3.8650002,2.2700002,-1.6200001,2.3833752,0,nan,0.0,2574,3,0,1,7
646512431,1627401855000126,11010077,386226100,-91537719,68473,116699,1.9690001,0.5459777,9.432,28.981,1.67,3.97,89,40,0.84900004,0.35900003,-0.76900005,-0.065000005,2.8526824,0,nan,0.0,2730,3,0,1,7
647514256,1627401856000126,11010077,386226175,-91537749,72096,120322,1.8180001,0.54637325,9.156,28.269001,1.67,3.97,89,21,0.44700003,0.30800003,-0.324,-0.135,2.8526824,0,nan,0.0,2418,3,0,1,7
648508732,1627401857000126,11010077,386226115,-91537757,71576,119802,2.0240002,0.38330328,8.902,27.692001,1.67,3.97,84,33,2.8160002,-2.6390002,0.984,-0.73700005,2.7098367,0,nan,0.0,1872,3,0,1,7
649710431,1627401858200127,11010077,386226201,-91537865,74687,122913,2.2080002,0.5950555,8.851001,27.343,1.67,3.9599998,89,41,1.766,0.384,-1.7240001,0.245,3.3170562,0,nan,0.0,2262,3,0,1,7
650711239,1627401859200127,11010077,386226309,-91537925,78013,126239,1.4020001,0.5954585,8.778001,26.992,1.67,3.9599998,89,47,0.10700001,-0.042000003,-0.098000005,0.025,3.3170562,0,nan,0.0,2574,3,0,1,7
651510493,1627401860000127,11010077,386226347,-91537931,78812,127039,1.746,0.5957627,8.709001,26.77,1.67,3.9599998,89,29,0.41300002,-0.33100003,0.24800001,0.032,3.3170562,0,nan,0.0,1950,3,0,1,7
652706061,1627401861200127,11010077,386226426,-91537946,81784,130010,1.7400001,0.59621143,8.552,26.400002,1.67,3.9599998,89,53,0.63100004,-0.497,0.38900003,-0.24200001,3.3170562,0,nan,0.0,2652,3,0,1,7
653706739,1627401862200127,11010077,386226464,-91537975,81278,129504,2.5300002,0.5967589,8.564,26.147001,2.3899999,4.2,89,34,0.26500002,0.264,-0.017,0.108,3.3170562,0,nan,0.0,2340,3,0,1,6
654511003,1627401863000127,11010077,386226462,-91538027,79852,128079,2.2180002,0.73854023,8.649,25.994001,1.67,3.9599998,89,51,0.35500002,-0.18,0.30600002,-0.13900001,4.2387867,0,nan,0.0,2106,3,0,1,7
655514125,1627401864000127,11010077,386226422,-91538050,78404,126630,1.6070001,0.73888654,8.634001,25.807001,1.67,3.9599998,89,32,0.53400004,0.120000005,0.52000004,-0.18900001,4.2387867,0,nan,0.0,2106,3,0,1,7
656512368,1627401865000127,11010077,386226466,-91538043,79977,128203,2.184,0.73920906,8.538,25.735,1.67,3.9599998,89,12,0.646,0.23400001,-0.60200006,-0.15400001,4.2387867,0,nan,0.0,2730,3,0,1,7
657513420,1627401866000128,11010077,386226491,-91538056,79791,128017,0.88500005,0.7394906,8.337001,25.443,1.67,3.9599998,89,38,0.485,0.12900001,0.467,0.26900002,4.2387867,0,nan,0.0,2964,3,0,1,7
658510158,1627401867000128,11010077,386226480,-91538044,78373,126599,2.098,0.4923544,8.209001,25.141,1.67,3.9599998,89,31,2.818,2.7440002,-0.642,1.7700001,5.4963207,0,nan,0.0,1716,3,0,1,7
659710548,1627401868200128,11010077,386226460,-91538035,76442,124668,1.5100001,0.4928277,8.102,24.799002,1.67,3.9599998,89,19,0.96700007,-0.65400004,0.71300006,0.758,5.4963207,0,nan,0.0,2730,3,0,1,7
660514415,1627401869000128,11010077,386226444,-91538062,76313,124539,2.4420002,0.4932297,8.107,24.606,1.67,3.9599998,89,42,0.37300003,0.337,-0.15900001,0.328,5.4963207,0,nan,0.0,1794,3,0,1,7
661711734,1627401870200128,11010077,386226474,-91538079,75735,123961,1.8800001,0.49380702,8.142,24.516,1.67,3.9599998,89,38,1.389,-1.1110001,0.83400005,0.49800003,5.4963207,0,nan,0.0,2886,3,0,1,7
662705641,1627401871200128,11010077,386226431,-91537996,75150,123376,1.5370001,0.49425352,8.047,24.264002,1.67,3.9599998,89,26,0.60800004,-0.549,0.261,0.771,5.4963207,0,nan,0.0,2262,3,0,1,7
663506518,1627401872000128,11010077,386226420,-91537972,73310,121536,1.5450001,0.49457705,8.062,24.243002,1.67,3.9599998,89,37,0.030000001,0.009000001,0.029000001,0.90900004,5.4963207,0,nan,0.0,1560,3,0,1,7
664513643,1627401873000128,11010077,386226492,-91537849,74694,122920,1.687,0.70761216,8.036,24.082,1.67,3.9599998,89,33,0.67200005,-0.448,0.50100005,0.71300006,0.82630116,0,nan,0.0,2886,3,0,1,7
665510443,1627401874000129,11010077,386226478,-91537841,74155,122381,1.5220001,0.7079242,7.9370003,24.011002,1.67,3.9599998,89,43,0.155,-0.13700001,-0.072000004,0.776,0.82630116,0,nan,0.0,2418,3,0,1,7
666709619,1627401875200129,11010077,386226479,-91537840,74726,122953,1.3330001,0.56847656,7.8560004,23.788002,1.67,3.9599998,89,52,0.34100002,-0.208,0.27,0.563,1.8282791,0,nan,0.0,1950,3,0,1,7
667510078,1627401876000129,11010077,386226514,-91537814,77480,125706,1.817,0.5688021,7.8560004,23.739,1.67,3.9599998,89,33,0.71300006,-0.512,0.49600002,0.282,1.8282791,0,nan,0.0,1794,3,0,1,7
668509451,1627401877000129,11010077,386226577,-91537792,79088,127314,1.4670001,0.56917816,7.905,23.881,1.9399999,4.96,89,45,0.374,-0.043,0.372,0.757,1.8282791,0,nan,0.0,1794,3,0,1,6
669509577,1627401878000129,11010077,386226585,-91537815,80058,128284,1.8230001,0.5695667,7.9290004,23.994001,1.9399999,4.96,89,42,0.827,0.018000001,0.827,0.95900005,1.8282791,0,nan,0.0,2262,3,0,1,6
670517296,1627401879000129,11010077,386226640,-91537829,82180,130407,1.6800001,0.56995314,8.047,24.182001,1.9399999,4.96,89,35,0.11100001,0.018000001,-0.11000001,0.541,1.8282791,0,nan,0.0,1872,3,0,1,6
671512674,1627401880000129,11010077,386226668,-91537872,81455,129681,2.095,0.5704299,8.128,24.288002,1.67,3.9499998,83,40,0.61600006,0.33600003,-0.51600003,0.609,1.8282791,0,nan,0.0,1794,3,0,1,7
672511781,1627401881000129,11010077,386226712,-91537878,83560,131787,1.57,0.5708728,8.126,24.337002,1.68,3.9499998,83,44,0.80500007,-0.42100003,0.68600005,0.32000002,1.8282791,0,nan,0.0,2184,3,0,1,7
673507572,1627401882000130,11010077,386226717,-91537822,84826,133053,1.802,0.5712733,8.032001,24.299002,1.68,3.9499998,83,45,1.2340001,-0.81500006,0.92700005,0.47300002,1.8282791,0,nan,0.0,1716,3,0,1,7
674509487,1627401883000130,11010077,386226761,-91537853,86370,134596,1.7600001,0.57166827,8.015,24.151001,1.18,2.3799999,83,38,0.185,-0.006,-0.185,0.22000001,1.8282791,0,nan,0.0,1950,3,0,1,8
675513462,1627401884000130,11010077,386226814,-91537854,89053,137279,1.5920001,0.5720807,8.0720005,24.306002,1.18,2.3799999,83,31,0.24300002,0.17600001,0.16800001,-0.588,1.8282791,0,nan,0.0,1950,3,0,1,8
676510148,1627401885000130,11010077,386226821,-91537896,88108,136334,1.7260001,0.5725645,8.155001,24.513,1.18,2.3799999,83,30,0.116000004,0.011000001,-0.116000004,0.31100002,1.8282791,0,nan,0.0,1950,3,0,1,8
677514337,1627401886000130,11010077,386226812,-91537895,88128,136354,2.0140002,0.5730205,8.206,24.637001,1.18,2.3799999,83,40,0.57600003,0.287,-0.5,0.34100002,1.8282791,0,nan,0.0,1716,3,0,1,8
678515420,1627401887000130,11010077,386226815,-91537879,88824,137050,2.279,0.57346195,8.2960005,24.894001,1.18,2.3799999,83,31,1.0990001,-0.554,0.94900006,0.485,1.8282791,0,nan,0.0,1482,3,0,1,8
679705956,1627401888200130,11010077,386226794,-91537772,90140,138366,2.1190002,0.574088,8.418,25.136002,1.18,2.3799999,83,29,0.88100004,-0.094000004,0.87600005,-0.26900002,1.8282791,0,nan,0.0,1638,3,0,1,8
680710574,1627401889200130,11010077,386226817,-91537784,90690,138916,2.154,0.5745236,8.378,25.087002,1.18,2.3799999,83,35,0.56700003,0.37600002,-0.42400002,0.261,1.8282791,0,nan,0.0,1950,3,0,1,8
681511665,1627401890000131,11010077,386226760,-91537767,90301,138527,2.3920002,0.6553743,8.373,24.977001,1.18,2.3799999,83,29,1.018,-0.929,0.41500002,-0.18400002,2.2376723,0,nan,0.0,2496,3,0,1,8
682712473,1627401891200131,11010077,386226758,-91537702,92580,140806,2.424,0.4395393,8.222,24.737001,1.18,2.3799999,83,37,3.867,-2.318,3.095,-0.54200006,2.237011,0,nan,0.0,2106,3,0,1,8
683507622,1627401892000131,11010077,386226608,-91537425,95352,143578,2.3860002,0.3766415,8.3220005,24.717001,1.68,3.9499998,83,38,3.7170002,-2.414,2.8260002,-0.86200005,2.2877727,0,nan,0.0,1716,3,0,1,7
684514835,1627401893000131,11010077,386226606,-91537344,97031,145258,1.8500001,0.3774238,8.370001,24.813002,1.68,3.9499998,83,29,0.377,0.0,0.377,-0.33900002,2.2877727,0,nan,0.0,1716,3,0,1,7
685514323,1627401894000131,11010077,386226584,-91537302,95896,144122,1.886,0.37806553,8.346001,24.929,1.68,3.9499998,83,34,1.4640001,-0.30600002,1.4310001,0.298,2.2877727,0,nan,0.0,2106,3,0,1,7
686514911,1627401895000131,11010077,386226642,-91537359,94541,142768,1.871,0.60386056,8.338,24.990002,1.68,3.9499998,83,40,0.31300002,-0.16600001,0.26500002,-0.41900003,1.5465381,0,nan,0.0,2886,3,0,1,7
687509562,1627401896000131,11010077,386226651,-91537349,94605,142831,2.1780002,0.6043003,8.399,25.229002,1.68,3.9499998,84,39,0.58900005,0.47700003,-0.34600002,-0.628,1.5465381,0,nan,0.0,2418,3,0,1,7
688516101,1627401897000131,11010077,386226665,-91537330,94805,143031,2.515,0.60481083,8.526,25.517002,1.68,3.9499998,84,41,0.91300005,-0.326,0.85300004,-0.109000005,1.5465381,0,nan,0.0,1716,3,0,1,7
689510888,1627401898000132,11010077,386226630,-91537345,92138,140364,1.6630001,0.60520285,8.589001,25.672,1.68,3.9499998,83,37,0.48700002,-0.35700002,0.33200002,0.601,1.5465381,0,nan,0.0,1794,3,0,1,7
690511325,1627401899000132,11010077,386226622,-91537348,90526,138752,1.8800001,0.60557044,8.468,25.61,1.68,3.9499998,83,29,0.628,-0.003,-0.628,0.69100004,1.5465381,0,nan,0.0,2496,3,0,1,7
691712475,1627401900200132,11010077,386226648,-91537467,88261,136487,2.269,0.6061886,8.541,25.464,1.68,3.9499998,83,42,0.934,0.70100003,-0.61800003,0.96700007,1.5465381,0,nan,0.0,2262,3,0,1,7
692518848,1627401901000132,11010077,386226670,-91537478,88408,136634,1.7500001,0.6064951,8.531,25.401001,1.68,3.9499998,83,37,1.003,-0.637,0.77500004,0.409,1.5465381,0,nan,0.0,1794,3,0,1,7
693513226,1627401902000132,11010077,386226714,-91537529,89970,138196,2.01,0.74283063,8.358001,24.901001,1.18,2.3799999,83,34,0.809,0.013,-0.809,0.41700003,2.0422683,0,nan,0.0,1872,3,0,1,8
694514464,1627401903000132,11010077,386226760,-91537629,90847,139074,1.8280001,0.74322313,8.416,24.833002,1.68,3.9399998,83,34,0.395,-0.31100002,0.24200001,0.63000005,2.0422683,0,nan,0.0,1716,3,0,1,7
695511165,1627401904000132,11010077,386226771,-91537679,89918,138145,2.3920002,0.7435842,8.521001,24.947,1.68,3.9399998,78,34,1.2390001,0.541,-1.115,1.067,2.0422683,0,nan,0.0,1872,3,0,1,7
696516153,1627401905000132,11010077,386226796,-91537716,88359,136586,1.8330001,0.77563703,8.553,25.013,1.68,3.9399998,78,37,0.573,-0.12900001,0.558,0.28800002,0.8143682,0,nan,0.0,1560,3,0,1,7
697512789,1627401906000133,11010077,386226749,-91537656,87334,135560,1.4950001,0.77598,8.584001,25.080002,1.68,3.9399998,78,29,0.19000001,0.119,0.148,0.97200006,0.8143682,0,nan,0.0,2340,3,0,1,7
