timestamp,voltage_v,voltage_filtered_v,current_a,current_filtered_a,current_average_a,discharged_mah,remaining,scale,temperature,cell_count,voltage_cell_v[0],voltage_cell_v[1],voltage_cell_v[2],voltage_cell_v[3],voltage_cell_v[4],voltage_cell_v[5],voltage_cell_v[6],voltage_cell_v[7],voltage_cell_v[8],voltage_cell_v[9],voltage_cell_v[10],voltage_cell_v[11],voltage_cell_v[12],voltage_cell_v[13],max_cell_voltage_delta,average_power,available_energy,remaining_capacity,design_capacity,nominal_voltage,capacity,cycle_count,run_time_to_empty,average_time_to_empty,serial_number,manufacture_date,state_of_health,max_error,interface_error,average_time_to_full,over_discharge_count,connected,source,priority,id,is_powering_off,warning
394709862,14.5386,14.688906,0.0,3.5e-44,-1.0,0.019464213,1.0,1.0,nan,3,4.8963017,4.8963017,4.8963017,0.0,0.0,0.0,0.0,0.0,0.0,0.0,0.0,0.0,0.0,0.0,0.0,0.0,0.0,0.0,0.0,0.0,0,0,0,0,0,0,0,0,0,0,0,1,0,0,1,0,0
394909519,14.915799,14.697306,0.0,3.5e-44,-1.0,0.019464213,1.0,1.0,nan,3,4.8991017,4.8991017,4.8991017,0.0,0.0,0.0,0.0,0.0,0.0,0.0,0.0,0.0,0.0,0.0,0.0,0.0,0.0,0.0,0.0,0.0,0,0,0,0,0,0,0,0,0,0,0,1,0,0,1,0,0
395110021,14.4566,14.690566,0.0,3.5e-44,-1.0,0.019464213,1.0,1.0,nan,3,4.8968554,4.8968554,4.8968554,0.0,0.0,0.0,0.0,0.0,0.0,0.0,0.0,0.0,0.0,0.0,0.0,0.0,0.0,0.0,0.0,0.0,0,0,0,0,0,0,0,0,0,0,0,1,0,0,1,0,0
395309778,14.4894,14.685631,0.0,3.5e-44,-1.0,0.019464213,1.0,1.0,nan,3,4.8952103,4.8952103,4.8952103,0.0,0.0,0.0,0.0,0.0,0.0,0.0,0.0,0.0,0.0,0.0,0.0,0.0,0.0,0.0,0.0,0.0,0,0,0,0,0,0,0,0,0,0,0,1,0,0,1,0,0
395508549,14.686199,14.671341,0.0,3.5e-44,-1.0,0.019464213,1.0,1.0,nan,3,4.890447,4.890447,4.890447,0.0,0.0,0.0,0.0,0.0,0.0,0.0,0.0,0.0,0.0,0.0,0.0,0.0,0.0,0.0,0.0,0.0,0,0,0,0,0,0,0,0,0,0,0,1,0,0,1,0,0
395708568,14.7026,14.668297,0.0,3.5e-44,-1.0,0.019464213,1.0,1.0,nan,3,4.8894324,4.8894324,4.8894324,0.0,0.0,0.0,0.0,0.0,0.0,0.0,0.0,0.0,0.0,0.0,0.0,0.0,0.0,0.0,0.0,0.0,0,0,0,0,0,0,0,0,0,0,0,1,0,0,1,0,0
395908553,14.8256,14.662314,0.0,3.5e-44,-1.0,0.019464213,1.0,1.0,nan,3,4.8874383,4.8874383,4.8874383,0.0,0.0,0.0,0.0,0.0,0.0,0.0,0.0,0.0,0.0,0.0,0.0,0.0,0.0,0.0,0.0,0.0,0,0,0,0,0,0,0,0,0,0,0,1,0,0,1,0,0
396108521,14.8256,14.660729,0.0,3.5e-44,-1.0,0.019464213,1.0,1.0,nan,3,4.88691,4.88691,4.88691,0.0,0.0,0.0,0.0,0.0,0.0,0.0,0.0,0.0,0.0,0.0,0.0,0.0,0.0,0.0,0.0,0.0,0,0,0,0,0,0,0,0,0,0,0,1,0,0,1,0,0
396308567,14.801,14.676389,0.0,3.5e-44,-1.0,0.019464213,1.0,1.0,nan,3,4.8921294,4.8921294,4.8921294,0.0,0.0,0.0,0.0,0.0,0.0,0.0,0.0,0.0,0.0,0.0,0.0,0.0,0.0,0.0,0.0,0.0,0,0,0,0,0,0,0,0,0,0,0,1,0,0,1,0,0
396508732,14.4976,14.675673,0.0,3.5e-44,-1.0,0.019464213,1.0,1.0,nan,3,4.891891,4.891891,4.891891,0.0,0.0,0.0,0.0,0.0,0.0,0.0,0.0,0.0,0.0,0.0,0.0,0.0,0.0,0.0,0.0,0.0,0,0,0,0,0,0,0,0,0,0,0,1,0,0,1,0,0
396708545,14.891199,14.676304,0.0,3.5e-44,-1.0,0.019464213,1.0,1.0,nan,3,4.8921013,4.8921013,4.8921013,0.0,0.0,0.0,0.0,0.0,0.0,0.0,0.0,0.0,0.0,0.0,0.0,0.0,0.0,0.0,0.0,0.0,0,0,0,0,0,0,0,0,0,0,0,1,0,0,1,0,0
396908596,14.899401,14.687609,0.0,3.5e-44,-1.0,0.019464213,1.0,1.0,nan,3,4.8958697,4.8958697,4.8958697,0.0,0.0,0.0,0.0,0.0,0.0,0.0,0.0,0.0,0.0,0.0,0.0,0.0,0.0,0.0,0.0,0.0,0,0,0,0,0,0,0,0,0,0,0,1,0,0,1,0,0
397108559,14.5468,14.698661,0.0,3.5e-44,-1.0,0.019464213,1.0,1.0,nan,3,4.899554,4.899554,4.899554,0.0,0.0,0.0,0.0,0.0,0.0,0.0,0.0,0.0,0.0,0.0,0.0,0.0,0.0,0.0,0.0,0.0,0,0,0,0,0,0,0,0,0,0,0,1,0,0,1,0,0
397308811,14.555,14.685777,0.0,3.5e-44,-1.0,0.019464213,1.0,1.0,nan,3,4.895259,4.895259,4.895259,0.0,0.0,0.0,0.0,0.0,0.0,0.0,0.0,0.0,0.0,0.0,0.0,0.0,0.0,0.0,0.0,0.0,0,0,0,0,0,0,0,0,0,0,0,1,0,0,1,0,0
397708546,14.7846,14.681217,0.0,3.5e-44,-1.0,0.019464213,1.0,1.0,nan,3,4.893739,4.893739,4.893739,0.0,0.0,0.0,0.0,0.0,0.0,0.0,0.0,0.0,0.0,0.0,0.0,0.0,0.0,0.0,0.0,0.0,0,0,0,0,0,0,0,0,0,0,0,1,0,0,1,0,0
397908585,14.7272,14.693166,0.0,3.5e-44,-1.0,0.019464213,1.0,1.0,nan,3,4.897722,4.897722,4.897722,0.0,0.0,0.0,0.0,0.0,0.0,0.0,0.0,0.0,0.0,0.0,0.0,0.0,0.0,0.0,0.0,0.0,0,0,0,0,0,0,0,0,0,0,0,1,0,0,1,0,0
398108703,15.0224,14.710424,0.0,3.5e-44,-1.0,0.019464213,1.0,1.0,nan,3,4.903475,4.903475,4.903475,0.0,0.0,0.0,0.0,0.0,0.0,0.0,0.0,0.0,0.0,0.0,0.0,0.0,0.0,0.0,0.0,0.0,0,0,0,0,0,0,0,0,0,0,0,1,0,0,1,0,0
398308761,14.907599,14.713253,0.0,3.5e-44,-1.0,0.019464213,1.0,1.0,nan,3,4.9044175,4.9044175,4.9044175,0.0,0.0,0.0,0.0,0.0,0.0,0.0,0.0,0.0,0.0,0.0,0.0,0.0,0.0,0.0,0.0,0.0,0,0,0,0,0,0,0,0,0,0,0,1,0,0,1,0,0
398508831,14.579599,14.716595,0.0,3.5e-44,-1.0,0.019464213,1.0,1.0,nan,3,4.9055314,4.9055314,4.9055314,0.0,0.0,0.0,0.0,0.0,0.0,0.0,0.0,0.0,0.0,0.0,0.0,0.0,0.0,0.0,0.0,0.0,0,0,0,0,0,0,0,0,0,0,0,1,0,0,1,0,0
398708552,14.9321995,14.725735,0.0,3.5e-44,-1.0,0.019464213,1.0,1.0,nan,3,4.9085784,4.9085784,4.9085784,0.0,0.0,0.0,0.0,0.0,0.0,0.0,0.0,0.0,0.0,0.0,0.0,0.0,0.0,0.0,0.0,0.0,0,0,0,0,0,0,0,0,0,0,0,1,0,0,1,0,0
398908551,14.899401,14.728895,0.0,3.5e-44,-1.0,0.019464213,1.0,1.0,nan,3,4.9096317,4.9096317,4.9096317,0.0,0.0,0.0,0.0,0.0,0.0,0.0,0.0,0.0,0.0,0.0,0.0,0.0,0.0,0.0,0.0,0.0,0,0,0,0,0,0,0,0,0,0,0,1,0,0,1,0,0
399108546,14.8584,14.717897,0.0,3.5e-44,-1.0,0.019464213,1.0,1.0,nan,3,4.905966,4.905966,4.905966,0.0,0.0,0.0,0.0,0.0,0.0,0.0,0.0,0.0,0.0,0.0,0.0,0.0,0.0,0.0,0.0,0.0,0,0,0,0,0,0,0,0,0,0,0,1,0,0,1,0,0
399508544,14.899401,14.693079,0.0,3.5e-44,-1.0,0.019464213,1.0,1.0,nan,3,4.897693,4.897693,4.897693,0.0,0.0,0.0,0.0,0.0,0.0,0.0,0.0,0.0,0.0,0.0,0.0,0.0,0.0,0.0,0.0,0.0,0,0,0,0,0,0,0,0,0,0,0,1,0,0,1,0,0
399708545,14.965,14.686687,0.0,3.5e-44,-1.0,0.019464213,1.0,1.0,nan,3,4.8955626,4.8955626,4.8955626,0.0,0.0,0.0,0.0,0.0,0.0,0.0,0.0,0.0,0.0,0.0,0.0,0.0,0.0,0.0,0.0,0.0,0,0,0,0,0,0,0,0,0,0,0,1,0,0,1,0,0
399908552,14.473,14.683698,0.0,3.5e-44,-1.0,0.019464213,1.0,1.0,nan,3,4.894566,4.894566,4.894566,0.0,0.0,0.0,0.0,0.0,0.0,0.0,0.0,0.0,0.0,0.0,0.0,0.0,0.0,0.0,0.0,0.0,0,0,0,0,0,0,0,0,0,0,0,1,0,0,1,0,0
400508545,14.8174,14.667053,0.0,3.5e-44,-1.0,0.019464213,1.0,1.0,nan,3,4.8890176,4.8890176,4.8890176,0.0,0.0,0.0,0.0,0.0,0.0,0.0,0.0,0.0,0.0,0.0,0.0,0.0,0.0,0.0,0.0,0.0,0,0,0,0,0,0,0,0,0,0,0,1,0,0,1,0,0
400708673,14.907599,14.666244,0.0,3.5e-44,-1.0,0.019464213,1.0,1.0,nan,3,4.8887477,4.8887477,4.8887477,0.0,0.0,0.0,0.0,0.0,0.0,0.0,0.0,0.0,0.0,0.0,0.0,0.0,0.0,0.0,0.0,0.0,0,0,0,0,0,0,0,0,0,0,0,1,0,0,1,0,0
401109042,14.915799,14.659059,0.0,3.5e-44,-1.0,0.019464213,1.0,1.0,nan,3,4.886353,4.886353,4.886353,0.0,0.0,0.0,0.0,0.0,0.0,0.0,0.0,0.0,0.0,0.0,0.0,0.0,0.0,0.0,0.0,0.0,0,0,0,0,0,0,0,0,0,0,0,1,0,0,1,0,0
401309141,14.6124,14.657138,0.0,3.5e-44,-1.0,0.019464213,1.0,1.0,nan,3,4.8857126,4.8857126,4.8857126,0.0,0.0,0.0,0.0,0.0,0.0,0.0,0.0,0.0,0.0,0.0,0.0,0.0,0.0,0.0,0.0,0.0,0,0,0,0,0,0,0,0,0,0,0,1,0,0,1,0,0
401509183,14.571401,14.659271,0.0,3.5e-44,-1.0,0.019464213,1.0,1.0,nan,3,4.8864236,4.8864236,4.8864236,0.0,0.0,0.0,0.0,0.0,0.0,0.0,0.0,0.0,0.0,0.0,0.0,0.0,0.0,0.0,0.0,0.0,0,0,0,0,0,0,0,0,0,0,0,1,0,0,1,0,0
401708545,14.587799,14.666142,0.0,3.5e-44,-1.0,0.019464213,1.0,1.0,nan,3,4.8887143,4.8887143,4.8887143,0.0,0.0,0.0,0.0,0.0,0.0,0.0,0.0,0.0,0.0,0.0,0.0,0.0,0.0,0.0,0.0,0.0,0,0,0,0,0,0,0,0,0,0,0,1,0,0,1,0,0
401908545,14.2188,14.668867,0.0,3.5e-44,-1.0,0.019464213,1.0,1.0,nan,3,4.889622,4.889622,4.889622,0.0,0.0,0.0,0.0,0.0,0.0,0.0,0.0,0.0,0.0,0.0,0.0,0.0,0.0,0.0,0.0,0.0,0,0,0,0,0,0,0,0,0,0,0,1,0,0,1,0,0
402108542,14.792799,14.666089,0.0,3.5e-44,-1.0,0.019464213,1.0,1.0,nan,3,4.888696,4.888696,4.888696,0.0,0.0,0.0,0.0,0.0,0.0,0.0,0.0,0.0,0.0,0.0,0.0,0.0,0.0,0.0,0.0,0.0,0,0,0,0,0,0,0,0,0,0,0,1,0,0,1,0,0
402308554,14.555,14.669654,0.0,3.5e-44,-1.0,0.019464213,1.0,1.0,nan,3,4.8898845,4.8898845,4.8898845,0.0,0.0,0.0,0.0,0.0,0.0,0.0,0.0,0.0,0.0,0.0,0.0,0.0,0.0,0.0,0.0,0.0,0,0,0,0,0,0,0,0,0,0,0,1,0,0,1,0,0
402508628,14.7846,14.671394,0.0,3.5e-44,-1.0,0.019464213,1.0,1.0,nan,3,4.890465,4.890465,4.890465,0.0,0.0,0.0,0.0,0.0,0.0,0.0,0.0,0.0,0.0,0.0,0.0,0.0,0.0,0.0,0.0,0.0,0,0,0,0,0,0,0,0,0,0,0,1,0,0,1,0,0
402708542,14.8174,14.675184,0.0,3.5e-44,-1.0,0.019464213,1.0,1.0,nan,3,4.891728,4.891728,4.891728,0.0,0.0,0.0,0.0,0.0,0.0,0.0,0.0,0.0,0.0,0.0,0.0,0.0,0.0,0.0,0.0,0.0,0,0,0,0,0,0,0,0,0,0,0,1,0,0,1,0,0
402908593,14.801,14.680202,0.0,3.5e-44,-1.0,0.019464213,1.0,1.0,nan,3,4.8934007,4.8934007,4.8934007,0.0,0.0,0.0,0.0,0.0,0.0,0.0,0.0,0.0,0.0,0.0,0.0,0.0,0.0,0.0,0.0,0.0,0,0,0,0,0,0,0,0,0,0,0,1,0,0,1,0,0
403108545,14.5222,14.674994,0.0,3.5e-44,-1.0,0.019464213,1.0,1.0,nan,3,4.891665,4.891665,4.891665,0.0,0.0,0.0,0.0,0.0,0.0,0.0,0.0,0.0,0.0,0.0,0.0,0.0,0.0,0.0,0.0,0.0,0,0,0,0,0,0,0,0,0,0,0,1,0,0,1,0,0
403308556,14.7682,14.668989,0.0,3.5e-44,-1.0,0.019464213,1.0,1.0,nan,3,4.889663,4.889663,4.889663,0.0,0.0,0.0,0.0,0.0,0.0,0.0,0.0,0.0,0.0,0.0,0.0,0.0,0.0,0.0,0.0,0.0,0,0,0,0,0,0,0,0,0,0,0,1,0,0,1,0,0
403508559,14.801,14.654894,0.0,3.5e-44,-1.0,0.019464213,1.0,1.0,nan,3,4.8849645,4.8849645,4.8849645,0.0,0.0,0.0,0.0,0.0,0.0,0.0,0.0,0.0,0.0,0.0,0.0,0.0,0.0,0.0,0.0,0.0,0,0,0,0,0,0,0,0,0,0,0,1,0,0,1,0,0
403708596,14.9567995,14.663139,0.0,3.5e-44,-1.0,0.019464213,1.0,1.0,nan,3,4.887713,4.887713,4.887713,0.0,0.0,0.0,0.0,0.0,0.0,0.0,0.0,0.0,0.0,0.0,0.0,0.0,0.0,0.0,0.0,0.0,0,0,0,0,0,0,0,0,0,0,0,1,0,0,1,0,0
403908545,14.587799,14.68167,0.0,3.5e-44,-1.0,0.019464213,1.0,1.0,nan,3,4.89389,4.89389,4.89389,0.0,0.0,0.0,0.0,0.0,0.0,0.0,0.0,0.0,0.0,0.0,0.0,0.0,0.0,0.0,0.0,0.0,0,0,0,0,0,0,0,0,0,0,0,1,0,0,1,0,0
404108573,14.8174,14.673415,0.0,3.5e-44,-1.0,0.019464213,1.0,1.0,nan,3,4.8911386,4.8911386,4.8911386,0.0,0.0,0.0,0.0,0.0,0.0,0.0,0.0,0.0,0.0,0.0,0.0,0.0,0.0,0.0,0.0,0.0,0,0,0,0,0,0,0,0,0,0,0,1,0,0,1,0,0
404308658,14.9404,14.660876,0.0,3.5e-44,-1.0,0.019464213,1.0,1.0,nan,3,4.8869586,4.8869586,4.8869586,0.0,0.0,0.0,0.0,0.0,0.0,0.0,0.0,0.0,0.0,0.0,0.0,0.0,0.0,0.0,0.0,0.0,0,0,0,0,0,0,0,0,0,0,0,1,0,0,1,0,0
404508801,14.8748,14.661105,0.0,3.5e-44,-1.0,0.019464213,1.0,1.0,nan,3,4.887035,4.887035,4.887035,0.0,0.0,0.0,0.0,0.0,0.0,0.0,0.0,0.0,0.0,0.0,0.0,0.0,0.0,0.0,0.0,0.0,0,0,0,0,0,0,0,0,0,0,0,1,0,0,1,0,0
404708542,14.628799,14.6662445,0.0,3.5e-44,-1.0,0.019464213,1.0,1.0,nan,3,4.888748,4.888748,4.888748,0.0,0.0,0.0,0.0,0.0,0.0,0.0,0.0,0.0,0.0,0.0,0.0,0.0,0.0,0.0,0.0,0.0,0,0,0,0,0,0,0,0,0,0,0,1,0,0,1,0,0
404908547,14.8584,14.671915,0.0,3.5e-44,-1.0,0.019464213,1.0,1.0,nan,3,4.8906384,4.8906384,4.8906384,0.0,0.0,0.0,0.0,0.0,0.0,0.0,0.0,0.0,0.0,0.0,0.0,0.0,0.0,0.0,0.0,0.0,0,0,0,0,0,0,0,0,0,0,0,1,0,0,1,0,0
405108554,14.9404,14.6674,0.0,3.5e-44,-1.0,0.019464213,1.0,1.0,nan,3,4.8891335,4.8891335,4.8891335,0.0,0.0,0.0,0.0,0.0,0.0,0.0,0.0,0.0,0.0,0.0,0.0,0.0,0.0,0.0,0.0,0.0,0,0,0,0,0,0,0,0,0,0,0,1,0,0,1,0,0
405308556,14.251599,14.664848,0.0,3.5e-44,-1.0,0.019464213,1.0,1.0,nan,3,4.888283,4.888283,4.888283,0.0,0.0,0.0,0.0,0.0,0.0,0.0,0.0,0.0,0.0,0.0,0.0,0.0,0.0,0.0,0.0,0.0,0,0,0,0,0,0,0,0,0,0,0,1,0,0,1,0,0
405508615,14.792799,14.657168,0.0,3.5e-44,-1.0,0.019464213,1.0,1.0,nan,3,4.8857226,4.8857226,4.8857226,0.0,0.0,0.0,0.0,0.0,0.0,0.0,0.0,0.0,0.0,0.0,0.0,0.0,0.0,0.0,0.0,0.0,0,0,0,0,0,0,0,0,0,0,0,1,0,0,1,0,0
405708820,14.505799,14.66762,0.0,3.5e-44,-1.0,0.019464213,1.0,1.0,nan,3,4.8892064,4.8892064,4.8892064,0.0,0.0,0.0,0.0,0.0,0.0,0.0,0.0,0.0,0.0,0.0,0.0,0.0,0.0,0.0,0.0,0.0,0,0,0,0,0,0,0,0,0,0,0,1,0,0,1,0,0
405908598,14.8584,14.676632,0.0,3.5e-44,-1.0,0.019464213,1.0,1.0,nan,3,4.8922105,4.8922105,4.8922105,0.0,0.0,0.0,0.0,0.0,0.0,0.0,0.0,0.0,0.0,0.0,0.0,0.0,0.0,0.0,0.0,0.0,0,0,0,0,0,0,0,0,0,0,0,1,0,0,1,0,0
406108871,14.4402,14.6807995,0.0,3.5e-44,-1.0,0.019464213,1.0,1.0,nan,3,4.8936,4.8936,4.8936,0.0,0.0,0.0,0.0,0.0,0.0,0.0,0.0,0.0,0.0,0.0,0.0,0.0,0.0,0.0,0.0,0.0,0,0,0,0,0,0,0,0,0,0,0,1,0,0,1,0,0
406309065,14.604199,14.669651,0.0,3.5e-44,-1.0,0.019464213,1.0,1.0,nan,3,4.8898835,4.8898835,4.8898835,0.0,0.0,0.0,0.0,0.0,0.0,0.0,0.0,0.0,0.0,0.0,0.0,0.0,0.0,0.0,0.0,0.0,0,0,0,0,0,0,0,0,0,0,0,1,0,0,1,0,0
406509467,14.6124,14.682524,0.0,3.5e-44,-1.0,0.019464213,1.0,1.0,nan,3,4.8941746,4.8941746,4.8941746,0.0,0.0,0.0,0.0,0.0,0.0,0.0,0.0,0.0,0.0,0.0,0.0,0.0,0.0,0.0,0.0,0.0,0,0,0,0,0,0,0,0,0,0,0,1,0,0,1,0,0
406709093,14.4484005,14.68849,0.0,3.5e-44,-1.0,0.019464213,1.0,1.0,nan,3,4.8961635,4.8961635,4.8961635,0.0,0.0,0.0,0.0,0.0,0.0,0.0,0.0,0.0,0.0,0.0,0.0,0.0,0.0,0.0,0.0,0.0,0,0,0,0,0,0,0,0,0,0,0,1,0,0,1,0,0
406909466,14.4976,14.694158,0.0,3.5e-44,-1.0,0.019464213,1.0,1.0,nan,3,4.8980527,4.8980527,4.8980527,0.0,0.0,0.0,0.0,0.0,0.0,0.0,0.0,0.0,0.0,0.0,0.0,0.0,0.0,0.0,0.0,0.0,0,0,0,0,0,0,0,0,0,0,0,1,0,0,1,0,0
407309745,14.8174,14.683246,0.0,3.5e-44,-1.0,0.019464213,1.0,1.0,nan,3,4.8944154,4.8944154,4.8944154,0.0,0.0,0.0,0.0,0.0,0.0,0.0,0.0,0.0,0.0,0.0,0.0,0.0,0.0,0.0,0.0,0.0,0,0,0,0,0,0,0,0,0,0,0,1,0,0,1,0,0
407509926,14.8748,14.682686,0.0,3.5e-44,-1.0,0.019464213,1.0,1.0,nan,3,4.8942285,4.8942285,4.8942285,0.0,0.0,0.0,0.0,0.0,0.0,0.0,0.0,0.0,0.0,0.0,0.0,0.0,0.0,0.0,0.0,0.0,0,0,0,0,0,0,0,0,0,0,0,1,0,0,1,0,0
407710062,14.5386,14.6797,0.0,3.5e-44,-1.0,0.019464213,1.0,1.0,nan,3,4.8932333,4.8932333,4.8932333,0.0,0.0,0.0,0.0,0.0,0.0,0.0,0.0,0.0,0.0,0.0,0.0,0.0,0.0,0.0,0.0,0.0,0,0,0,0,0,0,0,0,0,0,0,1,0,0,1,0,0
407908547,14.833799,14.676488,0.0,3.5e-44,-1.0,0.019464213,1.0,1.0,nan,3,4.892163,4.892163,4.892163,0.0,0.0,0.0,0.0,0.0,0.0,0.0,0.0,0.0,0.0,0.0,0.0,0.0,0.0,0.0,0.0,0.0,0,0,0,0,0,0,0,0,0,0,0,1,0,0,1,0,0
408108546,14.9486,14.681758,0.0,3.5e-44,-1.0,0.019464213,1.0,1.0,nan,3,4.8939195,4.8939195,4.8939195,0.0,0.0,0.0,0.0,0.0,0.0,0.0,0.0,0.0,0.0,0.0,0.0,0.0,0.0,0.0,0.0,0.0,0,0,0,0,0,0,0,0,0,0,0,1,0,0,1,0,0
408308545,14.604199,14.6768265,0.0,3.5e-44,-1.0,0.019464213,1.0,1.0,nan,3,4.8922753,4.8922753,4.8922753,0.0,0.0,0.0,0.0,0.0,0.0,0.0,0.0,0.0,0.0,0.0,0.0,0.0,0.0,0.0,0.0,0.0,0,0,0,0,0,0,0,0,0,0,0,1,0,0,1,0,0
408508583,14.505799,14.658057,0.0,3.5e-44,-1.0,0.019464213,1.0,1.0,nan,3,4.886019,4.886019,4.886019,0.0,0.0,0.0,0.0,0.0,0.0,0.0,0.0,0.0,0.0,0.0,0.0,0.0,0.0,0.0,0.0,0.0,0,0,0,0,0,0,0,0,0,0,0,1,0,0,1,0,0
408708729,14.8748,14.669257,0.0,3.5e-44,-1.0,0.019464213,1.0,1.0,nan,3,4.8897524,4.8897524,4.8897524,0.0,0.0,0.0,0.0,0.0,0.0,0.0,0.0,0.0,0.0,0.0,0.0,0.0,0.0,0.0,0.0,0.0,0,0,0,0,0,0,0,0,0,0,0,1,0,0,1,0,0
408908545,14.3172,14.653089,0.0,3.5e-44,-1.0,0.019464213,1.0,1.0,nan,3,4.8843627,4.8843627,4.8843627,0.0,0.0,0.0,0.0,0.0,0.0,0.0,0.0,0.0,0.0,0.0,0.0,0.0,0.0,0.0,0.0,0.0,0,0,0,0,0,0,0,0,0,0,0,1,0,0,1,0,0
409108594,14.5222,14.653429,0.0,3.5e-44,-1.0,0.019464213,1.0,1.0,nan,3,4.884476,4.884476,4.884476,0.0,0.0,0.0,0.0,0.0,0.0,0.0,0.0,0.0,0.0,0.0,0.0,0.0,0.0,0.0,0.0,0.0,0,0,0,0,0,0,0,0,0,0,0,1,0,0,1,0,0
409308528,14.259799,14.651797,0.0,3.5e-44,-1.0,0.019464213,1.0,1.0,nan,3,4.8839326,4.8839326,4.8839326,0.0,0.0,0.0,0.0,0.0,0.0,0.0,0.0,0.0,0.0,0.0,0.0,0.0,0.0,0.0,0.0,0.0,0,0,0,0,0,0,0,0,0,0,0,1,0,0,1,0,0
409508642,14.899401,14.642597,0.0,3.5e-44,-1.0,0.019464213,1.0,1.0,nan,3,4.8808656,4.8808656,4.8808656,0.0,0.0,0.0,0.0,0.0,0.0,0.0,0.0,0.0,0.0,0.0,0.0,0.0,0.0,0.0,0.0,0.0,0,0,0,0,0,0,0,0,0,0,0,1,0,0,1,0,0
409708550,14.8256,14.64069,0.0,3.5e-44,-1.0,0.019464213,1.0,1.0,nan,3,4.88023,4.88023,4.88023,0.0,0.0,0.0,0.0,0.0,0.0,0.0,0.0,0.0,0.0,0.0,0.0,0.0,0.0,0.0,0.0,0.0,0,0,0,0,0,0,0,0,0,0,0,1,0,0,1,0,0
409908670,14.505799,14.641604,0.0,3.5e-44,-1.0,0.019464213,1.0,1.0,nan,3,4.8805346,4.8805346,4.8805346,0.0,0.0,0.0,0.0,0.0,0.0,0.0,0.0,0.0,0.0,0.0,0.0,0.0,0.0,0.0,0.0,0.0,0,0,0,0,0,0,0,0,0,0,0,1,0,0,1,0,0
410108602,14.596,14.629008,0.0,3.5e-44,-1.0,0.019464213,1.0,1.0,nan,3,4.876336,4.876336,4.876336,0.0,0.0,0.0,0.0,0.0,0.0,0.0,0.0,0.0,0.0,0.0,0.0,0.0,0.0,0.0,0.0,0.0,0,0,0,0,0,0,0,0,0,0,0,1,0,0,1,0,0
410308690,14.915799,14.6064005,0.0,3.5e-44,-1.0,0.019464213,1.0,1.0,nan,3,4.8688,4.8688,4.8688,0.0,0.0,0.0,0.0,0.0,0.0,0.0,0.0,0.0,0.0,0.0,0.0,0.0,0.0,0.0,0.0,0.0,0,0,0,0,0,0,0,0,0,0,0,1,0,0,1,0,0
410508704,14.8256,14.620653,0.0,3.5e-44,-1.0,0.019464213,1.0,1.0,nan,3,4.873551,4.873551,4.873551,0.0,0.0,0.0,0.0,0.0,0.0,0.0,0.0,0.0,0.0,0.0,0.0,0.0,0.0,0.0,0.0,0.0,0,0,0,0,0,0,0,0,0,0,0,1,0,0,1,0,0
410708838,14.8256,14.63092,0.0,3.5e-44,-1.0,0.019464213,1.0,1.0,nan,3,4.8769736,4.8769736,4.8769736,0.0,0.0,0.0,0.0,0.0,0.0,0.0,0.0,0.0,0.0,0.0,0.0,0.0,0.0,0.0,0.0,0.0,0,0,0,0,0,0,0,0,0,0,0,1,0,0,1,0,0
410908594,14.833799,14.6465025,0.0,3.5e-44,-1.0,0.019464213,1.0,1.0,nan,3,4.8821673,4.8821673,4.8821673,0.0,0.0,0.0,0.0,0.0,0.0,0.0,0.0,0.0,0.0,0.0,0.0,0.0,0.0,0.0,0.0,0.0,0,0,0,0,0,0,0,0,0,0,0,1,0,0,1,0,0
411108610,14.8174,14.656859,0.0,3.5e-44,-1.0,0.019464213,1.0,1.0,nan,3,4.8856196,4.8856196,4.8856196,0.0,0.0,0.0,0.0,0.0,0.0,0.0,0.0,0.0,0.0,0.0,0.0,0.0,0.0,0.0,0.0,0.0,0,0,0,0,0,0,0,0,0,0,0,1,0,0,1,0,0
411308542,14.464799,14.660775,0.0,3.5e-44,-1.0,0.019464213,1.0,1.0,nan,3,4.886925,4.886925,4.886925,0.0,0.0,0.0,0.0,0.0,0.0,0.0,0.0,0.0,0.0,0.0,0.0,0.0,0.0,0.0,0.0,0.0,0,0,0,0,0,0,0,0,0,0,0,1,0,0,1,0,0
411508549,14.891199,14.654039,0.0,3.5e-44,-1.0,0.019464213,1.0,1.0,nan,3,4.88468,4.88468,4.88468,0.0,0.0,0.0,0.0,0.0,0.0,0.0,0.0,0.0,0.0,0.0,0.0,0.0,0.0,0.0,0.0,0.0,0,0,0,0,0,0,0,0,0,0,0,1,0,0,1,0,0
411708552,14.842,14.663585,0.0,3.5e-44,-1.0,0.019464213,1.0,1.0,nan,3,4.8878617,4.8878617,4.8878617,0.0,0.0,0.0,0.0,0.0,0.0,0.0,0.0,0.0,0.0,0.0,0.0,0.0,0.0,0.0,0.0,0.0,0,0,0,0,0,0,0,0,0,0,0,1,0,0,1,0,0
411908554,14.8256,14.653051,0.0,3.5e-44,-1.0,0.019464213,1.0,1.0,nan,3,4.8843503,4.8843503,4.8843503,0.0,0.0,0.0,0.0,0.0,0.0,0.0,0.0,0.0,0.0,0.0,0.0,0.0,0.0,0.0,0.0,0.0,0,0,0,0,0,0,0,0,0,0,0,1,0,0,1,0,0
412108545,14.907599,14.666437,0.0,3.5e-44,-1.0,0.019464213,1.0,1.0,nan,3,4.8888125,4.8888125,4.8888125,0.0,0.0,0.0,0.0,0.0,0.0,0.0,0.0,0.0,0.0,0.0,0.0,0.0,0.0,0.0,0.0,0.0,0,0,0,0,0,0,0,0,0,0,0,1,0,0,1,0,0
412308598,14.571401,14.653147,0.0,3.5e-44,-1.0,0.019464213,1.0,1.0,nan,3,4.8843822,4.8843822,4.8843822,0.0,0.0,0.0,0.0,0.0,0.0,0.0,0.0,0.0,0.0,0.0,0.0,0.0,0.0,0.0,0.0,0.0,0,0,0,0,0,0,0,0,0,0,0,1,0,0,1,0,0
412508550,14.6206,14.647463,0.0,3.5e-44,-1.0,0.019464213,1.0,1.0,nan,3,4.882488,4.882488,4.882488,0.0,0.0,0.0,0.0,0.0,0.0,0.0,0.0,0.0,0.0,0.0,0.0,0.0,0.0,0.0,0.0,0.0,0,0,0,0,0,0,0,0,0,0,0,1,0,0,1,0,0
412708558,14.7846,14.627147,0.0,3.5e-44,-1.0,0.019464213,1.0,1.0,nan,3,4.8757157,4.8757157,4.8757157,0.0,0.0,0.0,0.0,0.0,0.0,0.0,0.0,0.0,0.0,0.0,0.0,0.0,0.0,0.0,0.0,0.0,0,0,0,0,0,0,0,0,0,0,0,1,0,0,1,0,0
412908746,14.555,14.610413,0.0,3.5e-44,-1.0,0.019464213,1.0,1.0,nan,3,4.8701377,4.8701377,4.8701377,0.0,0.0,0.0,0.0,0.0,0.0,0.0,0.0,0.0,0.0,0.0,0.0,0.0,0.0,0.0,0.0,0.0,0,0,0,0,0,0,0,0,0,0,0,1,0,0,1,0,0
413108685,14.35,14.601304,0.0,3.5e-44,-1.0,0.019464213,1.0,1.0,nan,3,4.867101,4.867101,4.867101,0.0,0.0,0.0,0.0,0.0,0.0,0.0,0.0,0.0,0.0,0.0,0.0,0.0,0.0,0.0,0.0,0.0,0,0,0,0,0,0,0,0,0,0,0,1,0,0,1,0,0
413509198,14.883,14.578004,0.0,3.5e-44,-1.0,0.019464213,1.0,1.0,nan,3,4.8593345,4.8593345,4.8593345,0.0,0.0,0.0,0.0,0.0,0.0,0.0,0.0,0.0,0.0,0.0,0.0,0.0,0.0,0.0,0.0,0.0,0,0,0,0,0,0,0,0,0,0,0,1,0,0,1,0,0
413709273,14.35,14.574111,0.0,3.5e-44,-1.0,0.019464213,1.0,1.0,nan,3,4.858037,4.858037,4.858037,0.0,0.0,0.0,0.0,0.0,0.0,0.0,0.0,0.0,0.0,0.0,0.0,0.0,0.0,0.0,0.0,0.0,0,0,0,0,0,0,0,0,0,0,0,1,0,0,1,0,0
413908542,14.4237995,14.58021,0.0,3.5e-44,-1.0,0.019464213,1.0,1.0,nan,3,4.8600698,4.8600698,4.8600698,0.0,0.0,0.0,0.0,0.0,0.0,0.0,0.0,0.0,0.0,0.0,0.0,0.0,0.0,0.0,0.0,0.0,0,0,0,0,0,0,0,0,0,0,0,1,0,0,1,0,0
414108555,14.801,14.583807,0.0,3.5e-44,-1.0,0.019464213,1.0,1.0,nan,3,4.861269,4.861269,4.861269,0.0,0.0,0.0,0.0,0.0,0.0,0.0,0.0,0.0,0.0,0.0,0.0,0.0,0.0,0.0,0.0,0.0,0,0,0,0,0,0,0,0,0,0,0,1,0,0,1,0,0
414308522,14.5386,14.5803585,0.0,3.5e-44,-1.0,0.019464213,1.0,1.0,nan,3,4.8601193,4.8601193,4.8601193,0.0,0.0,0.0,0.0,0.0,0.0,0.0,0.0,0.0,0.0,0.0,0.0,0.0,0.0,0.0,0.0,0.0,0,0,0,0,0,0,0,0,0,0,0,1,0,0,1,0,0
414508545,14.4074,14.578052,0.0,3.5e-44,-1.0,0.019464213,1.0,1.0,nan,3,4.8593507,4.8593507,4.8593507,0.0,0.0,0.0,0.0,0.0,0.0,0.0,0.0,0.0,0.0,0.0,0.0,0.0,0.0,0.0,0.0,0.0,0,0,0,0,0,0,0,0,0,0,0,1,0,0,1,0,0
414708597,14.915799,14.580321,0.0,3.5e-44,-1.0,0.019464213,1.0,1.0,nan,3,4.860107,4.860107,4.860107,0.0,0.0,0.0,0.0,0.0,0.0,0.0,0.0,0.0,0.0,0.0,0.0,0.0,0.0,0.0,0.0,0.0,0,0,0,0,0,0,0,0,0,0,0,1,0,0,1,0,0
414908508,14.4484005,14.601113,0.0,3.5e-44,-1.0,0.019464213,1.0,1.0,nan,3,4.867038,4.867038,4.867038,0.0,0.0,0.0,0.0,0.0,0.0,0.0,0.0,0.0,0.0,0.0,0.0,0.0,0.0,0.0,0.0,0.0,0,0,0,0,0,0,0,0,0,0,0,1,0,0,1,0,0
415108594,14.7846,14.597521,0.0,3.5e-44,-1.0,0.019464213,1.0,1.0,nan,3,4.8658404,4.8658404,4.8658404,0.0,0.0,0.0,0.0,0.0,0.0,0.0,0.0,0.0,0.0,0.0,0.0,0.0,0.0,0.0,0.0,0.0,0,0,0,0,0,0,0,0,0,0,0,1,0,0,1,0,0
415308552,14.4402,14.592357,0.0,3.5e-44,-1.0,0.019464213,1.0,1.0,nan,3,4.864119,4.864119,4.864119,0.0,0.0,0.0,0.0,0.0,0.0,0.0,0.0,0.0,0.0,0.0,0.0,0.0,0.0,0.0,0.0,0.0,0,0,0,0,0,0,0,0,0,0,0,1,0,0,1,0,0
415508545,14.7846,14.595003,0.0,3.5e-44,-1.0,0.019464213,1.0,1.0,nan,3,4.865001,4.865001,4.865001,0.0,0.0,0.0,0.0,0.0,0.0,0.0,0.0,0.0,0.0,0.0,0.0,0.0,0.0,0.0,0.0,0.0,0,0,0,0,0,0,0,0,0,0,0,1,0,0,1,0,0
415708505,14.587799,14.578845,0.0,3.5e-44,-1.0,0.019464213,1.0,1.0,nan,3,4.859615,4.859615,4.859615,0.0,0.0,0.0,0.0,0.0,0.0,0.0,0.0,0.0,0.0,0.0,0.0,0.0,0.0,0.0,0.0,0.0,0,0,0,0,0,0,0,0,0,0,0,1,0,0,1,0,0
416108545,14.4484005,14.572643,0.0,3.5e-44,-1.0,0.019464213,1.0,1.0,nan,3,4.8575478,4.8575478,4.8575478,0.0,0.0,0.0,0.0,0.0,0.0,0.0,0.0,0.0,0.0,0.0,0.0,0.0,0.0,0.0,0.0,0.0,0,0,0,0,0,0,0,0,0,0,0,1,0,0,1,0,0
416308560,14.637,14.570915,0.0,3.5e-44,-1.0,0.019464213,1.0,1.0,nan,3,4.8569717,4.8569717,4.8569717,0.0,0.0,0.0,0.0,0.0,0.0,0.0,0.0,0.0,0.0,0.0,0.0,0.0,0.0,0.0,0.0,0.0,0,0,0,0,0,0,0,0,0,0,0,1,0,0,1,0,0
416508762,14.686199,14.562567,0.0,3.5e-44,-1.0,0.019464213,1.0,1.0,nan,3,4.854189,4.854189,4.854189,0.0,0.0,0.0,0.0,0.0,0.0,0.0,0.0,0.0,0.0,0.0,0.0,0.0,0.0,0.0,0.0,0.0,0,0,0,0,0,0,0,0,0,0,0,1,0,0,1,0,0
416708984,14.6534,14.549954,0.0,3.5e-44,-1.0,0.019464213,1.0,1.0,nan,3,4.8499846,4.8499846,4.8499846,0.0,0.0,0.0,0.0,0.0,0.0,0.0,0.0,0.0,0.0,0.0,0.0,0.0,0.0,0.0,0.0,0.0,0,0,0,0,0,0,0,0,0,0,0,1,0,0,1,0,0
417108524,14.6206,14.532641,0.0,3.5e-44,-1.0,0.019464213,1.0,1.0,nan,3,4.844214,4.844214,4.844214,0.0,0.0,0.0,0.0,0.0,0.0,0.0,0.0,0.0,0.0,0.0,0.0,0.0,0.0,0.0,0.0,0.0,0,0,0,0,0,0,0,0,0,0,0,1,0,0,1,0,0
417308556,14.268,14.516447,0.0,3.5e-44,-1.0,0.019464213,1.0,1.0,nan,3,4.8388157,4.8388157,4.8388157,0.0,0.0,0.0,0.0,0.0,0.0,0.0,0.0,0.0,0.0,0.0,0.0,0.0,0.0,0.0,0.0,0.0,0,0,0,0,0,0,0,0,0,0,0,1,0,0,1,0,0
417508556,14.2106,14.516629,0.0,3.5e-44,-1.0,0.019464213,1.0,1.0,nan,3,4.8388762,4.8388762,4.8388762,0.0,0.0,0.0,0.0,0.0,0.0,0.0,0.0,0.0,0.0,0.0,0.0,0.0,0.0,0.0,0.0,0.0,0,0,0,0,0,0,0,0,0,0,0,1,0,0,1,0,0
417708549,14.473,14.505413,0.0,3.5e-44,-1.0,0.019464213,1.0,1.0,nan,3,4.835138,4.835138,4.835138,0.0,0.0,0.0,0.0,0.0,0.0,0.0,0.0,0.0,0.0,0.0,0.0,0.0,0.0,0.0,0.0,0.0,0,0,0,0,0,0,0,0,0,0,0,1,0,0,1,0,0
417908646,14.4402,14.510744,0.0,3.5e-44,-1.0,0.019464213,1.0,1.0,nan,3,4.8369145,4.8369145,4.8369145,0.0,0.0,0.0,0.0,0.0,0.0,0.0,0.0,0.0,0.0,0.0,0.0,0.0,0.0,0.0,0.0,0.0,0,0,0,0,0,0,0,0,0,0,0,1,0,0,1,0,0
418108715,14.6534,14.5087385,0.0,3.5e-44,-1.0,0.019464213,1.0,1.0,nan,3,4.836246,4.836246,4.836246,0.0,0.0,0.0,0.0,0.0,0.0,0.0,0.0,0.0,0.0,0.0,0.0,0.0,0.0,0.0,0.0,0.0,0,0,0,0,0,0,0,0,0,0,0,1,0,0,1,0,0
418308628,14.7354,14.508877,0.0,3.5e-44,-1.0,0.019464213,1.0,1.0,nan,3,4.8362923,4.8362923,4.8362923,0.0,0.0,0.0,0.0,0.0,0.0,0.0,0.0,0.0,0.0,0.0,0.0,0.0,0.0,0.0,0.0,0.0,0,0,0,0,0,0,0,0,0,0,0,1,0,0,1,0,0
418508622,14.309,14.506007,0.0,3.5e-44,-1.0,0.019464213,1.0,1.0,nan,3,4.8353357,4.8353357,4.8353357,0.0,0.0,0.0,0.0,0.0,0.0,0.0,0.0,0.0,0.0,0.0,0.0,0.0,0.0,0.0,0.0,0.0,0,0,0,0,0,0,0,0,0,0,0,1,0,0,1,0,0
418708930,14.669799,14.494523,0.0,3.5e-44,-1.0,0.019464213,1.0,1.0,nan,3,4.8315077,4.8315077,4.8315077,0.0,0.0,0.0,0.0,0.0,0.0,0.0,0.0,0.0,0.0,0.0,0.0,0.0,0.0,0.0,0.0,0.0,0,0,0,0,0,0,0,0,0,0,0,1,0,0,1,0,0
418909285,14.358199,14.491764,0.0,3.5e-44,-1.0,0.019464213,1.0,1.0,nan,3,4.830588,4.830588,4.830588,0.0,0.0,0.0,0.0,0.0,0.0,0.0,0.0,0.0,0.0,0.0,0.0,0.0,0.0,0.0,0.0,0.0,0,0,0,0,0,0,0,0,0,0,0,1,0,0,1,0,0
419109401,14.505799,14.504438,0.0,3.5e-44,-1.0,0.019464213,1.0,1.0,nan,3,4.8348126,4.8348126,4.8348126,0.0,0.0,0.0,0.0,0.0,0.0,0.0,0.0,0.0,0.0,0.0,0.0,0.0,0.0,0.0,0.0,0.0,0,0,0,0,0,0,0,0,0,0,0,1,0,0,1,0,0
419309905,14.6534,14.51412,0.0,3.5e-44,-1.0,0.019464213,1.0,1.0,nan,3,4.83804,4.83804,4.83804,0.0,0.0,0.0,0.0,0.0,0.0,0.0,0.0,0.0,0.0,0.0,0.0,0.0,0.0,0.0,0.0,0.0,0,0,0,0,0,0,0,0,0,0,0,1,0,0,1,0,0
419509626,14.3254,14.500008,0.0,3.5e-44,-1.0,0.019464213,1.0,1.0,nan,3,4.833336,4.833336,4.833336,0.0,0.0,0.0,0.0,0.0,0.0,0.0,0.0,0.0,0.0,0.0,0.0,0.0,0.0,0.0,0.0,0.0,0,0,0,0,0,0,0,0,0,0,0,1,0,0,1,0,0
419709951,14.587799,14.499412,0.0,3.5e-44,-1.0,0.019464213,1.0,1.0,nan,3,4.833137,4.833137,4.833137,0.0,0.0,0.0,0.0,0.0,0.0,0.0,0.0,0.0,0.0,0.0,0.0,0.0,0.0,0.0,0.0,0.0,0,0,0,0,0,0,0,0,0,0,0,1,0,0,1,0,0
419910163,14.4237995,14.500451,0.0,3.5e-44,-1.0,0.019464213,1.0,1.0,nan,3,4.8334837,4.8334837,4.8334837,0.0,0.0,0.0,0.0,0.0,0.0,0.0,0.0,0.0,0.0,0.0,0.0,0.0,0.0,0.0,0.0,0.0,0,0,0,0,0,0,0,0,0,0,0,1,0,0,1,0,0
420108547,14.7682,14.509084,0.0,3.5e-44,-1.0,0.019464213,1.0,1.0,nan,3,4.8363614,4.8363614,4.8363614,0.0,0.0,0.0,0.0,0.0,0.0,0.0,0.0,0.0,0.0,0.0,0.0,0.0,0.0,0.0,0.0,0.0,0,0,0,0,0,0,0,0,0,0,0,1,0,0,1,0,0
420308545,14.719,14.513895,0.0,3.5e-44,-1.0,0.019464213,1.0,1.0,nan,3,4.837965,4.837965,4.837965,0.0,0.0,0.0,0.0,0.0,0.0,0.0,0.0,0.0,0.0,0.0,0.0,0.0,0.0,0.0,0.0,0.0,0,0,0,0,0,0,0,0,0,0,0,1,0,0,1,0,0
420508542,14.382799,14.505691,0.0,3.5e-44,-1.0,0.019464213,1.0,1.0,nan,3,4.8352304,4.8352304,4.8352304,0.0,0.0,0.0,0.0,0.0,0.0,0.0,0.0,0.0,0.0,0.0,0.0,0.0,0.0,0.0,0.0,0.0,0,0,0,0,0,0,0,0,0,0,0,1,0,0,1,0,0
420708545,14.268,14.491653,0.0,3.5e-44,-1.0,0.019464213,1.0,1.0,nan,3,4.830551,4.830551,4.830551,0.0,0.0,0.0,0.0,0.0,0.0,0.0,0.0,0.0,0.0,0.0,0.0,0.0,0.0,0.0,0.0,0.0,0,0,0,0,0,0,0,0,0,0,0,1,0,0,1,0,0
420908604,14.842,14.501346,0.0,3.5e-44,-1.0,0.019464213,1.0,1.0,nan,3,4.8337817,4.8337817,4.8337817,0.0,0.0,0.0,0.0,0.0,0.0,0.0,0.0,0.0,0.0,0.0,0.0,0.0,0.0,0.0,0.0,0.0,0,0,0,0,0,0,0,0,0,0,0,1,0,0,1,0,0
421108542,14.309,14.500142,0.0,3.5e-44,-1.0,0.019464213,1.0,1.0,nan,3,4.8333807,4.8333807,4.8333807,0.0,0.0,0.0,0.0,0.0,0.0,0.0,0.0,0.0,0.0,0.0,0.0,0.0,0.0,0.0,0.0,0.0,0,0,0,0,0,0,0,0,0,0,0,1,0,0,1,0,0
421308525,14.382799,14.479497,0.0,3.5e-44,-1.0,0.019464213,1.0,1.0,nan,3,4.826499,4.826499,4.826499,0.0,0.0,0.0,0.0,0.0,0.0,0.0,0.0,0.0,0.0,0.0,0.0,0.0,0.0,0.0,0.0,0.0,0,0,0,0,0,0,0,0,0,0,0,1,0,0,1,0,0
421508582,14.358199,14.465778,0.0,3.5e-44,-1.0,0.019464213,1.0,1.0,nan,3,4.821926,4.821926,4.821926,0.0,0.0,0.0,0.0,0.0,0.0,0.0,0.0,0.0,0.0,0.0,0.0,0.0,0.0,0.0,0.0,0.0,0,0,0,0,0,0,0,0,0,0,0,1,0,0,1,0,0
421708729,14.801,14.464104,0.0,3.5e-44,-1.0,0.019464213,1.0,1.0,nan,3,4.8213677,4.8213677,4.8213677,0.0,0.0,0.0,0.0,0.0,0.0,0.0,0.0,0.0,0.0,0.0,0.0,0.0,0.0,0.0,0.0,0.0,0,0,0,0,0,0,0,0,0,0,0,1,0,0,1,0,0
421908609,14.8174,14.465814,0.0,3.5e-44,-1.0,0.019464213,1.0,1.0,nan,3,4.821938,4.821938,4.821938,0.0,0.0,0.0,0.0,0.0,0.0,0.0,0.0,0.0,0.0,0.0,0.0,0.0,0.0,0.0,0.0,0.0,0,0,0,0,0,0,0,0,0,0,0,1,0,0,1,0,0
422108592,14.669799,14.467795,0.0,3.5e-44,-1.0,0.019464213,1.0,1.0,nan,3,4.8225985,4.8225985,4.8225985,0.0,0.0,0.0,0.0,0.0,0.0,0.0,0.0,0.0,0.0,0.0,0.0,0.0,0.0,0.0,0.0,0.0,0,0,0,0,0,0,0,0,0,0,0,1,0,0,1,0,0
422308598,14.6534,14.472661,0.0,3.5e-44,-1.0,0.019464213,1.0,1.0,nan,3,4.82422,4.82422,4.82422,0.0,0.0,0.0,0.0,0.0,0.0,0.0,0.0,0.0,0.0,0.0,0.0,0.0,0.0,0.0,0.0,0.0,0,0,0,0,0,0,0,0,0,0,0,1,0,0,1,0,0
422508669,14.309,14.45973,0.0,3.5e-44,-1.0,0.019464213,1.0,1.0,nan,3,4.81991,4.81991,4.81991,0.0,0.0,0.0,0.0,0.0,0.0,0.0,0.0,0.0,0.0,0.0,0.0,0.0,0.0,0.0,0.0,0.0,0,0,0,0,0,0,0,0,0,0,0,1,0,0,1,0,0
422708689,14.809199,14.466763,0.0,3.5e-44,-1.0,0.019464213,1.0,1.0,nan,3,4.822254,4.822254,4.822254,0.0,0.0,0.0,0.0,0.0,0.0,0.0,0.0,0.0,0.0,0.0,0.0,0.0,0.0,0.0,0.0,0.0,0,0,0,0,0,0,0,0,0,0,0,1,0,0,1,0,0
422908935,14.669799,14.473818,0.0,3.5e-44,-1.0,0.019464213,1.0,1.0,nan,3,4.824606,4.824606,4.824606,0.0,0.0,0.0,0.0,0.0,0.0,0.0,0.0,0.0,0.0,0.0,0.0,0.0,0.0,0.0,0.0,0.0,0,0,0,0,0,0,0,0,0,0,0,1,0,0,1,0,0
423109022,14.3254,14.489864,0.0,3.5e-44,-1.0,0.019464213,1.0,1.0,nan,3,4.8299546,4.8299546,4.8299546,0.0,0.0,0.0,0.0,0.0,0.0,0.0,0.0,0.0,0.0,0.0,0.0,0.0,0.0,0.0,0.0,0.0,0,0,0,0,0,0,0,0,0,0,0,1,0,0,1,0,0
423308615,14.669799,14.47585,0.0,3.5e-44,-1.0,0.019464213,1.0,1.0,nan,3,4.8252835,4.8252835,4.8252835,0.0,0.0,0.0,0.0,0.0,0.0,0.0,0.0,0.0,0.0,0.0,0.0,0.0,0.0,0.0,0.0,0.0,0,0,0,0,0,0,0,0,0,0,0,1,0,0,1,0,0
423508561,14.4074,14.46947,0.0,3.5e-44,-1.0,0.019464213,1.0,1.0,nan,3,4.823157,4.823157,4.823157,0.0,0.0,0.0,0.0,0.0,0.0,0.0,0.0,0.0,0.0,0.0,0.0,0.0,0.0,0.0,0.0,0.0,0,0,0,0,0,0,0,0,0,0,0,1,0,0,1,0,0
423708553,14.2352,14.464972,0.0,3.5e-44,-1.0,0.019464213,1.0,1.0,nan,3,4.821657,4.821657,4.821657,0.0,0.0,0.0,0.0,0.0,0.0,0.0,0.0,0.0,0.0,0.0,0.0,0.0,0.0,0.0,0.0,0.0,0,0,0,0,0,0,0,0,0,0,0,1,0,0,1,0,0
423908639,14.300799,14.488399,0.1116,0.007194002,-1.0,0.02050632,1.0,1.0,nan,3,4.8294663,4.8294663,4.8294663,0.0,0.0,0.0,0.0,0.0,0.0,0.0,0.0,0.0,0.0,0.0,0.0,0.0,0.0,0.0,0.0,0.0,0,0,0,0,0,0,0,0,0,0,0,1,0,0,1,0,0
424108686,14.6206,14.459014,2.5296001,0.33198288,-1.0,0.07119992,1.0,1.0,nan,3,4.819671,4.819671,4.819671,0.0,0.0,0.0,0.0,0.0,0.0,0.0,0.0,0.0,0.0,0.0,0.0,0.0,0.0,0.0,0.0,0.0,0,0,0,0,0,0,0,0,0,0,0,1,0,0,1,0,0
424308516,14.7354,14.445977,1.0663999,0.5100452,-1.0,0.12394369,1.0,1.0,nan,3,4.8153257,4.8153257,4.8153257,0.0,0.0,0.0,0.0,0.0,0.0,0.0,0.0,0.0,0.0,0.0,0.0,0.0,0.0,0.0,0.0,0.0,0,0,0,0,0,0,0,0,0,0,0,1,0,0,1,0,0
424508599,14.35,14.453906,0.0,0.5301565,-1.0,0.15872967,1.0,1.0,nan,3,4.817969,4.817969,4.817969,0.0,0.0,0.0,0.0,0.0,0.0,0.0,0.0,0.0,0.0,0.0,0.0,0.0,0.0,0.0,0.0,0.0,0,0,0,0,0,0,0,0,0,0,0,1,0,0,1,0,0
424708547,14.5304,14.436877,2.6411998,0.8787224,-1.0,0.24222441,1.0,1.0,nan,3,4.8122926,4.8122926,4.8122926,0.0,0.0,0.0,0.0,0.0,0.0,0.0,0.0,0.0,0.0,0.0,0.0,0.0,0.0,0.0,0.0,0.0,0,0,0,0,0,0,0,0,0,0,0,1,0,0,1,0,0
424908551,14.186,14.41996,3.658,1.7207667,-1.0,0.4288869,1.0,1.0,nan,3,4.8066535,4.8066535,4.8066535,0.0,0.0,0.0,0.0,0.0,0.0,0.0,0.0,0.0,0.0,0.0,0.0,0.0,0.0,0.0,0.0,0.0,0,0,0,0,0,0,0,0,0,0,0,1,0,0,1,0,0
425108685,14.309,14.414762,5.4063997,3.2449586,-1.0,0.7780799,1.0,1.0,nan,3,4.8049207,4.8049207,4.8049207,0.0,0.0,0.0,0.0,0.0,0.0,0.0,0.0,0.0,0.0,0.0,0.0,0.0,0.0,0.0,0.0,0.0,0,0,0,0,0,0,0,0,0,0,0,1,0,0,1,0,0
425308747,14.4237995,14.377782,5.7412,3.7541635,-1.0,1.0453483,1.0,1.0,nan,3,4.792594,4.792594,4.792594,0.0,0.0,0.0,0.0,0.0,0.0,0.0,0.0,0.0,0.0,0.0,0.0,0.0,0.0,0.0,0.0,0.0,0,0,0,0,0,0,0,0,0,0,0,1,0,0,1,0,0
425508800,14.571401,14.35833,5.5676,4.061804,-1.0,1.3064826,1.0,1.0,nan,3,4.78611,4.78611,4.78611,0.0,0.0,0.0,0.0,0.0,0.0,0.0,0.0,0.0,0.0,0.0,0.0,0.0,0.0,0.0,0.0,0.0,0,0,0,0,0,0,0,0,0,0,0,1,0,0,1,0,0
425709174,14.358199,14.32983,14.8056,5.6841393,-1.0,1.8015147,1.0,1.0,nan,3,4.77661,4.77661,4.77661,0.0,0.0,0.0,0.0,0.0,0.0,0.0,0.0,0.0,0.0,0.0,0.0,0.0,0.0,0.0,0.0,0.0,0,0,0,0,0,0,0,0,0,0,0,1,0,0,1,0,0
425909293,14.2926,14.304724,13.3052,8.410887,-1.0,2.5881763,1.0,1.0,nan,3,4.7682414,4.7682414,4.7682414,0.0,0.0,0.0,0.0,0.0,0.0,0.0,0.0,0.0,0.0,0.0,0.0,0.0,0.0,0.0,0.0,0.0,0,0,0,0,0,0,0,0,0,0,0,1,0,0,1,0,0
426109287,14.2926,14.294007,12.486799,9.71814,-1.0,3.2825735,1.0,1.0,nan,3,4.764669,4.764669,4.764669,0.0,0.0,0.0,0.0,0.0,0.0,0.0,0.0,0.0,0.0,0.0,0.0,0.0,0.0,0.0,0.0,0.0,0,0,0,0,0,0,0,0,0,0,0,1,0,0,1,0,0
426308552,13.6858,14.254608,25.469599,12.691419,-1.0,4.2928,1.0,1.0,nan,3,4.751536,4.751536,4.751536,0.0,0.0,0.0,0.0,0.0,0.0,0.0,0.0,0.0,0.0,0.0,0.0,0.0,0.0,0.0,0.0,0.0,0,0,0,0,0,0,0,0,0,0,0,1,0,0,1,0,0
426508548,13.931799,14.202908,21.6132,16.02094,-1.0,5.5700436,1.0,1.0,nan,3,4.7343025,4.7343025,4.7343025,0.0,0.0,0.0,0.0,0.0,0.0,0.0,0.0,0.0,0.0,0.0,0.0,0.0,0.0,0.0,0.0,0.0,0,0,0,0,0,0,0,0,0,0,0,1,0,0,1,0,0
426908548,13.718599,14.036871,48.856,28.74042,-1.0,9.738418,1.0,1.0,nan,3,4.678957,4.678957,4.678957,0.0,0.0,0.0,0.0,0.0,0.0,0.0,0.0,0.0,0.0,0.0,0.0,0.0,0.0,0.0,0.0,0.0,0,0,0,0,0,0,0,0,0,0,0,1,0,0,1,0,0
427108507,13.7514,13.945182,46.624,34.813885,-1.0,12.370568,1.0,1.0,nan,3,4.648394,4.648394,4.648394,0.0,0.0,0.0,0.0,0.0,0.0,0.0,0.0,0.0,0.0,0.0,0.0,0.0,0.0,0.0,0.0,0.0,0,0,0,0,0,0,0,0,0,0,0,1,0,0,1,0,0
427308596,13.2266,13.842816,50.0836,39.45728,-1.0,15.083169,1.0,1.0,nan,3,4.614272,4.614272,4.614272,0.0,0.0,0.0,0.0,0.0,0.0,0.0,0.0,0.0,0.0,0.0,0.0,0.0,0.0,0.0,0.0,0.0,0,0,0,0,0,0,0,0,0,0,0,1,0,0,1,0,0
427508752,13.5874,13.7594595,50.778,43.043434,-1.0,17.882593,1.0,1.0,nan,3,4.5864863,4.5864863,4.5864863,0.0,0.0,0.0,0.0,0.0,0.0,0.0,0.0,0.0,0.0,0.0,0.0,0.0,0.0,0.0,0.0,0.0,0,0,0,0,0,0,0,0,0,0,0,1,0,0,1,0,0
427708553,12.956,13.641986,50.778,45.57286,-1.0,20.702873,1.0,1.0,nan,3,4.5473285,4.5473285,4.5473285,0.0,0.0,0.0,0.0,0.0,0.0,0.0,0.0,0.0,0.0,0.0,0.0,0.0,0.0,0.0,0.0,0.0,0,0,0,0,0,0,0,0,0,0,0,1,0,0,1,0,0
427908645,13.193799,13.528852,50.778,47.27509,-1.0,23.525167,1.0,1.0,nan,3,4.5096173,4.5096173,4.5096173,0.0,0.0,0.0,0.0,0.0,0.0,0.0,0.0,0.0,0.0,0.0,0.0,0.0,0.0,0.0,0.0,0.0,0,0,0,0,0,0,0,0,0,0,0,1,0,0,1,0,0
428108545,13.111799,13.435837,50.778,48.420647,-1.0,26.344772,1.0,1.0,nan,3,4.4786124,4.4786124,4.4786124,0.0,0.0,0.0,0.0,0.0,0.0,0.0,0.0,0.0,0.0,0.0,0.0,0.0,0.0,0.0,0.0,0.0,0,0,0,0,0,0,0,0,0,0,0,1,0,0,1,0,0
428308547,12.767401,13.354259,50.778,49.19157,-1.0,29.165789,1.0,1.0,nan,3,4.4514194,4.4514194,4.4514194,0.0,0.0,0.0,0.0,0.0,0.0,0.0,0.0,0.0,0.0,0.0,0.0,0.0,0.0,0.0,0.0,0.0,0,0,0,0,0,0,0,0,0,0,0,1,0,0,1,0,0
428508672,13.2266,13.296974,50.778,49.71038,-1.0,31.988554,1.0,1.0,nan,3,4.432325,4.432325,4.432325,0.0,0.0,0.0,0.0,0.0,0.0,0.0,0.0,0.0,0.0,0.0,0.0,0.0,0.0,0.0,0.0,0.0,0,0,0,0,0,0,0,0,0,0,0,1,0,0,1,0,0
428708894,13.325,13.255014,50.778,50.059525,-1.0,34.812675,1.0,1.0,nan,3,4.4183383,4.4183383,4.4183383,0.0,0.0,0.0,0.0,0.0,0.0,0.0,0.0,0.0,0.0,0.0,0.0,0.0,0.0,0.0,0.0,0.0,0,0,0,0,0,0,0,0,0,0,0,1,0,0,1,0,0
428908971,12.660799,13.214795,50.778,50.29449,-1.0,37.634773,1.0,1.0,nan,3,4.4049315,4.4049315,4.4049315,0.0,0.0,0.0,0.0,0.0,0.0,0.0,0.0,0.0,0.0,0.0,0.0,0.0,0.0,0.0,0.0,0.0,0,0,0,0,0,0,0,0,0,0,0,1,0,0,1,0,0
429109088,12.8248,13.175816,50.778,50.45262,-1.0,40.45742,1.0,1.0,nan,3,4.3919387,4.3919387,4.3919387,0.0,0.0,0.0,0.0,0.0,0.0,0.0,0.0,0.0,0.0,0.0,0.0,0.0,0.0,0.0,0.0,0.0,0,0,0,0,0,0,0,0,0,0,0,1,0,0,1,0,0
429308909,13.407,13.127674,50.778,50.55903,-1.0,43.275913,1.0,1.0,nan,3,4.375891,4.375891,4.375891,0.0,0.0,0.0,0.0,0.0,0.0,0.0,0.0,0.0,0.0,0.0,0.0,0.0,0.0,0.0,0.0,0.0,0,0,0,0,0,0,0,0,0,0,0,1,0,0,1,0,0
429512682,13.12,13.119137,50.778,50.63064,-1.0,46.15011,1.0,1.0,nan,3,4.3730454,4.3730454,4.3730454,0.0,0.0,0.0,0.0,0.0,0.0,0.0,0.0,0.0,0.0,0.0,0.0,0.0,0.0,0.0,0.0,0.0,0,0,0,0,0,0,0,0,0,0,0,1,0,0,1,0,0
429708557,12.669,13.1189375,50.778,50.67883,-1.0,48.912926,1.0,1.0,nan,3,4.372979,4.372979,4.372979,0.0,0.0,0.0,0.0,0.0,0.0,0.0,0.0,0.0,0.0,0.0,0.0,0.0,0.0,0.0,0.0,0.0,0,0,0,0,0,0,0,0,0,0,0,1,0,0,1,0,0
430108589,13.2184,13.137104,50.778,50.73309,-1.0,54.555374,1.0,1.0,nan,3,4.3790345,4.3790345,4.3790345,0.0,0.0,0.0,0.0,0.0,0.0,0.0,0.0,0.0,0.0,0.0,0.0,0.0,0.0,0.0,0.0,0.0,0,0,0,0,0,0,0,0,0,0,0,1,0,0,1,0,0
430313659,13.448,13.149253,50.778,50.747776,-1.0,57.44785,1.0,1.0,nan,3,4.3830843,4.3830843,4.3830843,0.0,0.0,0.0,0.0,0.0,0.0,0.0,0.0,0.0,0.0,0.0,0.0,0.0,0.0,0.0,0.0,0.0,0,0,0,0,0,0,0,0,0,0,0,1,0,0,1,0,0
430509184,13.489,13.162991,50.778,50.75766,-1.0,60.205723,1.0,1.0,nan,3,4.3876634,4.3876634,4.3876634,0.0,0.0,0.0,0.0,0.0,0.0,0.0,0.0,0.0,0.0,0.0,0.0,0.0,0.0,0.0,0.0,0.0,0,0,0,0,0,0,0,0,0,0,0,1,0,0,1,0,0
430713529,13.177401,13.179464,50.778,50.764317,-1.0,63.088028,1.0,1.0,nan,3,4.3931546,4.3931546,4.3931546,0.0,0.0,0.0,0.0,0.0,0.0,0.0,0.0,0.0,0.0,0.0,0.0,0.0,0.0,0.0,0.0,0.0,0,0,0,0,0,0,0,0,0,0,0,1,0,0,1,0,0
430909198,13.308599,13.198166,50.778,50.768784,-1.0,65.847946,1.0,1.0,nan,3,4.399389,4.399389,4.399389,0.0,0.0,0.0,0.0,0.0,0.0,0.0,0.0,0.0,0.0,0.0,0.0,0.0,0.0,0.0,0.0,0.0,0,0,0,0,0,0,0,0,0,0,0,1,0,0,1,0,0
431309364,13.2184,13.202375,50.778,50.77383,-1.0,71.49227,1.0,1.0,nan,3,4.4007916,4.4007916,4.4007916,0.0,0.0,0.0,0.0,0.0,0.0,0.0,0.0,0.0,0.0,0.0,0.0,0.0,0.0,0.0,0.0,0.0,0,0,0,0,0,0,0,0,0,0,0,1,0,0,1,0,0
431514317,13.1364,13.188228,50.778,50.775196,-1.0,74.38311,1.0,1.0,nan,3,4.3960757,4.3960757,4.3960757,0.0,0.0,0.0,0.0,0.0,0.0,0.0,0.0,0.0,0.0,0.0,0.0,0.0,0.0,0.0,0.0,0.0,0,0,0,0,0,0,0,0,0,0,0,1,0,0,1,0,0
431709739,13.12,13.199434,50.778,50.776115,-1.0,77.13959,1.0,1.0,nan,3,4.3998113,4.3998113,4.3998113,0.0,0.0,0.0,0.0,0.0,0.0,0.0,0.0,0.0,0.0,0.0,0.0,0.0,0.0,0.0,0.0,0.0,0,0,0,0,0,0,0,0,0,0,0,1,0,0,1,0,0
431915064,13.6612,13.208083,50.778,50.776733,-1.0,80.0357,1.0,1.0,nan,3,4.402694,4.402694,4.402694,0.0,0.0,0.0,0.0,0.0,0.0,0.0,0.0,0.0,0.0,0.0,0.0,0.0,0.0,0.0,0.0,0.0,0,0,0,0,0,0,0,0,0,0,0,1,0,0,1,0,0
432109958,13.308599,13.214591,50.778,50.77715,-1.0,82.78468,1.0,1.0,nan,3,4.404864,4.404864,4.404864,0.0,0.0,0.0,0.0,0.0,0.0,0.0,0.0,0.0,0.0,0.0,0.0,0.0,0.0,0.0,0.0,0.0,0,0,0,0,0,0,0,0,0,0,0,1,0,0,1,0,0
432509918,13.12,13.202179,50.778,50.77761,-1.0,88.4261,1.0,1.0,nan,3,4.4007263,4.4007263,4.4007263,0.0,0.0,0.0,0.0,0.0,0.0,0.0,0.0,0.0,0.0,0.0,0.0,0.0,0.0,0.0,0.0,0.0,0,0,0,0,0,0,0,0,0,0,0,1,0,0,1,0,0
432708550,13.2758,13.197728,50.778,50.77774,-1.0,91.22784,1.0,1.0,nan,3,4.399243,4.399243,4.399243,0.0,0.0,0.0,0.0,0.0,0.0,0.0,0.0,0.0,0.0,0.0,0.0,0.0,0.0,0.0,0.0,0.0,0,0,0,0,0,0,0,0,0,0,0,1,0,0,1,0,0
432908528,13.005199,13.196177,50.778,50.777817,-1.0,94.0485,1.0,1.0,nan,3,4.3987255,4.3987255,4.3987255,0.0,0.0,0.0,0.0,0.0,0.0,0.0,0.0,0.0,0.0,0.0,0.0,0.0,0.0,0.0,0.0,0.0,0,0,0,0,0,0,0,0,0,0,0,1,0,0,1,0,0
433108549,13.6776,13.201499,50.778,50.777893,-1.0,96.86981,1.0,1.0,nan,3,4.4005,4.4005,4.4005,0.0,0.0,0.0,0.0,0.0,0.0,0.0,0.0,0.0,0.0,0.0,0.0,0.0,0.0,0.0,0.0,0.0,0,0,0,0,0,0,0,0,0,0,0,1,0,0,1,0,0
433308551,13.005199,13.172716,50.778,50.77791,-1.0,99.69083,1.0,1.0,nan,3,4.3909054,4.3909054,4.3909054,0.0,0.0,0.0,0.0,0.0,0.0,0.0,0.0,0.0,0.0,0.0,0.0,0.0,0.0,0.0,0.0,0.0,0,0,0,0,0,0,0,0,0,0,0,1,0,0,1,0,0
433508606,12.8986,13.095595,50.778,50.77791,-1.0,102.51262,1.0,1.0,nan,3,4.3651986,4.3651986,4.3651986,0.0,0.0,0.0,0.0,0.0,0.0,0.0,0.0,0.0,0.0,0.0,0.0,0.0,0.0,0.0,0.0,0.0,0,0,0,0,0,0,0,0,0,0,0,1,0,0,1,0,0
433708619,12.767401,13.052967,50.778,50.77791,-1.0,105.33379,1.0,1.0,nan,3,4.350989,4.350989,4.350989,0.0,0.0,0.0,0.0,0.0,0.0,0.0,0.0,0.0,0.0,0.0,0.0,0.0,0.0,0.0,0.0,0.0,0,0,0,0,0,0,0,0,0,0,0,1,0,0,1,0,0
434108550,12.988799,12.998291,50.778,50.77791,-1.0,110.97481,1.0,1.0,nan,3,4.3327637,4.3327637,4.3327637,0.0,0.0,0.0,0.0,0.0,0.0,0.0,0.0,0.0,0.0,0.0,0.0,0.0,0.0,0.0,0.0,0.0,0,0,0,0,0,0,0,0,0,0,0,1,0,0,1,0,0
434308633,13.0462,12.971938,50.778,50.77791,-1.0,113.797,1.0,1.0,nan,3,4.3239794,4.3239794,4.3239794,0.0,0.0,0.0,0.0,0.0,0.0,0.0,0.0,0.0,0.0,0.0,0.0,0.0,0.0,0.0,0.0,0.0,0,0,0,0,0,0,0,0,0,0,0,1,0,0,1,0,0
434508594,12.915,12.952271,50.778,50.77791,-1.0,116.617455,1.0,1.0,nan,3,4.317424,4.317424,4.317424,0.0,0.0,0.0,0.0,0.0,0.0,0.0,0.0,0.0,0.0,0.0,0.0,0.0,0.0,0.0,0.0,0.0,0,0,0,0,0,0,0,0,0,0,0,1,0,0,1,0,0
434708674,13.0134,12.931746,50.778,50.77791,-1.0,119.439575,1.0,1.0,nan,3,4.3105817,4.3105817,4.3105817,0.0,0.0,0.0,0.0,0.0,0.0,0.0,0.0,0.0,0.0,0.0,0.0,0.0,0.0,0.0,0.0,0.0,0,0,0,0,0,0,0,0,0,0,0,1,0,0,1,0,0
434908545,13.111799,12.927352,50.778,50.77791,-1.0,122.258736,1.0,1.0,nan,3,4.3091173,4.3091173,4.3091173,0.0,0.0,0.0,0.0,0.0,0.0,0.0,0.0,0.0,0.0,0.0,0.0,0.0,0.0,0.0,0.0,0.0,0,0,0,0,0,0,0,0,0,0,0,1,0,0,1,0,0
435108627,12.882199,12.92573,50.778,50.77791,-1.0,125.080925,1.0,1.0,nan,3,4.3085766,4.3085766,4.3085766,0.0,0.0,0.0,0.0,0.0,0.0,0.0,0.0,0.0,0.0,0.0,0.0,0.0,0.0,0.0,0.0,0.0,0,0,0,0,0,0,0,0,0,0,0,1,0,0,1,0,0
435308547,13.0216,12.915499,50.778,50.77791,-1.0,127.900795,1.0,1.0,nan,3,4.3051662,4.3051662,4.3051662,0.0,0.0,0.0,0.0,0.0,0.0,0.0,0.0,0.0,0.0,0.0,0.0,0.0,0.0,0.0,0.0,0.0,0,0,0,0,0,0,0,0,0,0,0,1,0,0,1,0,0
435508636,12.660799,12.891101,50.778,50.77791,-1.0,130.72304,1.0,1.0,nan,3,4.297034,4.297034,4.297034,0.0,0.0,0.0,0.0,0.0,0.0,0.0,0.0,0.0,0.0,0.0,0.0,0.0,0.0,0.0,0.0,0.0,0,0,0,0,0,0,0,0,0,0,0,1,0,0,1,0,0
435708697,13.0626,12.888854,50.778,50.77791,-1.0,133.54486,1.0,1.0,nan,3,4.2962847,4.2962847,4.2962847,0.0,0.0,0.0,0.0,0.0,0.0,0.0,0.0,0.0,0.0,0.0,0.0,0.0,0.0,0.0,0.0,0.0,0,0,0,0,0,0,0,0,0,0,0,1,0,0,1,0,0
435908839,12.341,12.882677,50.778,50.77791,-1.0,136.36783,1.0,1.0,nan,3,4.2942257,4.2942257,4.2942257,0.0,0.0,0.0,0.0,0.0,0.0,0.0,0.0,0.0,0.0,0.0,0.0,0.0,0.0,0.0,0.0,0.0,0,0,0,0,0,0,0,0,0,0,0,1,0,0,1,0,0
436109015,12.8494005,12.893936,50.778,50.77791,-1.0,139.19131,1.0,1.0,nan,3,4.297979,4.297979,4.297979,0.0,0.0,0.0,0.0,0.0,0.0,0.0,0.0,0.0,0.0,0.0,0.0,0.0,0.0,0.0,0.0,0.0,0,0,0,0,0,0,0,0,0,0,0,1,0,0,1,0,0
436308547,13.0462,12.867821,50.778,50.77791,-1.0,142.00574,1.0,1.0,nan,3,4.2892737,4.2892737,4.2892737,0.0,0.0,0.0,0.0,0.0,0.0,0.0,0.0,0.0,0.0,0.0,0.0,0.0,0.0,0.0,0.0,0.0,0,0,0,0,0,0,0,0,0,0,0,1,0,0,1,0,0
436508550,12.865799,12.851136,50.778,50.77791,-1.0,144.82681,1.0,1.0,nan,3,4.283712,4.283712,4.283712,0.0,0.0,0.0,0.0,0.0,0.0,0.0,0.0,0.0,0.0,0.0,0.0,0.0,0.0,0.0,0.0,0.0,0,0,0,0,0,0,0,0,0,0,0,1,0,0,1,0,0
436708542,12.6116,12.842458,50.778,50.77791,-1.0,147.64769,1.0,1.0,nan,3,4.2808194,4.2808194,4.2808194,0.0,0.0,0.0,0.0,0.0,0.0,0.0,0.0,0.0,0.0,0.0,0.0,0.0,0.0,0.0,0.0,0.0,0,0,0,0,0,0,0,0,0,0,0,1,0,0,1,0,0
436918555,12.8166,12.839046,50.778,50.77791,-1.0,150.60995,1.0,1.0,nan,3,4.2796817,4.2796817,4.2796817,0.0,0.0,0.0,0.0,0.0,0.0,0.0,0.0,0.0,0.0,0.0,0.0,0.0,0.0,0.0,0.0,0.0,0,0,0,0,0,0,0,0,0,0,0,1,0,0,1,0,0
437108605,13.0134,12.812028,50.778,50.77791,-1.0,153.29057,1.0,1.0,nan,3,4.270676,4.270676,4.270676,0.0,0.0,0.0,0.0,0.0,0.0,0.0,0.0,0.0,0.0,0.0,0.0,0.0,0.0,0.0,0.0,0.0,0,0,0,0,0,0,0,0,0,0,0,1,0,0,1,0,0
437308649,12.5706,12.808179,50.778,50.77791,-1.0,156.11148,1.0,1.0,nan,3,4.269393,4.269393,4.269393,0.0,0.0,0.0,0.0,0.0,0.0,0.0,0.0,0.0,0.0,0.0,0.0,0.0,0.0,0.0,0.0,0.0,0,0,0,0,0,0,0,0,0,0,0,1,0,0,1,0,0
437508573,13.308599,12.794583,50.778,50.77791,-1.0,158.93211,1.0,1.0,nan,3,4.264861,4.264861,4.264861,0.0,0.0,0.0,0.0,0.0,0.0,0.0,0.0,0.0,0.0,0.0,0.0,0.0,0.0,0.0,0.0,0.0,0,0,0,0,0,0,0,0,0,0,0,1,0,0,1,0,0
437719008,13.177401,12.828569,50.778,50.77791,-1.0,161.90025,1.0,1.0,nan,3,4.27619,4.27619,4.27619,0.0,0.0,0.0,0.0,0.0,0.0,0.0,0.0,0.0,0.0,0.0,0.0,0.0,0.0,0.0,0.0,0.0,0,0,0,0,0,0,0,0,0,0,0,1,0,0,1,0,0
437918865,13.415199,12.867339,50.778,50.77791,-1.0,164.7193,1.0,1.0,nan,3,4.289113,4.289113,4.289113,0.0,0.0,0.0,0.0,0.0,0.0,0.0,0.0,0.0,0.0,0.0,0.0,0.0,0.0,0.0,0.0,0.0,0,0,0,0,0,0,0,0,0,0,0,1,0,0,1,0,0
438108787,13.0626,12.884401,50.778,50.77791,-1.0,167.39818,1.0,1.0,nan,3,4.2948003,4.2948003,4.2948003,0.0,0.0,0.0,0.0,0.0,0.0,0.0,0.0,0.0,0.0,0.0,0.0,0.0,0.0,0.0,0.0,0.0,0,0,0,0,0,0,0,0,0,0,0,1,0,0,1,0,0
438319449,12.915,12.898331,50.778,50.77791,-1.0,170.36945,1.0,1.0,nan,3,4.2994437,4.2994437,4.2994437,0.0,0.0,0.0,0.0,0.0,0.0,0.0,0.0,0.0,0.0,0.0,0.0,0.0,0.0,0.0,0.0,0.0,0,0,0,0,0,0,0,0,0,0,0,1,0,0,1,0,0
438509199,12.751,12.917879,50.778,50.77791,-1.0,173.04596,1.0,1.0,nan,3,4.3059597,4.3059597,4.3059597,0.0,0.0,0.0,0.0,0.0,0.0,0.0,0.0,0.0,0.0,0.0,0.0,0.0,0.0,0.0,0.0,0.0,0,0,0,0,0,0,0,0,0,0,0,1,0,0,1,0,0
438719674,13.038,12.913949,50.778,50.77791,-1.0,176.01472,1.0,1.0,nan,3,4.30465,4.30465,4.30465,0.0,0.0,0.0,0.0,0.0,0.0,0.0,0.0,0.0,0.0,0.0,0.0,0.0,0.0,0.0,0.0,0.0,0,0,0,0,0,0,0,0,0,0,0,1,0,0,1,0,0
438909802,12.7182,12.91504,50.778,50.77791,-1.0,178.6965,1.0,1.0,nan,3,4.305013,4.305013,4.305013,0.0,0.0,0.0,0.0,0.0,0.0,0.0,0.0,0.0,0.0,0.0,0.0,0.0,0.0,0.0,0.0,0.0,0,0,0,0,0,0,0,0,0,0,0,1,0,0,1,0,0
439120046,13.029799,12.932442,50.778,50.77791,-1.0,181.66199,1.0,1.0,nan,3,4.310814,4.310814,4.310814,0.0,0.0,0.0,0.0,0.0,0.0,0.0,0.0,0.0,0.0,0.0,0.0,0.0,0.0,0.0,0.0,0.0,0,0,0,0,0,0,0,0,0,0,0,1,0,0,1,0,0
439309628,12.6854,12.938487,50.778,50.77791,-1.0,184.33606,1.0,1.0,nan,3,4.312829,4.312829,4.312829,0.0,0.0,0.0,0.0,0.0,0.0,0.0,0.0,0.0,0.0,0.0,0.0,0.0,0.0,0.0,0.0,0.0,0,0,0,0,0,0,0,0,0,0,0,1,0,0,1,0,0
439520281,13.087199,12.952608,50.778,50.77791,-1.0,187.3073,1.0,1.0,nan,3,4.317536,4.317536,4.317536,0.0,0.0,0.0,0.0,0.0,0.0,0.0,0.0,0.0,0.0,0.0,0.0,0.0,0.0,0.0,0.0,0.0,0,0,0,0,0,0,0,0,0,0,0,1,0,0,1,0,0
439720661,12.792,12.958865,50.778,50.77791,-1.0,190.1337,1.0,1.0,nan,3,4.3196216,4.3196216,4.3196216,0.0,0.0,0.0,0.0,0.0,0.0,0.0,0.0,0.0,0.0,0.0,0.0,0.0,0.0,0.0,0.0,0.0,0,0,0,0,0,0,0,0,0,0,0,1,0,0,1,0,0
439910130,13.029799,12.972802,50.778,50.77791,-1.0,192.80617,1.0,1.0,nan,3,4.3242674,4.3242674,4.3242674,0.0,0.0,0.0,0.0,0.0,0.0,0.0,0.0,0.0,0.0,0.0,0.0,0.0,0.0,0.0,0.0,0.0,0,0,0,0,0,0,0,0,0,0,0,1,0,0,1,0,0
440120394,14.259799,13.111213,0.0,41.017967,-1.0,194.22964,1.0,1.0,nan,3,4.3704042,4.3704042,4.3704042,0.0,0.0,0.0,0.0,0.0,0.0,0.0,0.0,0.0,0.0,0.0,0.0,0.0,0.0,0.0,0.0,0.0,0,0,0,0,0,0,0,0,0,0,0,1,0,0,1,0,0
440308616,14.145,13.283573,0.0,28.15599,-1.0,194.22964,1.0,1.0,nan,3,4.427858,4.427858,4.427858,0.0,0.0,0.0,0.0,0.0,0.0,0.0,0.0,0.0,0.0,0.0,0.0,0.0,0.0,0.0,0.0,0.0,0,0,0,0,0,0,0,0,0,0,0,1,0,0,1,0,0
440508620,14.4074,13.454376,0.0,18.948175,-1.0,194.22964,1.0,1.0,nan,3,4.484792,4.484792,4.484792,0.0,0.0,0.0,0.0,0.0,0.0,0.0,0.0,0.0,0.0,0.0,0.0,0.0,0.0,0.0,0.0,0.0,0,0,0,0,0,0,0,0,0,0,0,1,0,0,1,0,0
440708549,14.4566,13.582114,0.0,12.751581,-1.0,194.22964,1.0,1.0,nan,3,4.5273714,4.5273714,4.5273714,0.0,0.0,0.0,0.0,0.0,0.0,0.0,0.0,0.0,0.0,0.0,0.0,0.0,0.0,0.0,0.0,0.0,0,0,0,0,0,0,0,0,0,0,0,1,0,0,1,0,0
440908743,14.391,13.710063,0.0,8.5814495,-1.0,194.22964,1.0,1.0,nan,3,4.570021,4.570021,4.570021,0.0,0.0,0.0,0.0,0.0,0.0,0.0,0.0,0.0,0.0,0.0,0.0,0.0,0.0,0.0,0.0,0.0,0,0,0,0,0,0,0,0,0,0,0,1,0,0,1,0,0
441108542,14.366401,13.815704,0.0,5.775069,-1.0,194.22964,1.0,1.0,nan,3,4.6052346,4.6052346,4.6052346,0.0,0.0,0.0,0.0,0.0,0.0,0.0,0.0,0.0,0.0,0.0,0.0,0.0,0.0,0.0,0.0,0.0,0,0,0,0,0,0,0,0,0,0,0,1,0,0,1,0,0
441308547,14.1204,13.897763,0.0,3.8864565,-1.0,194.22964,1.0,1.0,nan,3,4.632588,4.632588,4.632588,0.0,0.0,0.0,0.0,0.0,0.0,0.0,0.0,0.0,0.0,0.0,0.0,0.0,0.0,0.0,0.0,0.0,0,0,0,0,0,0,0,0,0,0,0,1,0,0,1,0,0
441508564,14.4566,13.966247,0.0,2.6154733,-1.0,194.22964,1.0,1.0,nan,3,4.6554155,4.6554155,4.6554155,0.0,0.0,0.0,0.0,0.0,0.0,0.0,0.0,0.0,0.0,0.0,0.0,0.0,0.0,0.0,0.0,0.0,0,0,0,0,0,0,0,0,0,0,0,1,0,0,1,0,0
441708542,14.4237995,14.025275,0.0,1.7601385,-1.0,194.22964,1.0,1.0,nan,3,4.6750917,4.6750917,4.6750917,0.0,0.0,0.0,0.0,0.0,0.0,0.0,0.0,0.0,0.0,0.0,0.0,0.0,0.0,0.0,0.0,0.0,0,0,0,0,0,0,0,0,0,0,0,1,0,0,1,0,0
441908607,14.309,14.076386,0.0,1.1845226,-1.0,194.22964,1.0,1.0,nan,3,4.6921287,4.6921287,4.6921287,0.0,0.0,0.0,0.0,0.0,0.0,0.0,0.0,0.0,0.0,0.0,0.0,0.0,0.0,0.0,0.0,0.0,0,0,0,0,0,0,0,0,0,0,0,1,0,0,1,0,0
442108609,12.980599,14.033395,50.778,8.741464,-1.0,195.46216,1.0,1.0,nan,3,4.6777983,4.6777983,4.6777983,0.0,0.0,0.0,0.0,0.0,0.0,0.0,0.0,0.0,0.0,0.0,0.0,0.0,0.0,0.0,0.0,0.0,0,0,0,0,0,0,0,0,0,0,0,1,0,0,1,0,0
442322114,12.9478,13.809136,50.778,23.04331,-1.0,198.47371,1.0,1.0,nan,3,4.6030455,4.6030455,4.6030455,0.0,0.0,0.0,0.0,0.0,0.0,0.0,0.0,0.0,0.0,0.0,0.0,0.0,0.0,0.0,0.0,0.0,0,0,0,0,0,0,0,0,0,0,0,1,0,0,1,0,0
442512305,12.6854,13.670839,50.778,31.740055,-1.0,201.15631,1.0,1.0,nan,3,4.5569463,4.5569463,4.5569463,0.0,0.0,0.0,0.0,0.0,0.0,0.0,0.0,0.0,0.0,0.0,0.0,0.0,0.0,0.0,0.0,0.0,0,0,0,0,0,0,0,0,0,0,0,1,0,0,1,0,0
442722326,13.0462,13.5433445,50.778,38.217224,-1.0,204.11867,1.0,1.0,nan,3,4.514448,4.514448,4.514448,0.0,0.0,0.0,0.0,0.0,0.0,0.0,0.0,0.0,0.0,0.0,0.0,0.0,0.0,0.0,0.0,0.0,0,0,0,0,0,0,0,0,0,0,0,1,0,0,1,0,0
442912177,12.915,13.442265,50.778,42.1559,-1.0,206.79655,1.0,1.0,nan,3,4.480755,4.480755,4.480755,0.0,0.0,0.0,0.0,0.0,0.0,0.0,0.0,0.0,0.0,0.0,0.0,0.0,0.0,0.0,0.0,0.0,0,0,0,0,0,0,0,0,0,0,0,1,0,0,1,0,0
443108878,13.325,13.3595,50.778,44.975567,-1.0,209.57101,1.0,1.0,nan,3,4.4531665,4.4531665,4.4531665,0.0,0.0,0.0,0.0,0.0,0.0,0.0,0.0,0.0,0.0,0.0,0.0,0.0,0.0,0.0,0.0,0.0,0,0,0,0,0,0,0,0,0,0,0,1,0,0,1,0,0
443312466,12.8576,13.277224,50.778,46.87313,-1.0,212.44257,1.0,1.0,nan,3,4.425741,4.425741,4.425741,0.0,0.0,0.0,0.0,0.0,0.0,0.0,0.0,0.0,0.0,0.0,0.0,0.0,0.0,0.0,0.0,0.0,0,0,0,0,0,0,0,0,0,0,0,1,0,0,1,0,0
443509033,13.234799,13.210026,50.778,48.15014,-1.0,215.21515,1.0,1.0,nan,3,4.403342,4.403342,4.403342,0.0,0.0,0.0,0.0,0.0,0.0,0.0,0.0,0.0,0.0,0.0,0.0,0.0,0.0,0.0,0.0,0.0,0,0,0,0,0,0,0,0,0,0,0,1,0,0,1,0,0
443723116,13.2594,13.152475,50.778,49.0442,-1.0,218.23477,1.0,1.0,nan,3,4.3841586,4.3841586,4.3841586,0.0,0.0,0.0,0.0,0.0,0.0,0.0,0.0,0.0,0.0,0.0,0.0,0.0,0.0,0.0,0.0,0.0,0,0,0,0,0,0,0,0,0,0,0,1,0,0,1,0,0
443908583,12.997,13.120372,50.778,49.58787,-1.0,220.85083,1.0,1.0,nan,3,4.3734574,4.3734574,4.3734574,0.0,0.0,0.0,0.0,0.0,0.0,0.0,0.0,0.0,0.0,0.0,0.0,0.0,0.0,0.0,0.0,0.0,0,0,0,0,0,0,0,0,0,0,0,1,0,0,1,0,0
444108545,13.2512,13.093414,50.778,49.977077,-1.0,223.67131,1.0,1.0,nan,3,4.3644714,4.3644714,4.3644714,0.0,0.0,0.0,0.0,0.0,0.0,0.0,0.0,0.0,0.0,0.0,0.0,0.0,0.0,0.0,0.0,0.0,0,0,0,0,0,0,0,0,0,0,0,1,0,0,1,0,0
444308545,12.669,13.083926,50.778,50.239002,-1.0,226.49236,1.0,1.0,nan,3,4.3613086,4.3613086,4.3613086,0.0,0.0,0.0,0.0,0.0,0.0,0.0,0.0,0.0,0.0,0.0,0.0,0.0,0.0,0.0,0.0,0.0,0,0,0,0,0,0,0,0,0,0,0,1,0,0,1,0,0
444513239,13.2676,13.06282,50.778,50.41528,-1.0,229.37956,1.0,1.0,nan,3,4.3542733,4.3542733,4.3542733,0.0,0.0,0.0,0.0,0.0,0.0,0.0,0.0,0.0,0.0,0.0,0.0,0.0,0.0,0.0,0.0,0.0,0,0,0,0,0,0,0,0,0,0,0,1,0,0,1,0,0
444708634,12.701799,13.058804,50.778,50.533897,-1.0,232.13565,1.0,1.0,nan,3,4.3529344,4.3529344,4.3529344,0.0,0.0,0.0,0.0,0.0,0.0,0.0,0.0,0.0,0.0,0.0,0.0,0.0,0.0,0.0,0.0,0.0,0,0,0,0,0,0,0,0,0,0,0,1,0,0,1,0,0
444913688,12.906799,13.06337,50.778,50.61372,-1.0,235.02791,1.0,1.0,nan,3,4.3544564,4.3544564,4.3544564,0.0,0.0,0.0,0.0,0.0,0.0,0.0,0.0,0.0,0.0,0.0,0.0,0.0,0.0,0.0,0.0,0.0,0,0,0,0,0,0,0,0,0,0,0,1,0,0,1,0,0
445109166,13.2594,13.067935,50.778,50.66745,-1.0,237.78516,1.0,1.0,nan,3,4.3559785,4.3559785,4.3559785,0.0,0.0,0.0,0.0,0.0,0.0,0.0,0.0,0.0,0.0,0.0,0.0,0.0,0.0,0.0,0.0,0.0,0,0,0,0,0,0,0,0,0,0,0,1,0,0,1,0,0
445313955,13.210199,13.069551,50.778,50.7036,-1.0,240.67372,1.0,1.0,nan,3,4.3565173,4.3565173,4.3565173,0.0,0.0,0.0,0.0,0.0,0.0,0.0,0.0,0.0,0.0,0.0,0.0,0.0,0.0,0.0,0.0,0.0,0,0,0,0,0,0,0,0,0,0,0,1,0,0,1,0,0
445513547,12.7755995,13.0326,50.778,50.727936,-1.0,243.48897,1.0,1.0,nan,3,4.3442,4.3442,4.3442,0.0,0.0,0.0,0.0,0.0,0.0,0.0,0.0,0.0,0.0,0.0,0.0,0.0,0.0,0.0,0.0,0.0,0,0,0,0,0,0,0,0,0,0,0,1,0,0,1,0,0
445713983,13.366,13.019477,50.778,50.74431,-1.0,246.31613,1.0,1.0,nan,3,4.3398256,4.3398256,4.3398256,0.0,0.0,0.0,0.0,0.0,0.0,0.0,0.0,0.0,0.0,0.0,0.0,0.0,0.0,0.0,0.0,0.0,0,0,0,0,0,0,0,0,0,0,0,1,0,0,1,0,0
445909116,13.079,13.021615,50.778,50.75533,-1.0,249.06847,1.0,1.0,nan,3,4.3405385,4.3405385,4.3405385,0.0,0.0,0.0,0.0,0.0,0.0,0.0,0.0,0.0,0.0,0.0,0.0,0.0,0.0,0.0,0.0,0.0,0,0,0,0,0,0,0,0,0,0,0,1,0,0,1,0,0
446114453,12.7346,13.005266,50.778,50.76275,-1.0,251.9647,1.0,1.0,nan,3,4.3350887,4.3350887,4.3350887,0.0,0.0,0.0,0.0,0.0,0.0,0.0,0.0,0.0,0.0,0.0,0.0,0.0,0.0,0.0,0.0,0.0,0,0,0,0,0,0,0,0,0,0,0,1,0,0,1,0,0
446309629,12.7428,12.960903,50.778,50.767735,-1.0,254.71765,1.0,1.0,nan,3,4.320301,4.320301,4.320301,0.0,0.0,0.0,0.0,0.0,0.0,0.0,0.0,0.0,0.0,0.0,0.0,0.0,0.0,0.0,0.0,0.0,0,0,0,0,0,0,0,0,0,0,0,1,0,0,1,0,0
446514523,12.644401,12.926213,50.778,50.771095,-1.0,257.60767,1.0,1.0,nan,3,4.3087378,4.3087378,4.3087378,0.0,0.0,0.0,0.0,0.0,0.0,0.0,0.0,0.0,0.0,0.0,0.0,0.0,0.0,0.0,0.0,0.0,0,0,0,0,0,0,0,0,0,0,0,1,0,0,1,0,0
446709662,12.8166,12.913144,50.778,50.773354,-1.0,260.36017,1.0,1.0,nan,3,4.3043814,4.3043814,4.3043814,0.0,0.0,0.0,0.0,0.0,0.0,0.0,0.0,0.0,0.0,0.0,0.0,0.0,0.0,0.0,0.0,0.0,0,0,0,0,0,0,0,0,0,0,0,1,0,0,1,0,0
446914855,12.6198,12.899087,50.778,50.77487,-1.0,263.2544,1.0,1.0,nan,3,4.2996955,4.2996955,4.2996955,0.0,0.0,0.0,0.0,0.0,0.0,0.0,0.0,0.0,0.0,0.0,0.0,0.0,0.0,0.0,0.0,0.0,0,0,0,0,0,0,0,0,0,0,0,1,0,0,1,0,0
447109774,12.964199,12.9013605,50.778,50.775894,-1.0,266.0038,1.0,1.0,nan,3,4.3004537,4.3004537,4.3004537,0.0,0.0,0.0,0.0,0.0,0.0,0.0,0.0,0.0,0.0,0.0,0.0,0.0,0.0,0.0,0.0,0.0,0,0,0,0,0,0,0,0,0,0,0,1,0,0,1,0,0
447315372,12.2754,12.866687,50.778,50.776585,-1.0,268.9038,1.0,1.0,nan,3,4.2888956,4.2888956,4.2888956,0.0,0.0,0.0,0.0,0.0,0.0,0.0,0.0,0.0,0.0,0.0,0.0,0.0,0.0,0.0,0.0,0.0,0,0,0,0,0,0,0,0,0,0,0,1,0,0,1,0,0
447509895,12.6198,12.846535,50.778,50.777046,-1.0,271.64764,1.0,1.0,nan,3,4.2821784,4.2821784,4.2821784,0.0,0.0,0.0,0.0,0.0,0.0,0.0,0.0,0.0,0.0,0.0,0.0,0.0,0.0,0.0,0.0,0.0,0,0,0,0,0,0,0,0,0,0,0,1,0,0,1,0,0
447708555,13.070799,12.829445,50.778,50.77736,-1.0,274.4497,1.0,1.0,nan,3,4.2764816,4.2764816,4.2764816,0.0,0.0,0.0,0.0,0.0,0.0,0.0,0.0,0.0,0.0,0.0,0.0,0.0,0.0,0.0,0.0,0.0,0,0,0,0,0,0,0,0,0,0,0,1,0,0,1,0,0
447908511,12.8576,12.82034,50.778,50.777565,-1.0,277.27005,1.0,1.0,nan,3,4.2734466,4.2734466,4.2734466,0.0,0.0,0.0,0.0,0.0,0.0,0.0,0.0,0.0,0.0,0.0,0.0,0.0,0.0,0.0,0.0,0.0,0,0,0,0,0,0,0,0,0,0,0,1,0,0,1,0,0
448108564,12.8412,12.822321,50.778,50.777718,-1.0,280.09183,1.0,1.0,nan,3,4.274107,4.274107,4.274107,0.0,0.0,0.0,0.0,0.0,0.0,0.0,0.0,0.0,0.0,0.0,0.0,0.0,0.0,0.0,0.0,0.0,0,0,0,0,0,0,0,0,0,0,0,1,0,0,1,0,0
448308545,12.882199,12.824353,50.778,50.777794,-1.0,282.91248,1.0,1.0,nan,3,4.2747846,4.2747846,4.2747846,0.0,0.0,0.0,0.0,0.0,0.0,0.0,0.0,0.0,0.0,0.0,0.0,0.0,0.0,0.0,0.0,0.0,0,0,0,0,0,0,0,0,0,0,0,1,0,0,1,0,0
448508556,12.644401,12.838834,50.778,50.77787,-1.0,285.73358,1.0,1.0,nan,3,4.279611,4.279611,4.279611,0.0,0.0,0.0,0.0,0.0,0.0,0.0,0.0,0.0,0.0,0.0,0.0,0.0,0.0,0.0,0.0,0.0,0,0,0,0,0,0,0,0,0,0,0,1,0,0,1,0,0
448708657,13.079,12.836423,50.778,50.77791,-1.0,288.556,1.0,1.0,nan,3,4.2788076,4.2788076,4.2788076,0.0,0.0,0.0,0.0,0.0,0.0,0.0,0.0,0.0,0.0,0.0,0.0,0.0,0.0,0.0,0.0,0.0,0,0,0,0,0,0,0,0,0,0,0,1,0,0,1,0,0
448908545,13.0134,12.845485,50.778,50.77791,-1.0,291.3754,1.0,1.0,nan,3,4.2818284,4.2818284,4.2818284,0.0,0.0,0.0,0.0,0.0,0.0,0.0,0.0,0.0,0.0,0.0,0.0,0.0,0.0,0.0,0.0,0.0,0,0,0,0,0,0,0,0,0,0,0,1,0,0,1,0,0
449108555,13.079,12.862528,50.778,50.77791,-1.0,294.19656,1.0,1.0,nan,3,4.2875094,4.2875094,4.2875094,0.0,0.0,0.0,0.0,0.0,0.0,0.0,0.0,0.0,0.0,0.0,0.0,0.0,0.0,0.0,0.0,0.0,0,0,0,0,0,0,0,0,0,0,0,1,0,0,1,0,0
449308554,12.660799,12.8580065,50.778,50.77791,-1.0,297.01755,1.0,1.0,nan,3,4.286002,4.286002,4.286002,0.0,0.0,0.0,0.0,0.0,0.0,0.0,0.0,0.0,0.0,0.0,0.0,0.0,0.0,0.0,0.0,0.0,0,0,0,0,0,0,0,0,0,0,0,1,0,0,1,0,0
449508592,12.882199,12.863073,50.778,50.77791,-1.0,299.83905,1.0,1.0,nan,3,4.287691,4.287691,4.287691,0.0,0.0,0.0,0.0,0.0,0.0,0.0,0.0,0.0,0.0,0.0,0.0,0.0,0.0,0.0,0.0,0.0,0,0,0,0,0,0,0,0,0,0,0,1,0,0,1,0,0
449708545,12.6116,12.864882,50.778,50.77791,-1.0,302.65942,1.0,1.0,nan,3,4.2882943,4.2882943,4.2882943,0.0,0.0,0.0,0.0,0.0,0.0,0.0,0.0,0.0,0.0,0.0,0.0,0.0,0.0,0.0,0.0,0.0,0,0,0,0,0,0,0,0,0,0,0,1,0,0,1,0,0
449908545,13.3496,12.861426,50.778,50.77791,-1.0,305.48044,1.0,1.0,nan,3,4.2871423,4.2871423,4.2871423,0.0,0.0,0.0,0.0,0.0,0.0,0.0,0.0,0.0,0.0,0.0,0.0,0.0,0.0,0.0,0.0,0.0,0,0,0,0,0,0,0,0,0,0,0,1,0,0,1,0,0
450108676,12.8084,12.873947,50.778,50.77791,-1.0,308.30322,1.0,1.0,nan,3,4.2913156,4.2913156,4.2913156,0.0,0.0,0.0,0.0,0.0,0.0,0.0,0.0,0.0,0.0,0.0,0.0,0.0,0.0,0.0,0.0,0.0,0,0,0,0,0,0,0,0,0,0,0,1,0,0,1,0,0
450308545,12.9396,12.863879,50.778,50.77791,-1.0,311.1225,1.0,1.0,nan,3,4.2879596,4.2879596,4.2879596,0.0,0.0,0.0,0.0,0.0,0.0,0.0,0.0,0.0,0.0,0.0,0.0,0.0,0.0,0.0,0.0,0.0,0,0,0,0,0,0,0,0,0,0,0,1,0,0,1,0,0
450508545,12.767401,12.866894,50.778,50.77791,-1.0,313.94348,1.0,1.0,nan,3,4.2889647,4.2889647,4.2889647,0.0,0.0,0.0,0.0,0.0,0.0,0.0,0.0,0.0,0.0,0.0,0.0,0.0,0.0,0.0,0.0,0.0,0,0,0,0,0,0,0,0,0,0,0,1,0,0,1,0,0
450708543,13.1446,12.870329,50.778,50.77791,-1.0,316.76447,1.0,1.0,nan,3,4.2901096,4.2901096,4.2901096,0.0,0.0,0.0,0.0,0.0,0.0,0.0,0.0,0.0,0.0,0.0,0.0,0.0,0.0,0.0,0.0,0.0,0,0,0,0,0,0,0,0,0,0,0,1,0,0,1,0,0
450908702,12.9396,12.858632,50.778,50.77791,-1.0,319.58774,1.0,1.0,nan,3,4.2862105,4.2862105,4.2862105,0.0,0.0,0.0,0.0,0.0,0.0,0.0,0.0,0.0,0.0,0.0,0.0,0.0,0.0,0.0,0.0,0.0,0,0,0,0,0,0,0,0,0,0,0,1,0,0,1,0,0
451108803,12.874,12.862245,50.778,50.77791,-1.0,322.41022,1.0,1.0,nan,3,4.287415,4.287415,4.287415,0.0,0.0,0.0,0.0,0.0,0.0,0.0,0.0,0.0,0.0,0.0,0.0,0.0,0.0,0.0,0.0,0.0,0,0,0,0,0,0,0,0,0,0,0,1,0,0,1,0,0
451308768,12.980599,12.856337,50.778,50.77791,-1.0,325.23068,1.0,1.0,nan,3,4.2854457,4.2854457,4.2854457,0.0,0.0,0.0,0.0,0.0,0.0,0.0,0.0,0.0,0.0,0.0,0.0,0.0,0.0,0.0,0.0,0.0,0,0,0,0,0,0,0,0,0,0,0,1,0,0,1,0,0
451508824,12.669,12.846181,50.778,50.77791,-1.0,328.05252,1.0,1.0,nan,3,4.28206,4.28206,4.28206,0.0,0.0,0.0,0.0,0.0,0.0,0.0,0.0,0.0,0.0,0.0,0.0,0.0,0.0,0.0,0.0,0.0,0,0,0,0,0,0,0,0,0,0,0,1,0,0,1,0,0
451708561,12.997,12.852376,50.778,50.77791,-1.0,330.86978,1.0,1.0,nan,3,4.2841253,4.2841253,4.2841253,0.0,0.0,0.0,0.0,0.0,0.0,0.0,0.0,0.0,0.0,0.0,0.0,0.0,0.0,0.0,0.0,0.0,0,0,0,0,0,0,0,0,0,0,0,1,0,0,1,0,0
451908552,13.079,12.858256,50.778,50.77791,-1.0,333.69058,1.0,1.0,nan,3,4.2860856,4.2860856,4.2860856,0.0,0.0,0.0,0.0,0.0,0.0,0.0,0.0,0.0,0.0,0.0,0.0,0.0,0.0,0.0,0.0,0.0,0,0,0,0,0,0,0,0,0,0,0,1,0,0,1,0,0
452108553,13.1528,12.873738,50.778,50.77791,-1.0,336.5117,1.0,1.0,nan,3,4.291246,4.291246,4.291246,0.0,0.0,0.0,0.0,0.0,0.0,0.0,0.0,0.0,0.0,0.0,0.0,0.0,0.0,0.0,0.0,0.0,0,0,0,0,0,0,0,0,0,0,0,1,0,0,1,0,0
452308550,13.3414,12.860016,50.778,50.77791,-1.0,339.3327,1.0,1.0,nan,3,4.286672,4.286672,4.286672,0.0,0.0,0.0,0.0,0.0,0.0,0.0,0.0,0.0,0.0,0.0,0.0,0.0,0.0,0.0,0.0,0.0,0,0,0,0,0,0,0,0,0,0,0,1,0,0,1,0,0
452518560,12.644401,12.857266,50.778,50.77791,-1.0,342.2947,1.0,1.0,nan,3,4.2857556,4.2857556,4.2857556,0.0,0.0,0.0,0.0,0.0,0.0,0.0,0.0,0.0,0.0,0.0,0.0,0.0,0.0,0.0,0.0,0.0,0,0,0,0,0,0,0,0,0,0,0,1,0,0,1,0,0
452708558,12.956,12.865854,50.778,50.77791,-1.0,344.97473,1.0,1.0,nan,3,4.288618,4.288618,4.288618,0.0,0.0,0.0,0.0,0.0,0.0,0.0,0.0,0.0,0.0,0.0,0.0,0.0,0.0,0.0,0.0,0.0,0,0,0,0,0,0,0,0,0,0,0,1,0,0,1,0,0
452908557,12.972401,12.870557,50.778,50.77791,-1.0,347.795,1.0,1.0,nan,3,4.2901855,4.2901855,4.2901855,0.0,0.0,0.0,0.0,0.0,0.0,0.0,0.0,0.0,0.0,0.0,0.0,0.0,0.0,0.0,0.0,0.0,0,0,0,0,0,0,0,0,0,0,0,1,0,0,1,0,0
453108935,13.2758,12.88199,50.778,50.77791,-1.0,350.62207,1.0,1.0,nan,3,4.293997,4.293997,4.293997,0.0,0.0,0.0,0.0,0.0,0.0,0.0,0.0,0.0,0.0,0.0,0.0,0.0,0.0,0.0,0.0,0.0,0,0,0,0,0,0,0,0,0,0,0,1,0,0,1,0,0
453318885,12.341,12.868486,50.778,50.77791,-1.0,353.58344,1.0,1.0,nan,3,4.2894955,4.2894955,4.2894955,0.0,0.0,0.0,0.0,0.0,0.0,0.0,0.0,0.0,0.0,0.0,0.0,0.0,0.0,0.0,0.0,0.0,0,0,0,0,0,0,0,0,0,0,0,1,0,0,1,0,0
453509067,12.767401,12.850214,50.778,50.77791,-1.0,356.26587,1.0,1.0,nan,3,4.283405,4.283405,4.283405,0.0,0.0,0.0,0.0,0.0,0.0,0.0,0.0,0.0,0.0,0.0,0.0,0.0,0.0,0.0,0.0,0.0,0,0,0,0,0,0,0,0,0,0,0,1,0,0,1,0,0
453718906,12.865799,12.864033,50.778,50.77791,-1.0,359.22568,1.0,1.0,nan,3,4.288011,4.288011,4.288011,0.0,0.0,0.0,0.0,0.0,0.0,0.0,0.0,0.0,0.0,0.0,0.0,0.0,0.0,0.0,0.0,0.0,0,0,0,0,0,0,0,0,0,0,0,1,0,0,1,0,0
453909073,13.177401,12.865026,50.778,50.77791,-1.0,361.90796,1.0,1.0,nan,3,4.288342,4.288342,4.288342,0.0,0.0,0.0,0.0,0.0,0.0,0.0,0.0,0.0,0.0,0.0,0.0,0.0,0.0,0.0,0.0,0.0,0,0,0,0,0,0,0,0,0,0,0,1,0,0,1,0,0
454109106,12.751,12.866777,50.778,50.77791,-1.0,364.72946,1.0,1.0,nan,3,4.2889256,4.2889256,4.2889256,0.0,0.0,0.0,0.0,0.0,0.0,0.0,0.0,0.0,0.0,0.0,0.0,0.0,0.0,0.0,0.0,0.0,0,0,0,0,0,0,0,0,0,0,0,1,0,0,1,0,0
454319197,12.9314,12.854477,50.778,50.77791,-1.0,367.6928,1.0,1.0,nan,3,4.284826,4.284826,4.284826,0.0,0.0,0.0,0.0,0.0,0.0,0.0,0.0,0.0,0.0,0.0,0.0,0.0,0.0,0.0,0.0,0.0,0,0,0,0,0,0,0,0,0,0,0,1,0,0,1,0,0
454509145,12.8166,12.847451,50.778,50.77791,-1.0,370.37198,1.0,1.0,nan,3,4.2824836,4.2824836,4.2824836,0.0,0.0,0.0,0.0,0.0,0.0,0.0,0.0,0.0,0.0,0.0,0.0,0.0,0.0,0.0,0.0,0.0,0,0,0,0,0,0,0,0,0,0,0,1,0,0,1,0,0
454719422,12.915,12.835128,50.778,50.77791,-1.0,373.3378,1.0,1.0,nan,3,4.278376,4.278376,4.278376,0.0,0.0,0.0,0.0,0.0,0.0,0.0,0.0,0.0,0.0,0.0,0.0,0.0,0.0,0.0,0.0,0.0,0,0,0,0,0,0,0,0,0,0,0,1,0,0,1,0,0
454909560,12.7264,12.827219,50.778,50.77791,-1.0,376.0199,1.0,1.0,nan,3,4.2757397,4.2757397,4.2757397,0.0,0.0,0.0,0.0,0.0,0.0,0.0,0.0,0.0,0.0,0.0,0.0,0.0,0.0,0.0,0.0,0.0,0,0,0,0,0,0,0,0,0,0,0,1,0,0,1,0,0
455119984,13.038,12.828338,50.778,50.77791,-1.0,378.98788,1.0,1.0,nan,3,4.2761126,4.2761126,4.2761126,0.0,0.0,0.0,0.0,0.0,0.0,0.0,0.0,0.0,0.0,0.0,0.0,0.0,0.0,0.0,0.0,0.0,0,0,0,0,0,0,0,0,0,0,0,1,0,0,1,0,0
455309753,12.537799,12.818149,50.778,50.77791,-1.0,381.66458,1.0,1.0,nan,3,4.272716,4.272716,4.272716,0.0,0.0,0.0,0.0,0.0,0.0,0.0,0.0,0.0,0.0,0.0,0.0,0.0,0.0,0.0,0.0,0.0,0,0,0,0,0,0,0,0,0,0,0,1,0,0,1,0,0
455520096,12.767401,12.795138,50.778,50.77791,-1.0,384.63147,1.0,1.0,nan,3,4.265046,4.265046,4.265046,0.0,0.0,0.0,0.0,0.0,0.0,0.0,0.0,0.0,0.0,0.0,0.0,0.0,0.0,0.0,0.0,0.0,0,0,0,0,0,0,0,0,0,0,0,1,0,0,1,0,0
