timestamp,timestamp_sample,device_id,x,y,z,temperature,error_count,samples
394705951,394705935,2228234,0.031764995,0.03909538,0.018325958,51.0,0,1
394708110,394708094,2228234,0.03909538,0.036651917,0.015882498,51.0,0,1
394806769,394806753,2228234,0.048869222,0.028099803,0.030543266,51.0,0,1
394906861,394906845,2228234,0.03909538,0.01954769,0.029321535,51.0,0,1
395008372,395008348,2228234,0.036651917,0.03909538,0.029321535,51.0,0,1
395105989,395105973,2228234,0.06230826,0.020769421,0.029321535,51.0,0,1
395213553,395213537,2228234,0.046425764,0.018325958,0.026878074,51.0,0,1
395306548,395306529,2228234,0.006108653,0.015882498,0.025656343,51.0,0,1
395503779,395503758,2228234,0.057421338,0.031764995,0.015882498,51.0,0,1
395607597,395607581,2228234,0.051312685,0.028099803,0.034208458,51.0,0,1
395708945,395708926,2228234,0.03543019,0.017104229,0.028099803,51.0,0,1
395802756,395802740,2228234,0.041538842,0.025656343,0.02199115,51.0,0,1
395906605,395906576,2228234,0.036651917,0.020769421,0.03909538,51.0,0,1
396006673,396006656,2228234,0.048869222,0.026878074,0.025656343,51.0,0,1
396104399,396104356,2228234,0.03543019,0.030543266,0.03909538,51.0,0,1
396204366,396204350,2228234,0.03909538,0.014660767,0.029321535,51.0,0,1
396306913,396306897,2228234,0.048869222,0.041538842,0.024434611,51.0,0,1
396406982,396406966,2228234,0.0048869224,0.030543266,0.023212882,51.0,0,1
396503503,396503480,2228234,0.048869222,0.03909538,0.030543266,51.0,0,1
396607152,396607130,2228234,0.08185595,0.030543266,0.024434611,51.0,0,1
396707229,396707213,2228234,0.023212882,0.030543266,0.024434611,51.0,0,1
396807325,396807309,2228234,0.051312685,0.025656343,0.03909538,51.0,0,1
396906000,396905984,2228234,0.052534416,0.03543019,0.018325958,51.0,0,1
397007485,397007469,2228234,0.04276057,0.032986727,0.023212882,51.0,0,1
397107578,397107562,2228234,0.048869222,0.025656343,0.034208458,51.0,0,1
397306409,397306393,2228234,0.057421338,0.01954769,0.024434611,51.0,0,1
397706800,397706784,2228234,0.037873648,0.023212882,0.015882498,51.0,0,1
397808164,397808145,2228234,0.037873648,0.036651917,0.023212882,51.0,0,1
397905843,397905820,2228234,0.04031711,0.026878074,0.028099803,51.0,0,1
398007103,398007087,2228234,0.057421338,0.031764995,0.023212882,51.0,0,1
398108444,398108418,2228234,0.031764995,0.020769421,0.030543266,51.0,0,1
398207300,398207284,2228234,0.056199607,0.017104229,0.041538842,51.0,0,1
398306103,398306086,2228234,0.04276057,0.045204032,0.020769421,51.0,0,1
398406788,398406769,2228234,0.05864307,0.028099803,0.018325958,51.0,0,1
398508703,398508687,2228234,0.04031711,0.024434611,0.029321535,51.0,0,1
398603816,398603797,2228234,0.06230826,0.023212882,0.02199115,51.0,0,1
398706420,398706404,2228234,0.047647495,0.026878074,0.029321535,51.0,0,1
398807187,398807169,2228234,0.020769421,0.023212882,0.046425764,51.0,0,1
398904059,398904034,2228234,0.052534416,0.028099803,0.0012217306,51.0,0,1
399006676,399006659,2228234,0.053756148,0.041538842,0.0085521145,51.0,0,1
399106741,399106717,2228234,0.03543019,0.023212882,0.041538842,51.0,0,1
399206850,399206828,2228234,0.057421338,0.026878074,0.028099803,51.0,0,1
399406965,399406949,2228234,0.037873648,0.01954769,0.0598648,51.0,0,1
399507140,399507118,2228234,-0.012217306,0.032986727,0.031764995,51.0,0,1
399604608,399604592,2228234,0.06108653,0.013439037,0.0085521145,51.0,0,1
399703080,399703064,2228234,0.06230826,0.023212882,0.023212882,51.0,0,1
399807325,399807309,2228234,-0.006108653,0.015882498,0.032986727,51.0,0,1
399907422,399907405,2228234,0.06230826,0.009773845,0.056199607,51.0,0,1
400207639,400207620,2228234,0.06352999,0.026878074,0.051312685,51.0,0,1
400405259,400405242,2228234,0.03909538,0.012217306,0.0073303836,51.0,0,1
400506028,400506012,2228234,0.0598648,0.018325958,0.053756148,51.0,0,1
400606125,400606109,2228234,0.013439037,0.025656343,0.0073303836,51.0,0,1
400704081,400704065,2228234,0.024434611,0.030543266,0.010995575,51.0,0,1
400805605,400805582,2228234,0.09285153,0.017104229,0.0598648,51.0,0,1
401107340,401107324,2228234,0.06230826,0.03543019,0.02199115,51.0,0,1
401206728,401206712,2228234,0.04031711,0.04276057,0.0073303836,51.0,0,1
401306825,401306809,2228234,0.026878074,0.028099803,0.036651917,51.0,0,1
401406077,401406061,2228234,0.047647495,0.015882498,0.025656343,51.0,0,1
401506202,401506183,2228234,0.067195185,0.04031711,0.0012217306,51.0,0,1
401607126,401607109,2228234,0.030543266,0.029321535,0.037873648,51.0,0,1
401705085,401705069,2228234,0.031764995,0.024434611,0.03543019,51.0,0,1
401805184,401805165,2228234,0.045204032,0.029321535,0.0012217306,51.0,0,1
401906495,401906478,2228234,0.06475172,0.024434611,0.029321535,51.0,0,1
402006579,402006563,2228234,0.024434611,0.013439037,0.047647495,51.0,0,1
402104147,402104131,2228234,0.056199607,0.020769421,0.023212882,51.0,0,1
402206744,402206728,2228234,0.056199607,0.025656343,0.012217306,51.0,0,1
402306808,402306792,2228234,0.048869222,0.023212882,0.014660767,51.0,0,1
402404431,402404413,2228234,0.036651917,0.0085521145,0.047647495,51.0,0,1
402507012,402506993,2228234,0.050090954,0.026878074,0.018325958,51.0,0,1
402607066,402607050,2228234,0.048869222,0.04276057,0.028099803,51.0,0,1
402707532,402707516,2228234,0.034208458,0.023212882,0.03543019,51.0,0,1
402804723,402804701,2228234,0.048869222,0.030543266,0.024434611,51.0,0,1
402907297,402907281,2228234,0.053756148,0.015882498,0.032986727,51.0,0,1
403007427,403007409,2228234,0.032986727,0.01954769,0.04276057,51.0,0,1
403107520,403107503,2228234,0.07941249,0.025656343,0.009773845,51.0,0,1
403207584,403207565,2228234,0.06352999,0.036651917,-0.0024434612,51.0,0,1
403307683,403307667,2228234,0.025656343,0.01954769,0.032986727,51.0,0,1
403407713,403407697,2228234,0.03909538,0.034208458,0.030543266,51.0,0,1
403502802,403502786,2228234,0.05864307,0.036651917,0.02199115,51.0,0,1
403606265,403606248,2228234,0.06475172,0.025656343,0.026878074,51.0,0,1
403707953,403707937,2228234,0.029321535,0.03543019,0.029321535,51.0,0,1
403808058,403808041,2228234,0.032986727,0.023212882,0.029321535,51.0,0,1
403905616,403905600,2228234,0.050090954,0.037873648,0.006108653,51.0,0,1
404008216,404008199,2228234,0.045204032,0.023212882,0.031764995,51.0,0,1
404108296,404108279,2228234,0.04031711,0.025656343,0.026878074,51.0,0,1
404204720,404204704,2228234,0.056199607,0.025656343,0.025656343,51.0,0,1
404308472,404308455,2228234,0.050090954,0.028099803,0.032986727,51.0,0,1
404408577,404408560,2228234,0.03543019,0.03909538,0.028099803,51.0,0,1
404508617,404508601,2228234,0.030543266,0.025656343,0.023212882,51.0,0,1
404607326,404607309,2228234,0.067195185,0.028099803,0.030543266,51.0,0,1
404708807,404708788,2228234,0.0439823,0.017104229,0.02199115,51.0,0,1
404808853,404808837,2228234,0.041538842,0.02199115,0.026878074,51.0,0,1
404906443,404906427,2228234,0.04276057,0.02199115,0.030543266,51.0,0,1
405006606,405006579,2228234,0.012217306,0.01954769,0.030543266,51.0,0,1
405109136,405109118,2228234,0.08185595,0.024434611,0.029321535,51.0,0,1
405205725,405205704,2228234,0.041538842,0.01954769,0.010995575,51.0,0,1
405306827,405306811,2228234,0.045204032,0.028099803,0.026878074,51.0,0,1
405406846,405406829,2228234,0.06475172,0.03543019,0.030543266,51.0,0,1
405506945,405506929,2228234,0.0439823,0.034208458,0.010995575,51.0,0,1
405603262,405603246,2228234,0.051312685,0.034208458,0.034208458,50.0,0,1
405707089,405707072,2228234,0.053756148,0.029321535,0.03543019,50.0,0,1
405807172,405807156,2228234,0.06230826,0.031764995,0.03543019,50.0,0,1
405907255,405907238,2228234,0.025656343,0.026878074,0.010995575,50.0,0,1
406004833,406004816,2228234,0.04276057,0.02199115,0.032986727,50.0,0,1
406107475,406107459,2228234,0.057421338,0.01954769,0.03543019,50.0,0,1
406207514,406207498,2228234,0.018325958,0.03543019,0.009773845,50.0,0,1
406303960,406303944,2228234,0.074525565,0.02199115,0.04276057,50.0,0,1
406406208,406406192,2228234,0.0439823,0.014660767,0.026878074,50.0,0,1
406505590,406505574,2228234,0.030543266,0.018325958,0.013439037,50.0,0,1
406607824,406607807,2228234,0.07330383,0.02199115,0.047647495,51.0,0,1
406706505,406706489,2228234,0.013439037,0.036651917,0.0073303836,51.0,0,1
406806605,406806589,2228234,0.06108653,0.025656343,0.04276057,51.0,0,1
406905990,406905974,2228234,0.052534416,0.015882498,0.020769421,51.0,0,1
407005714,407005698,2228234,0.051312685,0.02199115,0.025656343,51.0,0,1
407206293,407206277,2228234,0.08185595,0.020769421,0.025656343,51.0,0,1
407305945,407305929,2228234,0.026878074,0.030543266,0.026878074,51.0,0,1
407404353,407404337,2228234,0.01954769,0.03543019,0.020769421,51.0,0,1
407507308,407507292,2228234,0.08063422,0.017104229,0.036651917,51.0,0,1
407608671,407608653,2228234,0.06230826,0.020769421,0.015882498,51.0,0,1
407702547,407702531,2228234,0.0085521145,0.026878074,0.018325958,51.0,0,1
407807608,407807592,2228234,0.057421338,0.024434611,0.034208458,51.0,0,1
407906999,407906983,2228234,0.06352999,0.028099803,0.017104229,51.0,0,1
408003960,408003944,2228234,0.034208458,0.032986727,0.018325958,51.0,0,1
408105091,408105074,2228234,0.06108653,0.028099803,0.057421338,51.0,0,1
408206640,408206624,2228234,0.048869222,0.03543019,0.0073303836,51.0,0,1
408306717,408306700,2228234,0.04276057,0.026878074,0.0048869224,51.0,0,1
408404323,408404305,2228234,0.04031711,0.014660767,0.047647495,51.0,0,1
408506879,408506863,2228234,0.03909538,0.037873648,0.024434611,51.0,0,1
408606952,408606931,2228234,0.083077684,0.031764995,0.014660767,51.0,0,1
408704571,408704553,2228234,0.025656343,0.020769421,0.029321535,51.0,0,1
408807122,408807106,2228234,0.037873648,0.030543266,0.045204032,50.0,0,1
408907189,408907173,2228234,0.051312685,0.018325958,0.014660767,50.0,0,1
409007309,409007291,2228234,0.041538842,0.024434611,0.014660767,50.0,0,1
409106048,409106032,2228234,0.03543019,0.024434611,0.028099803,50.0,0,1
409206146,409206130,2228234,0.046425764,0.01954769,0.026878074,50.0,0,1
409305544,409305528,2228234,0.048869222,0.041538842,0.030543266,50.0,0,1
409405114,409405098,2228234,0.04276057,0.028099803,0.029321535,50.0,0,1
409503594,409503576,2228234,0.04031711,0.030543266,0.025656343,50.0,0,1
409605857,409605841,2228234,0.04276057,0.029321535,0.034208458,50.0,0,1
409707879,409707860,2228234,0.03909538,0.017104229,0.026878074,50.0,0,1
409802918,409802902,2228234,0.037873648,0.018325958,0.03543019,50.0,0,1
409906845,409906829,2228234,0.0598648,0.04031711,0.025656343,50.0,0,1
410006252,410006233,2228234,0.057421338,0.03543019,0.025656343,50.0,0,1
410105719,410105703,2228234,0.03543019,0.032986727,0.03909538,50.0,0,1
410205758,410205742,2228234,0.030543266,0.04031711,0.034208458,50.0,0,1
410306547,410306531,2228234,0.047647495,0.034208458,0.020769421,50.0,0,1
410406633,410406617,2228234,0.050090954,0.023212882,0.028099803,50.0,0,1
410504592,410504576,2228234,0.045204032,0.018325958,0.020769421,50.0,0,1
410606847,410606831,2228234,0.029321535,0.015882498,0.029321535,50.0,0,1
410708660,410708644,2228234,0.068416916,0.025656343,0.034208458,50.0,0,1
410806235,410806219,2228234,0.06963865,0.032986727,0.025656343,50.0,0,1
410907845,410907829,2228234,0.03543019,0.025656343,0.036651917,51.0,0,1
411007233,411007217,2228234,0.047647495,0.017104229,0.020769421,51.0,0,1
411106508,411106492,2228234,0.041538842,0.034208458,0.010995575,51.0,0,1
411201583,411201567,2228234,0.047647495,0.02199115,0.036651917,51.0,0,1
411306708,411306692,2228234,0.04276057,0.029321535,0.030543266,51.0,0,1
411406778,411406762,2228234,0.048869222,0.031764995,0.026878074,51.0,0,1
411505591,411505572,2228234,0.06597345,0.036651917,0.037873648,51.0,0,1
411605688,411605669,2228234,0.028099803,0.014660767,0.01954769,51.0,0,1
411705099,411705082,2228234,0.051312685,0.031764995,0.025656343,51.0,0,1
411807055,411807039,2228234,0.030543266,0.03543019,0.020769421,51.0,0,1
411904640,411904624,2228234,0.06108653,0.020769421,0.037873648,51.0,0,1
412007259,412007240,2228234,0.037873648,0.034208458,0.025656343,51.0,0,1
412107308,412107292,2228234,0.02199115,0.031764995,0.031764995,51.0,0,1
412204885,412204864,2228234,0.06108653,0.031764995,0.029321535,51.0,0,1
412306392,412306369,2228234,0.032986727,0.029321535,0.015882498,51.0,0,1
412407578,412407560,2228234,0.034208458,0.034208458,0.030543266,51.0,0,1
412506605,412506582,2228234,0.06108653,0.0073303836,0.04031711,51.0,0,1
412706072,412706054,2228234,0.037873648,0.02199115,0.03543019,51.0,0,1
412807894,412807878,2228234,0.047647495,0.020769421,0.026878074,51.0,0,1
412905451,412905435,2228234,0.0439823,0.020769421,0.030543266,51.0,0,1
413007092,413007076,2228234,0.053756148,0.014660767,0.037873648,50.0,0,1
413106475,413106459,2228234,0.031764995,0.01954769,0.01954769,50.0,0,1
413205887,413205871,2228234,0.0598648,0.034208458,0.030543266,50.0,0,1
413406774,413406755,2228234,0.036651917,0.032986727,0.028099803,50.0,0,1
413506873,413506857,2228234,0.05864307,0.028099803,0.023212882,50.0,0,1
413606017,413606001,2228234,0.045204032,0.024434611,0.018325958,50.0,0,1
413706156,413706140,2228234,0.037873648,0.014660767,0.028099803,50.0,0,1
413806192,413806176,2228234,0.05497788,0.030543266,0.025656343,50.0,0,1
413906258,413906242,2228234,0.037873648,0.04276057,0.026878074,50.0,0,1
414003844,414003828,2228234,0.031764995,0.032986727,0.028099803,50.0,0,1
414106439,414106417,2228234,0.06352999,0.018325958,0.029321535,50.0,0,1
414206522,414206506,2228234,0.051312685,0.036651917,0.028099803,50.0,0,1
414305528,414305512,2228234,0.037873648,0.012217306,0.026878074,50.0,0,1
414406675,414406659,2228234,0.047647495,0.03909538,0.023212882,50.0,0,1
414506816,414506800,2228234,0.045204032,0.025656343,0.023212882,50.0,0,1
414604446,414604429,2228234,0.045204032,0.014660767,0.04031711,50.0,0,1
414705925,414705909,2228234,0.041538842,0.023212882,0.037873648,50.0,0,1
414806987,414806971,2228234,0.032986727,0.02199115,0.0073303836,50.0,0,1
414907120,414907101,2228234,0.045204032,0.03543019,0.028099803,50.0,0,1
415006231,415006214,2228234,0.056199607,0.018325958,0.03909538,50.0,0,1
415104781,415104763,2228234,0.037873648,0.029321535,0.026878074,50.0,0,1
415205710,415205694,2228234,0.056199607,0.02199115,0.026878074,50.0,0,1
415307412,415307396,2228234,0.04031711,0.028099803,0.028099803,50.0,0,1
415403767,415403749,2228234,0.029321535,0.024434611,0.020769421,50.0,0,1
415507587,415507571,2228234,0.056199607,0.023212882,0.032986727,50.0,0,1
415607652,415607636,2228234,0.051312685,0.03543019,0.024434611,50.0,0,1
415707737,415707721,2228234,0.029321535,0.028099803,0.034208458,50.0,0,1
415806310,415806294,2228234,0.057421338,0.032986727,0.032986727,50.0,0,1
416007981,416007964,2228234,0.053756148,0.026878074,0.036651917,50.0,0,1
416105578,416105557,2228234,0.041538842,0.034208458,0.026878074,50.0,0,1
416308226,416308210,2228234,0.056199607,0.032986727,0.024434611,51.0,0,1
416404768,416404752,2228234,0.057421338,0.032986727,0.017104229,51.0,0,1
416508406,416508389,2228234,0.015882498,0.041538842,0.026878074,51.0,0,1
416807315,416807297,2228234,0.056199607,0.04276057,0.032986727,51.0,0,1
417006795,417006779,2228234,0.034208458,0.031764995,0.0085521145,51.0,0,1
417106430,417106413,2228234,0.08674287,0.032986727,0.046425764,51.0,0,1
417207710,417207694,2228234,0.034208458,0.030543266,0.0024434612,51.0,0,1
417306555,417306539,2228234,0.050090954,0.031764995,0.045204032,50.0,0,1
417406633,417406617,2228234,0.047647495,0.03909538,0.03909538,50.0,0,1
417503026,417503002,2228234,0.041538842,0.023212882,0.018325958,50.0,0,1
417606794,417606778,2228234,0.06475172,0.017104229,0.03543019,50.0,0,1
417706868,417706846,2228234,0.012217306,0.04276057,0.020769421,50.0,0,1
417804482,417804464,2228234,0.04276057,0.020769421,0.036651917,50.0,0,1
417905550,417905534,2228234,0.052534416,0.03543019,0.025656343,50.0,0,1
418007108,418007092,2228234,0.032986727,0.017104229,0.031764995,50.0,0,1
418105042,418105022,2228234,0.057421338,0.028099803,0.031764995,50.0,0,1
418204876,418204849,2228234,0.052534416,0.036651917,0.0085521145,50.0,0,1
418307428,418307411,2228234,0.06108653,0.023212882,0.04276057,50.0,0,1
418407448,418407421,2228234,0.041538842,0.009773845,0.029321535,50.0,0,1
418505023,418505007,2228234,0.06475172,0.025656343,0.03909538,50.0,0,1
418607634,418607615,2228234,0.017104229,0.020769421,-0.0024434612,50.0,0,1
418706353,418706337,2228234,0.051312685,0.015882498,0.025656343,50.0,0,1
418807754,418807738,2228234,0.036651917,0.014660767,0.029321535,50.0,0,1
418902914,418902898,2228234,0.023212882,0.0024434612,0.03909538,50.0,0,1
419006688,419006672,2228234,0.050090954,0.025656343,0.010995575,50.0,0,1
419106043,419106025,2228234,0.0036651918,0.03909538,0.024434611,50.0,0,1
419205639,419205623,2228234,0.06963865,0.036651917,0.07086038,50.0,0,1
419305673,419305657,2228234,0.013439037,0.03909538,-0.0036651918,50.0,0,1
419406335,419406319,2228234,0.0598648,0.046425764,0.045204032,50.0,0,1
419506437,419506421,2228234,0.057421338,0.032986727,0.05497788,50.0,0,1
419604404,419604377,2228234,0.047647495,0.026878074,0.0036651918,50.0,0,1
419806738,419806719,2228234,0.0,0.026878074,0.023212882,50.0,0,1
419906155,419906139,2228234,0.028099803,0.02199115,0.0439823,50.0,0,1
420007653,420007636,2228234,0.050090954,0.03909538,0.036651917,50.0,0,1
420107035,420107019,2228234,0.034208458,0.037873648,0.023212882,50.0,0,1
420207135,420207119,2228234,0.028099803,0.032986727,0.03543019,50.0,0,1
420306554,420306538,2228234,0.04031711,0.018325958,0.025656343,50.0,0,1
420406579,420406563,2228234,0.06352999,0.025656343,0.0085521145,50.0,0,1
420506662,420506646,2228234,0.030543266,0.025656343,0.031764995,50.0,0,1
420605404,420605378,2228234,0.037873648,0.010995575,0.0439823,50.0,0,1
420706810,420706794,2228234,0.06475172,0.023212882,0.01954769,50.0,0,1
420806898,420806882,2228234,0.020769421,0.020769421,0.015882498,50.0,0,1
420906996,420906980,2228234,0.045204032,0.013439037,0.05497788,50.0,0,1
421004561,421004545,2228234,0.06352999,0.031764995,0.02199115,50.0,0,1
421107134,421107118,2228234,0.045204032,0.02199115,0.017104229,50.0,0,1
421207241,421207225,2228234,0.013439037,0.023212882,0.041538842,50.0,0,1
421304822,421304805,2228234,0.048869222,0.037873648,0.025656343,50.0,0,1
421405064,421405048,2228234,0.0598648,0.01954769,0.0085521145,50.0,0,1
421505575,421505559,2228234,0.052534416,0.01954769,0.031764995,51.0,0,1
421606443,421606391,2228234,0.0036651918,0.013439037,0.029321535,51.0,0,1
421703630,421703614,2228234,0.08185595,0.023212882,0.048869222,51.0,0,1
421805885,421805869,2228234,0.04276057,0.034208458,0.0036651918,51.0,0,1
421907829,421907810,2228234,0.030543266,0.034208458,0.032986727,51.0,0,1
422005484,422005468,2228234,0.045204032,0.026878074,0.0439823,51.0,0,1
422106909,422106886,2228234,0.07696903,0.026878074,0.0012217306,51.0,0,1
422208133,422208116,2228234,0.0085521145,0.020769421,0.01954769,51.0,0,1
422305647,422305628,2228234,0.037873648,0.01954769,0.034208458,51.0,0,1
422405696,422405679,2228234,0.07696903,0.032986727,0.014660767,51.0,0,1
422506578,422506561,2228234,0.03543019,0.023212882,0.023212882,51.0,0,1
422608518,422608489,2228234,0.014660767,0.024434611,0.037873648,51.0,0,1
422703502,422703485,2228234,0.05497788,0.037873648,0.024434611,51.0,0,1
422806024,422806008,2228234,0.052534416,0.031764995,0.020769421,51.0,0,1
422906144,422906125,2228234,0.03543019,0.010995575,0.04276057,51.0,0,1
423006367,423006351,2228234,0.025656343,0.020769421,0.04276057,51.0,0,1
423105057,423105032,2228234,0.023212882,0.03543019,0.026878074,51.0,0,1
423207275,423207259,2228234,0.06475172,0.031764995,0.04276057,51.0,0,1
423307398,423307374,2228234,0.036651917,0.026878074,0.020769421,51.0,0,1
423401680,423401655,2228234,0.041538842,0.031764995,0.018325958,51.0,0,1
423506631,423506612,2228234,0.025656343,0.024434611,0.024434611,51.0,0,1
423606713,423606694,2228234,0.06108653,0.04276057,0.013439037,51.0,0,1
423705659,423705635,2228234,0.045204032,0.026878074,0.041538842,50.0,0,1
423805734,423805718,2228234,-0.006108653,0.030543266,0.028099803,50.0,0,1
423907002,423906986,2228234,0.11728614,0.048869222,0.06108653,50.0,0,1
424007015,424006999,2228234,0.067195185,0.010995575,0.0598648,50.0,0,1
424104596,424104580,2228234,0.023212882,0.030543266,0.0048869224,50.0,0,1
424207189,424207173,2228234,0.030543266,0.050090954,0.052534416,50.0,0,1
424307247,424307231,2228234,0.07819076,0.047647495,0.0598648,50.0,0,1
424406330,424406314,2228234,0.009773845,0.07086038,0.028099803,50.0,0,1
424506494,424506471,2228234,0.015882498,0.0048869224,0.052534416,50.0,0,1
424605826,424605809,2228234,0.08918633,0.0720821,0.04276057,50.0,0,1
424705933,424705910,2228234,-0.06597345,0.017104229,0.0012217306,51.0,0,1
424805172,424805156,2228234,-0.026878074,0.018325958,0.0048869224,51.0,0,1
424905268,424905249,2228234,0.2076942,0.057421338,0.0598648,51.0,0,1
425007812,425007796,2228234,0.2394592,0.03543019,0.1197296,51.0,0,1
425105622,425105599,2228234,-0.04276057,-0.0048869224,-0.029321535,51.0,0,1
425204285,425204268,2228234,-0.028099803,0.0598648,-0.06352999,51.0,0,1
425306515,425306499,2228234,0.025656343,-0.08063422,-0.05497788,51.0,0,1
425405640,425405624,2228234,0.10140364,-0.10018191,0.010995575,51.0,0,1
425504570,425504554,2228234,0.1197296,0.10506883,0.0085521145,51.0,0,1
425606835,425606809,2228234,0.14294249,-0.09529499,-0.1038471,51.0,0,1
425706934,425706911,2228234,-0.051312685,-0.029321535,-0.11239921,51.0,0,1
425808537,425808520,2228234,0.045204032,-0.012217306,-0.015882498,51.0,0,1
425906069,425906053,2228234,0.09529499,0.0036651918,-0.07330383,51.0,0,1
426007216,426007200,2228234,0.041538842,-0.031764995,-0.15027286,51.0,0,1
426106265,426106249,2228234,-0.06108653,-0.015882498,-0.04276057,51.0,0,1
426205270,426205254,2228234,0.034208458,-0.11239921,-0.090408064,51.0,0,1
426306486,426306463,2228234,0.11239921,0.09651672,-0.047647495,51.0,0,1
426404758,426404742,2228234,0.11728614,0.11728614,-0.06597345,51.0,0,1
426507005,426506989,2228234,0.2883284,0.045204032,-0.09651672,51.0,0,1
426604133,426604117,2228234,-0.048869222,-0.067195185,-0.14660767,51.0,0,1
426806781,426806765,2228234,-0.04031711,-0.010995575,0.23823747,51.0,0,1
426904408,426904391,2228234,-0.025656343,0.012217306,0.2553417,50.0,0,1
427005355,427005339,2228234,0.12217306,-0.0012217306,0.13805556,50.0,0,1
427107059,427107042,2228234,0.20280728,-0.18570305,0.1319469,50.0,0,1
427204880,427204862,2228234,0.08918633,-0.18692479,0.21013767,50.0,0,1
427304701,427304683,2228234,0.29199362,0.21624632,0.0439823,50.0,0,1
427407260,427407244,2228234,-0.19669862,0.045204032,0.10873403,50.0,0,1
427507370,427507352,2228234,-0.18325959,0.21013767,-0.0879646,50.0,0,1
427603810,427603794,2228234,-0.31764996,0.17348574,-0.05497788,50.0,0,1
427707609,427707583,2228234,0.012217306,-0.051312685,0.074525565,50.0,0,1
427807635,427807619,2228234,-0.12705998,-0.006108653,-0.068416916,50.0,0,1
427907719,427907703,2228234,-0.025656343,0.16004671,-0.17226401,49.0,0,1
428006404,428006388,2228234,-0.23212881,0.13316864,-0.1478294,49.0,0,1
428107836,428107818,2228234,-0.075747296,0.2712242,-0.21258113,49.0,0,1
428207879,428207863,2228234,-0.2113594,0.37751475,-0.025656343,49.0,0,1
428305545,428305529,2228234,-0.10873403,0.46181417,-0.17348574,49.0,0,1
428406755,428406739,2228234,0.026878074,0.36896265,0.0036651918,49.0,0,1
428508290,428508264,2228234,0.16249017,0.2516765,-0.031764995,49.0,0,1
428608216,428608200,2228234,0.267559,0.19425517,-0.32009342,49.0,0,1
428705807,428705773,2228234,-0.012217306,0.16493364,-0.35552362,49.0,0,1
428808467,428808451,2228234,-0.16004671,0.2712242,-0.27611113,49.0,0,1
428908544,428908521,2228234,0.18570305,0.24190266,0.01954769,49.0,0,1
429006007,429005991,2228234,0.7929032,0.2712242,-0.08918633,48.0,0,1
429108710,429108694,2228234,0.8136726,0.123394795,0.0,48.0,0,1
429208657,429208641,2228234,0.5400049,0.12095133,-0.18570305,48.0,0,1
429307658,429307641,2228234,0.32498035,0.17470747,-0.07696903,48.0,0,1
429412777,429412754,2228234,0.3506367,0.19547689,-0.037873648,48.0,0,1
429506390,429506365,2228234,0.38117996,0.17470747,0.009773845,48.0,0,1
429609025,429609009,2228234,0.27488938,0.1637119,-0.031764995,48.0,0,1
429704082,429704063,2228234,0.3506367,0.1673771,0.0720821,48.0,0,1
429806790,429806749,2228234,0.14294249,0.14538594,0.052534416,48.0,0,1
430006781,430006764,2228234,0.1637119,0.03909538,0.06963865,48.0,0,1
430104364,430104348,2228234,0.06475172,0.017104229,0.14049903,49.0,0,1
430207114,430207082,2228234,-0.03909538,0.050090954,0.020769421,49.0,0,1
430307091,430307068,2228234,0.09651672,0.08918633,0.0439823,49.0,0,1
430404596,430404580,2228234,0.08063422,0.12950344,0.08552114,49.0,0,1
430507321,430507295,2228234,0.36896265,0.02199115,0.1356121,49.0,0,1
430607367,430607332,2228234,0.25778517,-0.048869222,0.33841938,49.0,0,1
430706195,430706179,2228234,0.60842186,0.04276057,0.21380286,49.0,0,1
430806295,430806279,2228234,0.50090957,-0.06230826,0.19181171,49.0,0,1
430905697,430905674,2228234,0.54489183,0.10140364,-0.046425764,49.0,0,1
431005780,431005764,2228234,0.06963865,-0.14172076,0.020769421,49.0,0,1
431205984,431205967,2228234,-0.8491028,-0.1319469,0.18081613,48.0,0,1
431307918,431307889,2228234,-0.1795944,-0.26633728,0.22602016,48.0,0,1
431407830,431407814,2228234,0.3714061,-0.08918633,0.34086284,48.0,0,1
431504152,431504129,2228234,0.0012217306,-0.006108653,0.21868978,48.0,0,1
431606415,431606393,2228234,-0.26267207,-0.0012217306,0.24190266,48.0,0,1
431705765,431705749,2228234,-0.33353245,-0.053756148,0.0879646,48.0,0,1
431804479,431804463,2228234,-0.21991152,-0.09651672,0.1637119,48.0,0,1
431906699,431906682,2228234,-0.39095378,-0.06230826,0.2712242,48.0,0,1
432006780,432006764,2228234,-0.15271632,0.057421338,0.3078761,48.0,0,1
432108399,432108372,2228234,-0.14905113,-0.051312685,0.25778517,48.0,0,1
432206986,432206970,2228234,-0.23335055,0.08674287,-0.1637119,47.0,0,1
432405082,432405066,2228234,-0.26267207,-0.10262537,0.14049903,47.0,0,1
432606252,432606234,2228234,-0.02199115,-0.032986727,0.05864307,47.0,0,1
432706298,432706281,2228234,0.06352999,-0.097738445,0.0048869224,47.0,0,1
432806367,432806351,2228234,0.091629796,-0.009773845,-0.0879646,47.0,0,1
432903926,432903910,2228234,-0.13316864,-0.06352999,-0.10262537,47.0,0,1
433007095,433007079,2228234,-0.010995575,-0.0598648,-0.15760325,47.0,0,1
433106654,433106638,2228234,-0.3591888,-0.08185595,0.014660767,47.0,0,1
433202975,433202958,2228234,-0.4593707,-0.11606441,0.16126844,47.0,0,1
433306792,433306775,2228234,-0.42149705,-0.11606441,0.22846362,47.0,0,1
433406815,433406799,2228234,-0.053756148,-0.12461652,0.07941249,47.0,0,1
433506891,433506875,2228234,0.331089,0.11239921,-0.24556786,47.0,0,1
433605520,433605504,2228234,-0.041538842,0.0024434612,-0.23823747,47.0,0,1
433707061,433707042,2228234,-0.12095133,0.068416916,-0.39217553,47.0,0,1
434007240,434007224,2228234,-0.1319469,-0.13805556,0.068416916,47.0,0,1
434107330,434107313,2228234,0.48869225,0.074525565,0.056199607,47.0,0,1
434202384,434202364,2228234,0.42516226,0.16859883,-0.028099803,47.0,0,1
434305009,434304980,2228234,0.56810474,0.10873403,-0.2553417,46.0,0,1
434407559,434407540,2228234,0.6133088,0.098960176,-0.34452802,46.0,0,1
434507638,434507619,2228234,0.22113325,-0.06230826,-0.27611113,46.0,0,1
434602668,434602652,2228234,0.30543265,-0.057421338,-0.14049903,46.0,0,1
434707741,434707725,2228234,0.15515979,0.036651917,-0.0720821,46.0,0,1
434807853,434807834,2228234,0.02199115,-0.17837267,0.2797763,46.0,0,1
434906826,434906809,2228234,-0.0048869224,-0.06475172,0.38606688,46.0,0,1
435006920,435006904,2228234,0.31398475,0.047647495,0.16615537,46.0,0,1
435108164,435108140,2228234,0.18325959,-0.14294249,0.10506883,46.0,0,1
435207120,435207104,2228234,0.3714061,-0.20402901,0.026878074,46.0,0,1
435307226,435307209,2228234,0.3506367,0.046425764,-0.036651917,46.0,0,1
435406605,435406589,2228234,0.15027286,0.020769421,0.12583825,46.0,0,1
435508332,435508316,2228234,0.036651917,0.11728614,0.24678959,46.0,0,1
435705963,435705941,2228234,0.43371436,0.10018191,0.21013767,46.0,0,1
435808601,435808585,2228234,0.52534413,0.08552114,0.19181171,46.0,0,1
435908617,435908595,2228234,0.4948009,0.0036651918,0.11728614,46.0,0,1
436003659,436003643,2228234,0.36041054,0.0073303836,0.03909538,46.0,0,1
436107306,436107290,2228234,-0.19058998,0.15882498,0.07819076,46.0,0,1
436208858,436208842,2228234,-0.33719766,-0.07330383,0.23212881,46.0,0,1
436407608,436407589,2228234,-0.16004671,0.025656343,0.17837267,46.0,0,1
436509177,436509149,2228234,0.14294249,0.23579401,0.23212881,45.0,0,1
436609217,436609186,2228234,0.20158555,0.51679206,0.16615537,45.0,0,1
436702900,436702883,2228234,0.075747296,0.5057965,0.2797763,45.0,0,1
436806728,436806712,2228234,0.26145035,0.5106834,0.20891593,45.0,0,1
436909423,436909395,2228234,0.15638152,0.47647494,0.10873403,45.0,0,1
437003200,437003184,2228234,0.30543265,0.5778786,0.19058998,45.0,0,1
437105474,437105457,2228234,0.1673771,0.4948009,0.06963865,45.0,0,1
437209533,437209515,2228234,-0.026878074,0.362854,-0.015882498,45.0,0,1
437303527,437303511,2228234,-0.09285153,0.47158802,0.123394795,45.0,0,1
437407147,437407126,2228234,0.06963865,0.31031957,0.19669862,45.0,0,1
437507324,437507308,2228234,0.30054572,0.2590069,0.21013767,45.0,0,1
437607290,437607274,2228234,0.14660767,0.08063422,0.17837267,45.0,0,1
437707373,437707354,2228234,0.43249264,-0.0048869224,0.068416916,45.0,0,1
437806145,437806129,2228234,0.18203786,-0.20647247,0.090408064,45.0,0,1
437910093,437910066,2228234,0.2638938,-0.0085521145,0.14172076,45.0,0,1
438010073,438010057,2228234,0.07086038,0.0073303836,0.26633728,45.0,0,1
438102655,438102633,2228234,0.20036381,0.12583825,0.35552362,45.0,0,1
438206545,438206528,2228234,0.5705482,-0.017104229,0.2883284,45.0,0,1
438310356,438310335,2228234,0.58887416,0.028099803,0.12828171,45.0,0,1
438406745,438406728,2228234,0.12583825,-0.03543019,0.24923304,45.0,0,1
438610456,438610440,2228234,-0.5436701,-0.12461652,0.40194938,45.0,0,1
438708478,438708461,2228234,-0.30543265,-0.15638152,0.5937611,45.0,0,1
438805588,438805572,2228234,-0.046425764,-0.07819076,0.19181171,45.0,0,1
438906530,438906513,2228234,0.023212882,-0.015882498,0.047647495,45.0,0,1
439010849,439010826,2228234,-0.074525565,-0.048869222,0.26145035,45.0,0,1
439109593,439109577,2228234,0.10873403,0.041538842,0.23212881,45.0,0,1
439206830,439206814,2228234,0.53023106,0.19181171,0.07086038,45.0,0,1
439306930,439306914,2228234,0.598648,0.12461652,0.17104228,45.0,0,1
439411034,439411015,2228234,-0.1759292,0.052534416,0.46914455,45.0,0,1
439509993,439509977,2228234,-0.5387832,0.123394795,0.3237586,45.0,0,1
439606147,439606131,2228234,-0.5607743,0.23457228,0.34574977,45.0,0,1
439712335,439712319,2228234,-0.4667011,-0.031764995,0.5412267,44.0,0,1
439811365,439811349,2228234,-0.21746805,-0.08063422,0.46059245,44.0,0,1
439906404,439906387,2228234,-0.15027286,0.12461652,0.43982303,44.0,0,1
440006915,440006898,2228234,-0.18448132,0.08918633,0.28466323,44.0,0,1
440111517,440111501,2228234,-0.4153884,-0.10506883,0.43004918,44.0,0,1
440202828,440202812,2228234,-0.21868978,-0.091629796,0.3506367,44.0,0,1
440306611,440306584,2228234,0.3433063,-0.1197296,0.18936825,44.0,0,1
440406702,440406683,2228234,0.7733555,-0.029321535,-0.023212882,44.0,0,1
440504273,440504257,2228234,-0.3958407,0.006108653,-0.17348574,44.0,0,1
440606806,440606789,2228234,-0.5021313,-0.020769421,-0.123394795,44.0,0,1
440706889,440706871,2228234,-1.0787882,-0.010995575,0.03909538,44.0,0,1
440806925,440806909,2228234,-0.99937564,-0.15393806,0.29199362,44.0,0,1
440905673,440905656,2228234,-0.43737957,-0.21013767,0.36651918,44.0,0,1
441007079,441007063,2228234,-0.23823747,-0.15271632,0.3152065,44.0,0,1
441107121,441107105,2228234,-0.0024434612,-0.10018191,0.20280728,44.0,0,1
441202193,441202176,2228234,0.36163226,0.04031711,0.07696903,44.0,0,1
441306072,441306056,2228234,0.1637119,0.06108653,-0.16493364,44.0,0,1
441405503,441405487,2228234,-0.3433063,-0.20036381,-0.25656343,44.0,0,1
441506270,441506254,2228234,-0.5937611,-0.08674287,-0.041538842,44.0,0,1
441604955,441604939,2228234,-0.535118,-0.123394795,-0.02199115,44.0,0,1
441705755,441705738,2228234,-0.5436701,-0.013439037,0.084299415,44.0,0,1
441807617,441807598,2228234,-0.27733284,-0.13805556,0.1038471,44.0,0,1
441906695,441906673,2228234,-0.10995576,-0.052534416,0.15271632,44.0,0,1
442007775,442007759,2228234,0.65973455,-0.083077684,0.050090954,44.0,0,1
442107787,442107771,2228234,1.7702876,0.0085521145,0.029321535,44.0,0,1
442207854,442207838,2228234,1.1276573,0.1197296,-0.26878074,44.0,0,1
442309218,442309202,2228234,1.3255777,0.24434613,-0.43737957,44.0,0,1
442411484,442411467,2228234,0.9187414,0.2113594,-0.37262782,44.0,0,1
442508049,442508032,2228234,0.8943068,0.29688054,-0.0012217306,44.0,0,1
442605612,442605596,2228234,1.1985177,0.44959685,0.14294249,44.0,0,1
442711760,442711744,2228234,1.0482448,0.49357918,0.6475172,44.0,0,1
442808246,442808230,2228234,1.1911874,0.60475665,0.8808678,44.0,0,1
442908305,442908289,2228234,1.11544,0.30176747,0.7562512,44.0,0,1
443012063,443012047,2228234,1.0922272,0.29688054,0.60109144,44.0,0,1
443108489,443108473,2228234,0.23090708,0.6194174,0.36407572,44.0,0,1
443208519,443208503,2228234,-0.87353736,0.58154374,0.49113572,44.0,0,1
443307358,443307339,2228234,-1.9156736,0.5082399,0.5900959,44.0,0,1
443407475,443407459,2228234,-1.7030925,0.33231074,0.56932646,44.0,0,1
443508702,443508686,2228234,-0.7147124,0.40805802,0.65973455,44.0,0,1
443606943,443606927,2228234,0.36529744,0.58643067,0.3274238,44.0,0,1
443712763,443712747,2228234,0.18570305,0.5546657,-0.018325958,44.0,0,1
443814033,443814017,2228234,0.4386013,0.52900934,-0.012217306,44.0,0,1
443907242,443907224,2228234,-0.15638152,0.4349361,-0.1392773,44.0,0,1
444008060,444008039,2228234,-0.4789184,0.53633976,-0.08185595,44.0,0,1
444105298,444105281,2228234,-1.1105531,0.43371436,0.43615782,44.0,0,1
444204686,444204667,2228234,-0.7977901,0.22235496,0.4422665,44.0,0,1
444305582,444305555,2228234,-0.037873648,0.29443708,0.5742134,44.0,0,1
444404289,444404272,2228234,-0.047647495,0.2638938,0.21868978,44.0,0,1
444506863,444506847,2228234,0.7208211,0.3152065,-0.114842676,44.0,0,1
444606926,444606910,2228234,0.71226895,0.31031957,0.1319469,44.0,0,1
444705895,444705879,2228234,0.299324,0.2590069,0.1795944,44.0,0,1
444807055,444807039,2228234,-0.074525565,0.25778517,0.20036381,44.0,0,1
444907084,444907068,2228234,-0.16126844,0.2431244,0.27366766,44.0,0,1
445006221,445006194,2228234,-0.2638938,-0.1197296,0.25045478,43.0,0,1
445103475,445103459,2228234,0.67317355,-0.028099803,-0.15760325,43.0,0,1
445207363,445207346,2228234,0.41661015,-0.048869222,0.084299415,43.0,0,1
445307367,445307351,2228234,0.12950344,-0.1356121,0.10262537,43.0,0,1
445402414,445402397,2228234,-0.29443708,-0.14905113,0.18570305,43.0,0,1
445505991,445505975,2228234,0.3995059,0.114842676,0.16493364,43.0,0,1
445607619,445607603,2228234,0.07819076,0.15393806,0.01954769,43.0,0,1
445707614,445707598,2228234,-0.60231316,-0.041538842,0.29321533,43.0,0,1
445806280,445806264,2228234,-0.5424484,-0.15882498,0.4874705,43.0,0,1
445906398,445906374,2228234,-0.3872886,-0.18570305,0.503353,43.0,0,1
446005768,446005752,2228234,-0.12217306,-0.1197296,0.35674533,43.0,0,1
446105373,446105354,2228234,0.32864553,0.13683383,0.18570305,43.0,0,1
446205450,446205431,2228234,0.024434611,0.2076942,0.0012217306,43.0,0,1
446306065,446306049,2228234,0.03543019,0.01954769,0.028099803,43.0,0,1
446405556,446405540,2228234,0.2883284,0.1356121,-0.09529499,43.0,0,1
446504120,446504104,2228234,0.38606688,0.014660767,-0.24556786,43.0,0,1
446606365,446606349,2228234,0.114842676,0.1478294,-0.1356121,43.0,0,1
446706488,446706465,2228234,-0.041538842,0.14660767,-0.017104229,43.0,0,1
446804421,446804405,2228234,-0.107512295,0.15393806,0.18936825,43.0,0,1
446906704,446906688,2228234,-0.045204032,0.27244592,0.25778517,43.0,0,1
447006766,447006749,2228234,-0.075747296,0.15638152,0.21624632,43.0,0,1
447105993,447105977,2228234,0.0024434612,0.16982055,0.36163226,43.0,0,1
447203621,447203605,2228234,0.056199607,0.1478294,0.1637119,43.0,0,1
447306149,447306129,2228234,0.1356121,0.09651672,0.0439823,43.0,0,1
447406474,447406458,2228234,-0.050090954,0.13316864,0.26145035,43.0,0,1
447506238,447506221,2228234,0.097738445,0.18570305,0.21502459,43.0,0,1
447606325,447606307,2228234,0.10506883,0.11117748,0.16982055,43.0,0,1
447706421,447706405,2228234,-0.036651917,0.05497788,0.27000245,43.0,0,1
447806850,447806834,2228234,0.06597345,0.21502459,0.27488938,43.0,0,1
447906546,447906530,2228234,0.013439037,0.068416916,0.16493364,43.0,0,1
448006553,448006537,2228234,-0.0085521145,0.07330383,0.2797763,43.0,0,1
448106678,448106652,2228234,0.12217306,0.2076942,0.30054572,43.0,0,1
448202963,448202946,2228234,-0.028099803,0.15515979,0.32620206,42.0,0,1
448306753,448306734,2228234,-0.030543266,0.067195185,0.28588498,42.0,0,1
448406803,448406787,2228234,0.10018191,0.22479843,0.26878074,42.0,0,1
448506844,448506828,2228234,0.045204032,0.09651672,0.23335055,42.0,0,1
448605515,448605499,2228234,-0.017104229,0.05864307,0.24068093,42.0,0,1
448707029,448707013,2228234,0.098960176,0.21868978,0.2834415,42.0,0,1
448804990,448804973,2228234,0.11117748,0.14538594,0.10506883,42.0,0,1
448904595,448904579,2228234,-0.12950344,0.0439823,0.11239921,42.0,0,1
449007181,449007162,2228234,-0.44837514,0.17715093,0.26022863,42.0,0,1
449105305,449105289,2228234,-0.3518584,0.07696903,0.19792035,42.0,0,1
449206105,449206089,2228234,-0.80389875,-0.015882498,0.4141667,42.0,0,1
449306209,449306192,2228234,-0.7428122,0.1038471,0.28099805,42.0,0,1
449507572,449507549,2228234,-0.19181171,0.106290564,0.28099805,42.0,0,1
449603645,449603629,2228234,-0.10262537,0.010995575,0.098960176,42.0,0,1
449707656,449707640,2228234,0.23579401,0.047647495,0.02199115,42.0,0,1
449807646,449807630,2228234,0.36041054,0.18570305,-0.075747296,42.0,0,1
449902700,449902684,2228234,0.41783187,0.053756148,0.12461652,42.0,0,1
450004047,450004028,2228234,0.20402901,-0.051312685,0.25778517,42.0,0,1
450107824,450107808,2228234,0.24434613,0.17104228,0.299324,42.0,0,1
450205678,450205662,2228234,0.18692479,0.106290564,0.09285153,42.0,0,1
450304370,450304354,2228234,0.19303344,0.025656343,-0.090408064,42.0,0,1
450408008,450407992,2228234,0.29443708,0.14905113,-0.036651917,42.0,0,1
450508055,450508039,2228234,-0.031764995,-0.0036651918,0.013439037,42.0,0,1
450606075,450606059,2228234,-0.2516765,-0.08674287,0.12583825,42.0,0,1
450705713,450705695,2228234,-0.13072518,0.036651917,0.19425517,42.0,0,1
450908314,450908298,2228234,0.030543266,0.09407326,0.25045478,42.0,0,1
451005865,451005849,2228234,0.15393806,0.034208458,0.10995576,42.0,0,1
451107290,451107274,2228234,-0.0024434612,-0.0012217306,0.15515979,42.0,0,1
451208490,451208474,2228234,-0.020769421,0.036651917,-0.02199115,42.0,0,1
451307531,451307515,2228234,-0.394619,-0.07696903,0.1478294,42.0,0,1
451408653,451408637,2228234,-0.16004671,0.0598648,0.12461652,42.0,0,1
451508662,451508646,2228234,0.03543019,-0.09529499,0.07696903,42.0,0,1
451609220,451609204,2228234,0.28955016,0.11239921,0.12828171,42.0,0,1
451706265,451706249,2228234,-0.24190266,0.083077684,0.14538594,42.0,0,1
451807284,451807259,2228234,-0.48502705,-0.0024434612,-0.024434611,42.0,0,1
451907378,451907361,2228234,-0.38606688,-0.068416916,0.15515979,42.0,0,1
452107576,452107559,2228234,-0.43615782,0.030543266,0.10995576,42.0,0,1
452206644,452206628,2228234,-0.12217306,-0.05864307,0.11117748,42.0,0,1
452305630,452305613,2228234,0.35796708,0.16859883,0.08918633,42.0,0,1
452405736,452405719,2228234,0.13072518,0.09529499,-0.06108653,41.0,0,1
452508006,452507979,2228234,0.23212881,0.13316864,-0.020769421,41.0,0,1
452609351,452609334,2228234,-0.013439037,-0.18448132,0.01954769,41.0,0,1
452706858,452706842,2228234,-0.1441642,0.041538842,0.21746805,41.0,0,1
452804418,452804402,2228234,-0.1392773,-0.12095133,0.19792035,41.0,0,1
452907663,452907647,2228234,0.0024434612,-0.107512295,0.067195185,41.0,0,1
453007031,453007014,2228234,0.028099803,0.025656343,0.06108653,41.0,0,1
453104598,453104582,2228234,0.15760325,-0.05497788,-0.06230826,41.0,0,1
453210826,453210809,2228234,-0.023212882,0.19792035,0.034208458,41.0,0,1
453309900,453309876,2228234,-0.0085521145,0.10262537,0.01954769,41.0,0,1
453407258,453407241,2228234,-0.1637119,0.041538842,0.0085521145,41.0,0,1
453506117,453506098,2228234,-0.16615537,-0.010995575,-0.0012217306,40.0,0,1
453608364,453608347,2228234,0.13683383,0.12705998,0.1673771,40.0,0,1
453710060,453710037,2228234,0.35308015,0.084299415,-0.028099803,40.0,0,1
453905800,453905784,2228234,0.1759292,0.056199607,-0.15027286,40.0,0,1
454007618,454007602,2228234,0.42882743,0.123394795,0.041538842,40.0,0,1
454106725,454106709,2228234,0.35552362,0.12950344,-0.047647495,40.0,0,1
454207740,454207724,2228234,0.3225369,-0.026878074,0.14294249,40.0,0,1
454310315,454310299,2228234,0.24434613,0.09407326,0.09529499,40.0,0,1
454504282,454504265,2228234,0.45692724,0.13439037,0.1478294,40.0,0,1
454610576,454610552,2228234,0.22602016,0.08674287,0.048869222,41.0,0,1
454710658,454710642,2228234,0.07330383,-0.010995575,0.052534416,41.0,0,1
454805587,454805571,2228234,0.13072518,0.07941249,0.052534416,41.0,0,1
454906803,454906784,2228234,0.05864307,0.0439823,0.21380286,41.0,0,1
455010799,455010772,2228234,0.27488938,0.006108653,0.057421338,41.0,0,1
455110840,455110824,2228234,0.23579401,-0.06108653,0.19792035,41.0,0,1
455203389,455203364,2228234,0.32620206,0.083077684,0.2235767,41.0,0,1
455307200,455307184,2228234,0.51557034,0.14172076,0.25778517,41.0,0,1
455410932,455410916,2228234,0.5913176,0.12705998,0.03909538,41.0,0,1
455508566,455508550,2228234,0.5021313,0.09407326,0.0,41.0,0,1
455606026,455606010,2228234,0.25411996,0.18692479,0.0073303836,40.0,0,1
455711124,455711105,2228234,-0.27733284,0.2516765,0.15638152,40.0,0,1
455811297,455811274,2228234,-0.24923304,0.009773845,0.43004918,40.0,0,1
455904964,455904948,2228234,0.068416916,0.08918633,0.5962045,40.0,0,1
456006283,456006267,2228234,0.25778517,0.07941249,0.48869225,40.0,0,1
456111391,456111367,2228234,0.2480113,0.15149459,0.10506883,40.0,0,1
456210247,456210231,2228234,0.22602016,0.123394795,-0.036651917,40.0,0,1
456306553,456306537,2228234,-0.05497788,-0.06230826,0.029321535,40.0,0,1
456406530,456406511,2228234,-0.11850787,0.06597345,0.14660767,40.0,0,1
456505540,456505523,2228234,-0.1319469,0.09285153,0.39095378,40.0,0,1
456611613,456611596,2228234,-0.2235767,-0.014660767,0.5070182,40.0,0,1
456710033,456710017,2228234,0.0012217306,-0.04276057,0.16615537,40.0,0,1
456806718,456806702,2228234,-0.11728614,-0.090408064,0.26022863,40.0,0,1
456904304,456904286,2228234,0.114842676,0.11239921,0.052534416,40.0,0,1
457009371,457009351,2228234,-0.009773845,0.12217306,0.15149459,40.0,0,1
457106939,457106923,2228234,-0.1759292,0.18570305,0.26511553,40.0,0,1
457206942,457206926,2228234,-0.22602016,0.2553417,0.19669862,40.0,0,1
457305625,457305608,2228234,-0.36407572,0.36163226,0.24923304,40.0,0,1
457412875,457412859,2228234,-0.0012217306,0.5057965,0.27733284,40.0,0,1
457512975,457512959,2228234,0.13072518,0.535118,0.37018436,40.0,0,1
457605944,457605925,2228234,0.46181417,0.49724436,0.0439823,40.0,0,1
457709770,457709745,2228234,0.3714061,0.43615782,-0.074525565,40.0,0,1
457812411,457812395,2228234,-0.048869222,0.47158802,0.0439823,40.0,0,1
457906225,457906208,2228234,0.048869222,0.46425763,0.18692479,40.0,0,1
458006328,458006311,2228234,-0.07696903,0.39217553,0.33719766,40.0,0,1
458112608,458112583,2228234,0.4520403,0.5595526,0.37384957,40.0,0,1
458212615,458212598,2228234,0.90896755,0.3958407,0.38240167,40.0,0,1
458305076,458305060,2228234,1.9388865,0.6194174,0.29199362,40.0,0,1
458405113,458405097,2228234,1.1239922,0.59253937,0.0073303836,40.0,0,1
458512666,458512650,2228234,-0.29077187,0.56443954,0.38117996,40.0,0,1
458610519,458610494,2228234,-1.437977,0.7599164,0.43249264,40.0,0,1
458705282,458705266,2228234,-0.7782424,0.3164282,0.62430435,40.0,0,1
458807863,458807844,2228234,-0.013439037,0.4239405,0.8222247,40.0,0,1
458912977,458912961,2228234,0.21502459,0.6841691,0.19303344,40.0,0,1
459105528,459105509,2228234,0.34819323,0.31398475,-0.21991152,40.0,0,1
459213100,459213081,2228234,-0.22846362,0.18203786,0.06597345,40.0,0,1
459308101,459308085,2228234,-1.1264356,-0.09529499,0.24556786,40.0,0,1
459405683,459405667,2228234,-1.070236,-0.052534416,0.60475665,40.0,0,1
459513282,459513266,2228234,-0.7305949,-0.123394795,0.51434857,40.0,0,1
459608280,459608264,2228234,-0.4667011,-0.123394795,0.6548476,40.0,0,1
459707310,459707294,2228234,-0.09651672,-0.012217306,0.39339724,40.0,0,1
459813430,459813411,2228234,0.39828417,-0.0073303836,0.21258113,40.0,0,1
459913481,459913459,2228234,0.5192355,-0.074525565,0.08918633,40.0,0,1
460008519,460008503,2228234,0.5229007,-0.020769421,-0.113620944,40.0,0,1
460104897,460104881,2228234,0.19914208,-0.068416916,0.21991152,40.0,0,1
460213625,460213609,2228234,-0.030543266,-0.025656343,0.3078761,40.0,0,1
460313741,460313725,2228234,-0.29199362,-0.10140364,0.3396411,40.0,0,1
460403722,460403705,2228234,-0.23579401,-0.08185595,0.47280973,40.0,0,1
460508801,460508776,2228234,0.017104229,-0.06963865,0.51679206,40.0,0,1
460613978,460613962,2228234,-0.28099805,-0.1759292,0.2797763,40.0,0,1
460708873,460708857,2228234,0.32498035,-0.06597345,0.15638152,40.0,0,1
460806452,460806436,2228234,0.73303837,-0.08918633,0.24434613,40.0,0,1
460914055,460914039,2228234,0.18081613,-0.047647495,0.08063422,40.0,0,1
461006718,461006689,2228234,0.08674287,-0.26145035,0.15882498,40.0,0,1
461206699,461206682,2228234,0.28955016,-0.02199115,0.16004671,40.0,0,1
461306751,461306726,2228234,0.029321535,-0.06963865,0.31398475,40.0,0,1
461406775,461406759,2228234,-0.030543266,0.006108653,0.5021313,40.0,0,1
461504330,461504314,2228234,-0.2590069,0.16615537,0.63896513,40.0,0,1
461606894,461606878,2228234,0.7586947,0.3396411,0.5277876,40.0,0,1
461707073,461707047,2228234,0.0720821,0.1356121,0.44470993,40.0,0,1
461805861,461805838,2228234,0.21746805,0.27000245,0.06597345,40.0,0,1
461907057,461907041,2228234,-0.18692479,0.26145035,0.13683383,40.0,0,1
462007226,462007210,2228234,0.34574977,0.6255261,0.24556786,40.0,0,1
462106155,462106132,2228234,0.45692724,0.71226895,0.08552114,40.0,0,1
462206241,462206219,2228234,0.7623599,0.64140856,0.13072518,40.0,0,1
462307307,462307290,2228234,0.42638397,0.61697394,0.30421093,40.0,0,1
462407305,462407289,2228234,0.62430435,0.6426303,0.2431244,40.0,0,1
462503675,462503659,2228234,0.30543265,0.6072001,0.3591888,40.0,0,1
462607562,462607539,2228234,0.30421093,0.72937316,0.28955016,40.0,0,1
462707491,462707475,2228234,-0.37018436,0.49968782,0.39339724,40.0,0,1
462807568,462807544,2228234,-0.8613201,0.4349361,0.43249264,40.0,0,1
462907706,462907683,2228234,-0.29810226,0.5619961,0.27733284,40.0,0,1
463007746,463007723,2228234,-0.35796708,0.45448378,0.39095378,40.0,0,1
463107777,463107761,2228234,-0.0048869224,0.34819323,0.15027286,40.0,0,1
463205268,463205249,2228234,-0.37629303,0.20036381,0.1637119,40.0,0,1
463306644,463306621,2228234,-0.458149,0.0720821,0.2785546,40.0,0,1
463406010,463405992,2228234,-0.32131514,0.0073303836,0.27000245,40.0,0,1
463505505,463505482,2228234,-0.6255261,-0.06230826,0.46914455,40.0,0,1
463606943,463606920,2228234,-0.23212881,-0.09285153,0.36041054,40.0,0,1
463706325,463706302,2228234,-0.27000245,-0.14538594,0.39095378,40.0,0,1
463806409,463806393,2228234,-0.1441642,-0.13316864,0.23212881,40.0,0,1
463904391,463904364,2228234,-0.06963865,-0.0048869224,0.10262537,40.0,0,1
464006612,464006593,2228234,-0.36163226,-0.06352999,0.07819076,40.0,0,1
464106705,464106689,2228234,-0.014660767,-0.051312685,-0.036651917,40.0,0,1
464205829,464205803,2228234,0.07086038,-0.010995575,0.068416916,40.0,0,1
464306906,464306889,2228234,-0.34086284,-0.013439037,0.17837267,40.0,0,1
464407005,464406989,2228234,-0.08185595,0.010995575,0.24068093,40.0,0,1
464506397,464506374,2228234,0.006108653,0.04276057,0.43371436,40.0,0,1
464603495,464603478,2228234,0.3787365,0.19547689,0.40805802,40.0,0,1
464707305,464707289,2228234,0.49235743,0.20891593,0.16615537,40.0,0,1
464907558,464907535,2228234,0.4630359,0.24068093,0.0879646,40.0,0,1
465006213,465006192,2228234,0.41661015,0.1759292,-0.106290564,40.0,0,1
465106990,465106974,2228234,0.037873648,0.16615537,0.053756148,40.0,0,1
465206316,465206300,2228234,-0.33353245,0.026878074,0.47647494,40.0,0,1
465306401,465306375,2228234,-0.22235496,0.10873403,0.45326206,40.0,0,1
465406456,465406437,2228234,-0.0073303836,0.14538594,0.33841938,40.0,0,1
465506497,465506480,2228234,-0.2834415,0.084299415,0.394619,40.0,0,1
465605345,465605329,2228234,-0.15393806,-0.010995575,0.15515979,40.0,0,1
465705471,465705455,2228234,0.07086038,-0.056199607,0.08063422,40.0,0,1
465806641,465806625,2228234,0.19058998,0.107512295,-0.08552114,40.0,0,1
465905645,465905629,2228234,-0.7867945,0.098960176,0.084299415,40.0,0,1
466005745,466005729,2228234,-0.83932894,-0.07696903,0.36163226,40.0,0,1
466106803,466106786,2228234,-0.39706245,0.056199607,0.36651918,40.0,0,1
466206850,466206834,2228234,-0.26022863,0.24556786,0.2235767,40.0,0,1
466304417,466304400,2228234,-0.69149953,0.12950344,0.13683383,39.0,0,1
466405471,466405455,2228234,-0.34574977,0.07330383,-0.10995576,39.0,0,1
466507008,466506992,2228234,-0.8466593,0.27366766,-0.23701574,39.0,0,1
466607068,466607052,2228234,-0.17837267,0.6780605,-0.034208458,39.0,0,1
466704636,466704620,2228234,-0.29199362,0.35308015,-0.15638152,39.0,0,1
466807277,466807254,2228234,-0.47280973,0.32498035,0.12950344,39.0,0,1
466907214,466907198,2228234,-1.4208727,0.14172076,0.1759292,39.0,0,1
467004859,467004831,2228234,-1.2034047,0.2834415,0.41905358,39.0,0,1
467106134,467106117,2228234,0.34452802,0.36163226,0.35796708,39.0,0,1
467205518,467205502,2228234,1.3194691,0.3433063,0.025656343,39.0,0,1
467305634,467305611,2228234,2.893058,0.21624632,0.046425764,39.0,0,1
467405005,467404988,2228234,2.7647765,0.0879646,-0.5045747,39.0,0,1
467505061,467505045,2228234,2.1343634,0.13316864,-0.78801626,39.0,0,1
467605916,467605900,2228234,0.33597592,0.07086038,-0.8222247,39.0,0,1
467705158,467705142,2228234,-1.1313225,-0.12217306,0.08063422,39.0,0,1
467805227,467805208,2228234,-1.663997,-0.14538594,0.6792822,39.0,0,1
467906225,467906209,2228234,-1.2486087,-0.34697148,1.1704179,39.0,0,1
468005603,468005587,2228234,-0.5241224,-0.2638938,0.7867945,39.0,0,1
468105413,468105397,2228234,0.630413,-0.12705998,0.29810226,39.0,0,1
468207932,468207916,2228234,1.2095133,-0.056199607,-0.015882498,39.0,0,1
468305902,468305886,2228234,0.39706245,-0.03543019,-0.27733284,39.0,0,1
468405587,468405571,2228234,-0.5705482,-0.036651917,-0.34452802,39.0,0,1
468505594,468505575,2228234,-0.9065241,-0.1673771,-0.20647247,39.0,0,1
468605618,468605596,2228234,-1.070236,-0.19792035,0.21746805,39.0,0,1
468708223,468708207,2228234,-1.0054843,-0.39706245,0.62186086,39.0,0,1
468805732,468805716,2228234,-0.45448378,-0.2834415,0.7147124,39.0,0,1
468906501,468906485,2228234,0.35552362,-0.2785546,0.45448378,39.0,0,1
469008403,469008369,2228234,1.160644,-0.22846362,0.10140364,39.0,0,1
469107457,469107434,2228234,0.6658432,-0.2785546,-0.4593707,39.0,0,1
469205977,469205958,2228234,-0.28466323,-0.25778517,-0.42516226,39.0,0,1
469306900,469306884,2228234,-0.75136435,-0.3677409,-0.1637119,39.0,0,1
469408559,469408542,2228234,-1.4294248,-0.34086284,0.16493364,39.0,0,1
469504967,469504941,2228234,-1.2620478,-0.51679206,0.61697394,39.0,0,1
469606168,469606152,2228234,-0.33719766,-0.54489183,0.85765487,39.0,0,1
469706585,469706569,2228234,0.59253937,-0.015882498,0.5742134,39.0,0,1
469806280,469806262,2228234,0.56810474,0.34452802,0.24190266,39.0,0,1
469908820,469908804,2228234,0.80023354,0.37751475,-0.32131514,39.0,0,1
470006888,470006869,2228234,-0.3237586,0.29077187,-0.6841691,39.0,0,1
470108941,470108923,2228234,-0.26633728,0.3506367,-0.6548476,39.0,0,1
470206478,470206462,2228234,-1.165531,0.5082399,-0.45692724,39.0,0,1
470306553,470306534,2228234,0.15638152,0.58154374,0.091629796,39.0,0,1
470406566,470406550,2228234,0.46547937,0.47403148,0.031764995,39.0,0,1
470509229,470509213,2228234,0.14049903,0.22846362,-0.09529499,39.0,0,1
470609216,470609199,2228234,0.29077187,0.14538594,-0.114842676,39.0,0,1
470804828,470804811,2228234,-0.6841691,0.3433063,-0.21258113,39.0,0,1
470905643,470905627,2228234,-0.15027286,0.030543266,0.21502459,39.0,0,1
471006896,471006880,2228234,0.27000245,-0.08674287,0.1795944,39.0,0,1
471109447,471109431,2228234,1.160644,0.015882498,0.20891593,39.0,0,1
471207042,471207026,2228234,1.7104229,0.21746805,-0.068416916,39.0,0,1
471307055,471307038,2228234,2.521652,0.036651917,-0.3714061,39.0,0,1
471407104,471407088,2228234,2.1233678,-0.014660767,-0.5766568,39.0,0,1
471509766,471509750,2228234,0.70982546,0.21502459,-0.37262782,39.0,0,1
471607238,471607218,2228234,-1.4563029,0.23701574,-0.26633728,39.0,0,1
471707255,471707239,2228234,-1.9437734,-0.013439037,0.27611113,39.0,0,1
471908788,471908772,2228234,-0.09407326,0.0879646,0.7195993,39.0,0,1
472009952,472009935,2228234,-0.032986727,0.06963865,0.77213377,39.0,0,1
472107468,472107452,2228234,0.49968782,0.13683383,0.5106834,39.0,0,1
472207512,472207496,2228234,0.9187414,0.12583825,0.36163226,39.0,0,1
472306326,472306309,2228234,0.43615782,0.04276057,0.013439037,39.0,0,1
472405710,472405693,2228234,-0.23823747,0.18570305,-0.0048869224,39.0,0,1
472507662,472507646,2228234,-0.5607743,-0.106290564,0.10140364,39.0,0,1
472607763,472607743,2228234,-0.5387832,-0.23457228,0.37751475,39.0,0,1
472807819,472807802,2228234,0.017104229,-0.07330383,0.32131514,38.0,0,1
472907974,472907958,2228234,-0.052534416,-0.057421338,0.0720821,38.0,0,1
473007930,473007914,2228234,0.08674287,-0.015882498,-0.14538594,38.0,0,1
473106417,473106401,2228234,-0.47036627,-0.03543019,-0.32131514,38.0,0,1
473205795,473205778,2228234,-0.034208458,-0.08063422,-0.39217553,38.0,0,1
473309471,473309455,2228234,-0.4789184,-0.20158555,-0.0439823,38.0,0,1
473406710,473406693,2228234,-1.0054843,-0.113620944,0.12828171,38.0,0,1
473506095,473506078,2228234,-1.3182473,-0.1319469,0.2638938,38.0,0,1
473608239,473608222,2228234,-0.7953466,-0.21380286,0.27244592,38.0,0,1
473707014,473706998,2228234,-0.41172323,-0.12461652,0.27244592,39.0,0,1
473810859,473810843,2228234,-0.2394592,-0.17226401,0.08918633,39.0,0,1
473906495,473906478,2228234,0.42760572,-0.21380286,-0.10995576,39.0,0,1
474003507,474003491,2228234,1.0543535,-0.18570305,-0.29199362,39.0,0,1
474111014,474110998,2228234,0.18081613,-0.097738445,-0.52534413,39.0,0,1
474211165,474211142,2228234,-0.43982303,-0.14294249,-0.52534413,39.0,0,1
474307610,474307593,2228234,-0.9944887,-0.17348574,-0.30909786,39.0,0,1
474407716,474407699,2228234,-0.7171559,-0.2431244,-0.0085521145,39.0,0,1
474511317,474511290,2228234,-0.26145035,-0.23701574,0.10995576,39.0,0,1
474606541,474606518,2228234,-0.16126844,-0.07696903,0.067195185,39.0,0,1
474811395,474811370,2228234,0.7770207,-0.13439037,-0.026878074,39.0,0,1
474911593,474911564,2228234,0.44470993,-0.13683383,-0.18692479,39.0,0,1
475006483,475006467,2228234,-0.16249017,-0.05497788,-0.3066544,39.0,0,1
475105550,475105533,2228234,-0.41783187,0.06963865,-0.19181171,39.0,0,1
475211601,475211585,2228234,0.3750713,0.23579401,0.21868978,39.0,0,1
475306661,475306645,2228234,0.47280973,0.3274238,0.024434611,39.0,0,1
475409225,475409207,2228234,0.3750713,0.48380533,-0.074525565,39.0,0,1
475511778,475511747,2228234,0.33841938,0.6988299,-0.097738445,39.0,0,1
475606823,475606804,2228234,0.17104228,0.78068584,-0.17470747,39.0,0,1
475711880,475711861,2228234,-0.1478294,0.78068584,-0.21746805,39.0,0,1
475806890,475806874,2228234,0.4153884,0.55222225,-0.08918633,39.0,0,1
476012117,476012101,2228234,0.22846362,0.4312709,-0.037873648,38.0,0,1
476104725,476104690,2228234,0.13683383,0.4312709,0.06475172,38.0,0,1
476207140,476207121,2228234,0.16004671,0.43615782,0.14905113,38.0,0,1
476307182,476307166,2228234,-0.14172076,0.35796708,0.24068093,38.0,0,1
476410473,476410457,2228234,-0.26022863,0.09285153,0.10262537,38.0,0,1
476507288,476507271,2228234,-0.19181171,0.11239921,0.06230826,38.0,0,1
476607393,476607370,2228234,-0.5619961,0.18814652,0.08674287,38.0,0,1
476712417,476712394,2228234,-0.8100074,0.18692479,0.16126844,38.0,0,1
476809997,476809980,2228234,-0.11239921,0.20158555,0.15149459,38.0,0,1
476907488,476907472,2228234,0.25656343,0.4386013,-0.091629796,39.0,0,1
477007593,477007577,2228234,0.43737957,0.38606688,-0.1478294,39.0,0,1
477110415,477110399,2228234,0.53267455,0.5754351,-0.3078761,39.0,0,1
477211225,477211209,2228234,0.4508186,0.394619,-0.14294249,39.0,0,1
477307708,477307692,2228234,-0.06963865,0.28955016,0.08918633,39.0,0,1
477407735,477407719,2228234,-0.29077187,0.29077187,0.074525565,39.0,0,1
477507783,477507767,2228234,0.25045478,0.24190266,0.1637119,39.0,0,1
477607865,477607848,2228234,0.38973206,-0.0024434612,0.3787365,39.0,0,1
477811825,477811809,2228234,-0.30421093,-0.18692479,-0.04276057,39.0,0,1
477911928,477911912,2228234,-0.5998697,-0.2871067,-0.07086038,39.0,0,1
478008073,478008057,2228234,-0.5827655,-0.34941494,0.06963865,39.0,0,1
478112151,478112119,2228234,-0.5241224,-0.27733284,0.2785546,39.0,0,1
478204360,478204344,2228234,-0.6072001,-0.27488938,0.0879646,39.0,0,1
478308206,478308183,2228234,-0.6352999,-0.38117996,-0.018325958,39.0,0,1
478413292,478413273,2228234,0.40439284,-0.27733284,0.020769421,39.0,0,1
478503346,478503327,2228234,0.7379253,-0.08918633,-0.16859883,39.0,0,1
478608368,478608351,2228234,0.36041054,-0.1759292,-0.33597592,39.0,0,1
478713461,478713442,2228234,0.21013767,-0.2883284,-0.10995576,39.0,0,1
478813527,478813510,2228234,0.21868978,-0.27733284,-0.13316864,39.0,0,1
478907246,478907229,2228234,0.050090954,-0.098960176,-0.19669862,39.0,0,1
479008616,479008597,2228234,0.051312685,-0.08185595,-0.012217306,39.0,0,1
479113780,479113754,2228234,0.13439037,-0.032986727,-0.013439037,38.0,0,1
479203665,479203649,2228234,0.091629796,-0.19669862,-0.045204032,38.0,0,1
479308747,479308731,2228234,0.12828171,-0.1673771,0.08063422,38.0,0,1
479413917,479413900,2228234,-0.09529499,-0.24556786,-0.0879646,38.0,0,1
479507846,479507830,2228234,-0.18325959,-0.2076942,-0.075747296,38.0,0,1
479613912,479613893,2228234,-0.20036381,-0.39095378,0.28588498,38.0,0,1
479706487,479706470,2228234,0.26878074,-0.16126844,0.012217306,38.0,0,1
479806497,479806481,2228234,-0.17470747,-0.26633728,0.34452802,38.0,0,1
479901565,479901546,2228234,-0.25045478,-0.23579401,0.28221977,38.0,0,1
480006598,480006572,2228234,0.4520403,0.113620944,0.22724189,38.0,0,1
480106640,480106624,2228234,0.36407572,0.12583825,-0.052534416,38.0,0,1
480204259,480204242,2228234,0.5387832,0.18692479,-0.3433063,38.0,0,1
480306823,480306807,2228234,0.32986727,0.21868978,-0.31276304,38.0,0,1
480406896,480406872,2228234,-0.0048869224,0.31398475,-0.14049903,38.0,0,1
480506845,480506829,2228234,-0.46792284,0.23090708,0.1759292,38.0,0,1
480603192,480603175,2228234,-0.1441642,0.09529499,0.3347542,38.0,0,1
480706948,480706932,2228234,0.21258113,0.26633728,0.34452802,38.0,0,1
480806997,480806981,2228234,0.87598085,0.40072763,0.47158802,38.0,0,1
481007102,481007086,2228234,1.1044445,0.22113325,-0.14538594,38.0,0,1
481107252,481107229,2228234,0.6548476,0.24434613,-0.18081613,38.0,0,1
481207191,481207175,2228234,-0.26633728,0.28955016,-0.18936825,38.0,0,1
481302271,481302255,2228234,-0.29443708,0.2590069,0.1319469,38.0,0,1
481406147,481406124,2228234,-0.048869222,0.20891593,0.29810226,38.0,0,1
481507400,481507373,2228234,-0.2431244,0.32986727,0.6194174,38.0,0,1
481604909,481604893,2228234,-0.267559,0.24556786,0.38606688,38.0,0,1
481706475,481706459,2228234,0.18692479,0.32009342,0.1637119,38.0,0,1
481807567,481807550,2228234,0.299324,0.40439284,0.04031711,38.0,0,1
481907611,481907595,2228234,0.49235743,0.4862488,0.16982055,38.0,0,1
482003871,482003855,2228234,0.4227188,0.38484514,0.012217306,38.0,0,1
482107671,482107655,2228234,-0.12950344,0.27244592,-0.20891593,38.0,0,1
482207743,482207724,2228234,-0.33719766,0.39339724,0.068416916,38.0,0,1
482307756,482307740,2228234,-0.16615537,0.4386013,0.13316864,38.0,0,1
482407806,482407789,2228234,0.06475172,0.42638397,0.12950344,38.0,0,1
482506535,482506512,2228234,-0.73181665,0.37262782,0.3518584,38.0,0,1
482608026,482607994,2228234,-0.06475172,0.4593707,0.15882498,38.0,0,1
482702975,482702959,2228234,-0.5705482,0.3237586,0.29443708,38.0,0,1
482806829,482806812,2228234,-0.503353,0.29199362,0.30909786,38.0,0,1
