timestamp,timestamp_sample,device_id,x,y,z,temperature,error_count,clip_counter[0],clip_counter[1],clip_counter[2],samples
394706689,394706674,1114122,3.7686956,3.2877383,-5.972485,52.375,0,0,0,0,1
394708142,394708127,1114122,3.732803,3.4097722,-5.9940205,52.375,0,0,0,0,1
394804297,394804282,1114122,3.8907294,3.1513474,-5.814559,52.5,0,0,0,0,1
394906144,394906129,1114122,3.7184463,3.1226335,-5.814559,52.5,0,0,0,0,1
395006936,395006921,1114122,3.4600215,3.3667014,-5.7930236,52.5,0,0,0,0,1
395101478,395101463,1114122,3.6466615,3.3092737,-5.85763,52.625,0,0,0,0,1
395213519,395213504,1114122,3.6107693,3.3092737,-5.9007006,52.5,0,0,0,0,1
395303673,395303658,1114122,3.926622,3.2733812,-6.04427,52.5,0,0,0,0,1
395506300,395506285,1114122,3.7543385,3.4025936,-5.757131,52.5,0,0,0,0,1
395607535,395607520,1114122,3.6466615,3.2590244,-5.893522,52.625,0,0,0,0,1
395707285,395707270,1114122,3.7974093,3.0867412,-5.8863435,52.5,0,0,0,0,1
395801789,395801774,1114122,3.682554,3.180061,-5.749953,52.5,0,0,0,0,1
395907835,395907820,1114122,3.7112677,3.574877,-5.8719864,52.5,0,0,0,0,1
396001682,396001664,1114122,3.4887352,3.1657043,-5.8432727,52.5,0,0,0,0,1
396106791,396106776,1114122,3.976871,3.2949166,-5.85763,52.5,0,0,0,0,1
396204410,396204395,1114122,3.9338002,3.3954153,-5.879165,52.5,0,0,0,0,1
396304744,396304729,1114122,3.7256248,3.481557,-5.893522,52.5,0,0,0,0,1
396405570,396405548,1114122,3.8261232,3.2303104,-5.8863435,52.5,0,0,0,0,1
396501085,396501070,1114122,3.682554,3.330809,-6.202196,52.5,0,0,0,0,1
396607191,396607173,1114122,3.9122648,3.1657043,-5.8432727,52.5,0,0,0,0,1
396703735,396703720,1114122,4.098905,3.4025936,-5.771488,52.5,0,0,0,0,1
396807358,396807342,1114122,3.8333018,3.4025936,-5.8863435,52.375,0,0,0,0,1
396906393,396906373,1114122,3.8907294,3.2159536,-5.879165,52.375,0,0,0,0,1
397006167,397006152,1114122,3.8907294,3.129812,-5.6279187,52.375,0,0,0,0,1
397105118,397105103,1114122,3.6897323,3.2949166,-5.9437714,52.5,0,0,0,0,1
397307758,397307740,1114122,3.682554,3.4097722,-5.7786665,52.375,0,0,0,0,1
397708081,397708063,1114122,3.7974093,3.2590244,-6.022734,52.375,0,0,0,0,1
397805690,397805675,1114122,3.682554,3.3092737,-5.915057,52.25,0,0,0,0,1
397899688,397899673,1114122,3.9122648,3.2015965,-5.8432727,52.375,0,0,0,0,1
398006790,398006775,1114122,3.790231,3.4600215,-5.9007006,52.375,0,0,0,0,1
398103556,398103532,1114122,3.546163,2.993421,-5.757131,52.375,0,0,0,0,1
398207364,398207346,1114122,3.7974093,3.1082766,-5.9796634,52.5,0,0,0,0,1
398306136,398306121,1114122,3.5820553,3.4456644,-5.7930236,52.25,0,0,0,0,1
398406845,398406830,1114122,3.7830524,3.3236306,-5.85763,52.25,0,0,0,0,1
398506270,398506255,1114122,3.8117664,3.4743783,-5.749953,52.25,0,0,0,0,1
398605285,398605270,1114122,3.5820553,3.5174491,-5.8863435,52.375,0,0,0,0,1
398706453,398706438,1114122,3.869194,3.3667014,-5.9437714,52.5,0,0,0,0,1
398806526,398806511,1114122,3.8117664,3.452843,-5.915057,52.375,0,0,0,0,1
398906691,398906674,1114122,3.8548372,3.5030923,-5.757131,52.375,0,0,0,0,1
399004119,399004104,1114122,3.682554,3.2733812,-5.8863435,52.5,0,0,0,0,1
399107196,399107181,1114122,3.5389845,3.4097722,-5.742774,52.375,0,0,0,0,1
399206813,399206796,1114122,3.7040894,3.2733812,-5.907879,52.375,0,0,0,0,1
399407001,399406986,1114122,3.8907294,3.180061,-5.893522,52.375,0,0,0,0,1
399504572,399504557,1114122,3.8476586,3.424129,-5.9940205,52.25,0,0,0,0,1
399607175,399607160,1114122,3.9409788,3.4025936,-6.144768,52.625,0,0,0,0,1
399704729,399704710,1114122,3.8117664,2.993421,-5.9653068,52.375,0,0,0,0,1
399805470,399805455,1114122,3.7543385,3.2590244,-5.6853466,52.375,0,0,0,0,1
399906253,399906231,1114122,3.7471602,3.4671998,-5.785845,52.5,0,0,0,0,1
400202628,400202610,1114122,3.8261232,3.3667014,-5.800202,52.375,0,0,0,0,1
400403938,400403923,1114122,3.546163,3.180061,-5.678168,52.375,0,0,0,0,1
400505785,400505770,1114122,3.7830524,3.2303104,-5.85763,52.25,0,0,0,0,1
400606588,400606570,1114122,3.9481573,3.1513474,-5.757131,52.375,0,0,0,0,1
400703042,400703024,1114122,3.7399817,3.1728828,-5.6853466,52.5,0,0,0,0,1
400806085,400806070,1114122,3.9625142,3.5246277,-5.556134,52.5,0,0,0,0,1
401105881,401105857,1114122,3.926622,3.2590244,-5.9509497,52.5,0,0,0,0,1
401204035,401204020,1114122,3.8835511,3.4025936,-6.202196,52.5,0,0,0,0,1
401306039,401306020,1114122,3.8404803,3.3379874,-5.9294143,52.375,0,0,0,0,1
401403655,401403640,1114122,3.7399817,3.3379874,-5.915057,52.375,0,0,0,0,1
401506168,401506149,1114122,3.8117664,3.072384,-5.958128,52.125,0,0,0,0,1
401605135,401605120,1114122,3.9696927,3.4600215,-5.699703,52.375,0,0,0,0,1
401706362,401706341,1114122,3.7974093,3.4097722,-5.8289156,52.5,0,0,0,0,1
401806410,401806395,1114122,3.9050865,3.2159536,-6.0514483,52.375,0,0,0,0,1
401901542,401901527,1114122,3.7184463,3.2733812,-5.757131,52.375,0,0,0,0,1
402006622,402006607,1114122,3.869194,3.237489,-5.958128,52.375,0,0,0,0,1
402102838,402102823,1114122,3.818945,3.452843,-5.8432727,52.375,0,0,0,0,1
402206788,402206773,1114122,3.7974093,3.3810582,-5.800202,52.5,0,0,0,0,1
402304332,402304317,1114122,3.6610186,3.3882368,-5.85763,52.375,0,0,0,0,1
402406894,402406879,1114122,3.9409788,3.3523445,-5.9007006,52.375,0,0,0,0,1
402507086,402507071,1114122,3.8476586,3.2518458,-5.6063833,52.375,0,0,0,0,1
402604565,402604550,1114122,3.682554,3.2159536,-5.958128,52.375,0,0,0,0,1
402707139,402707124,1114122,3.732803,3.1657043,-5.958128,52.25,0,0,0,0,1
402804759,402804742,1114122,3.6179478,3.345166,-6.029913,52.375,0,0,0,0,1
402907326,402907311,1114122,3.6610186,3.2518458,-6.2380886,52.375,0,0,0,0,1
403005881,403005866,1114122,3.897908,3.3667014,-6.001199,52.375,0,0,0,0,1
403102533,403102518,1114122,3.9553356,3.4313076,-5.915057,52.375,0,0,0,0,1
403207614,403207599,1114122,4.048656,3.2518458,-6.1016974,52.375,0,0,0,0,1
403304035,403304020,1114122,3.926622,3.1944182,-5.9365926,52.375,0,0,0,0,1
403407745,403407727,1114122,3.897908,3.4097722,-5.8432727,52.375,0,0,0,0,1
403506685,403506670,1114122,3.56052,3.3595228,-6.13759,52.25,0,0,0,0,1
403607908,403607891,1114122,3.8261232,3.3236306,-6.029913,52.5,0,0,0,0,1
403707983,403707968,1114122,3.8045878,3.345166,-6.087341,52.375,0,0,0,0,1
403803106,403803091,1114122,3.7471602,3.3667014,-5.8719864,52.25,0,0,0,0,1
403908158,403908141,1114122,4.0127635,3.330809,-5.9007006,52.375,0,0,0,0,1
404005749,404005733,1114122,3.9338002,3.2015965,-5.785845,52.375,0,0,0,0,1
404107292,404107277,1114122,3.6035907,3.2877383,-5.7284174,52.25,0,0,0,0,1
404207044,404207026,1114122,3.7184463,3.3667014,-5.879165,52.5,0,0,0,0,1
404304708,404304685,1114122,3.546163,3.3667014,-5.972485,52.25,0,0,0,0,1
404408635,404408620,1114122,3.8261232,3.2446673,-5.7284174,52.375,0,0,0,0,1
404506103,404506088,1114122,4.019942,3.2303104,-5.7786665,52.375,0,0,0,0,1
404608728,404608710,1114122,3.7256248,3.3810582,-5.850451,52.375,0,0,0,0,1
404708774,404708753,1114122,3.761517,3.2518458,-5.9437714,52.375,0,0,0,0,1
404803884,404803866,1114122,3.5964124,3.2518458,-6.0729837,52.25,0,0,0,0,1
404907390,404907370,1114122,3.8763726,3.4456644,-5.9365926,52.25,0,0,0,0,1
405004059,405004036,1114122,3.6897323,3.4671998,-5.9437714,52.25,0,0,0,0,1
405106614,405106599,1114122,3.818945,3.4313076,-5.9294143,52.25,0,0,0,0,1
405205593,405205578,1114122,3.5174491,3.330809,-5.757131,52.25,0,0,0,0,1
405303256,405303232,1114122,3.9840496,3.4097722,-5.80738,52.375,0,0,0,0,1
405406878,405406860,1114122,3.7112677,3.2446673,-6.1591253,52.5,0,0,0,0,1
405505891,405505872,1114122,3.732803,3.223132,-5.907879,52.375,0,0,0,0,1
405607031,405607016,1114122,4.0127635,3.1944182,-5.6853466,52.25,0,0,0,0,1
405705390,405705373,1114122,3.7184463,3.1369903,-6.0658054,52.25,0,0,0,0,1
405802202,405802184,1114122,3.926622,3.316452,-6.015556,52.25,0,0,0,0,1
405907299,405907284,1114122,3.8476586,3.2590244,-5.85763,52.25,0,0,0,0,1
406004871,406004854,1114122,3.8835511,3.1944182,-5.7284174,52.5,0,0,0,0,1
406107432,406107417,1114122,3.8620157,3.4097722,-6.0729837,52.25,0,0,0,0,1
406206235,406206220,1114122,3.8835511,3.3236306,-5.785845,52.25,0,0,0,0,1
406305125,406305109,1114122,3.8548372,3.316452,-6.087341,52.125,0,0,0,0,1
406405209,406405194,1114122,3.8404803,3.3882368,-6.0729837,52.25,0,0,0,0,1
406505239,406505224,1114122,3.7040894,3.180061,-5.893522,52.375,0,0,0,0,1
406607856,406607838,1114122,3.7830524,3.237489,-5.879165,52.375,0,0,0,0,1
406703937,406703920,1114122,3.732803,3.3810582,-5.9294143,52.375,0,0,0,0,1
406805801,406805779,1114122,3.9625142,3.5102706,-5.7355957,52.375,0,0,0,0,1
406905604,406905587,1114122,3.8548372,3.2877383,-5.9437714,52.25,0,0,0,0,1
407002135,407002120,1114122,3.976871,3.0939195,-5.9007006,52.25,0,0,0,0,1
407205919,407205904,1114122,3.991228,3.2590244,-5.972485,52.125,0,0,0,0,1
407306637,407306622,1114122,3.682554,3.424129,-5.9796634,52.25,0,0,0,0,1
407406020,407406004,1114122,3.9840496,3.452843,-6.0083776,52.375,0,0,0,0,1
407503594,407503576,1114122,3.6969109,3.3954153,-5.922236,52.375,0,0,0,0,1
407606938,407606923,1114122,3.9553356,3.237489,-5.9294143,52.25,0,0,0,0,1
407703762,407703746,1114122,3.9122648,3.2949166,-5.80738,52.125,0,0,0,0,1
407807531,407807516,1114122,3.8333018,3.452843,-6.001199,52.25,0,0,0,0,1
407906433,407906418,1114122,3.9625142,3.4097722,-5.9940205,52.375,0,0,0,0,1
408004885,408004870,1114122,3.790231,3.2015965,-6.0586267,52.125,0,0,0,0,1
408106552,408106537,1114122,3.8476586,3.5820553,-5.771488,52.25,0,0,0,0,1
408204150,408204135,1114122,3.8763726,3.2949166,-6.1734824,52.375,0,0,0,0,1
408306749,408306731,1114122,3.8835511,3.2733812,-5.9294143,52.375,0,0,0,0,1
408406806,408406791,1114122,3.8763726,3.424129,-5.814559,52.375,0,0,0,0,1
408504688,408504673,1114122,3.732803,3.5030923,-5.864808,52.375,0,0,0,0,1
408606991,408606973,1114122,3.818945,3.2590244,-6.0729837,52.25,0,0,0,0,1
408702209,408702187,1114122,3.8548372,3.223132,-6.022734,52.375,0,0,0,0,1
408807166,408807151,1114122,3.9050865,3.2877383,-5.800202,52.25,0,0,0,0,1
408904769,408904745,1114122,3.8261232,3.574877,-6.0514483,52.375,0,0,0,0,1
409002437,409002420,1114122,3.897908,3.2733812,-5.850451,52.25,0,0,0,0,1
409107422,409107393,1114122,3.926622,3.37388,-6.0586267,52.25,0,0,0,0,1
409205120,409205098,1114122,3.7974093,3.481557,-5.6135616,52.25,0,0,0,0,1
409307543,409307528,1114122,4.0271206,3.2877383,-6.029913,52.25,0,0,0,0,1
409406643,409406622,1114122,3.8404803,3.2949166,-6.001199,52.375,0,0,0,0,1
409500244,409500229,1114122,3.8835511,3.1657043,-5.556134,52.25,0,0,0,0,1
409606142,409606120,1114122,3.9194434,3.237489,-5.9437714,52.25,0,0,0,0,1
409705409,409705372,1114122,3.8476586,3.3092737,-6.0514483,52.25,0,0,0,0,1
409805439,409805424,1114122,3.8835511,3.330809,-5.742774,52.375,0,0,0,0,1
409905555,409905540,1114122,3.8404803,3.345166,-5.742774,52.125,0,0,0,0,1
410003133,410003118,1114122,4.149154,3.1369903,-5.80738,52.125,0,0,0,0,1
410106988,410106973,1114122,3.7399817,3.4313076,-6.015556,52.125,0,0,0,0,1
410204635,410204620,1114122,3.668197,3.330809,-5.8432727,52.125,0,0,0,0,1
410306485,410306470,1114122,3.9409788,3.2949166,-5.85763,52.125,0,0,0,0,1
410405925,410405910,1114122,3.9625142,3.4671998,-6.04427,52.25,0,0,0,0,1
410503561,410503546,1114122,3.9122648,3.2446673,-5.785845,52.25,0,0,0,0,1
410606787,410606772,1114122,3.9625142,3.3667014,-5.9940205,52.25,0,0,0,0,1
410707625,410707592,1114122,3.6897323,3.2518458,-5.5489554,52.25,0,0,0,0,1
410808746,410808723,1114122,3.732803,3.3379874,-5.785845,52.25,0,0,0,0,1
410906371,410906356,1114122,3.818945,3.2015965,-5.7643094,52.25,0,0,0,0,1
411003941,411003923,1114122,3.7471602,3.4456644,-5.7140603,52.125,0,0,0,0,1
411109028,411109010,1114122,3.6753755,3.452843,-5.8217373,52.25,0,0,0,0,1
411204163,411204148,1114122,3.8117664,3.424129,-5.771488,52.25,0,0,0,0,1
411306662,411306647,1114122,3.8117664,3.1657043,-6.001199,52.125,0,0,0,0,1
411406744,411406729,1114122,3.8835511,3.3882368,-5.742774,52.125,0,0,0,0,1
411501853,411501831,1114122,3.7830524,3.1082766,-5.699703,52.125,0,0,0,0,1
411606889,411606874,1114122,3.8548372,3.2015965,-5.9653068,52.25,0,0,0,0,1
411704529,411704514,1114122,4.019942,3.2662027,-5.80738,52.125,0,0,0,0,1
411807087,411807069,1114122,3.6394832,3.3092737,-5.785845,52.25,0,0,0,0,1
411905635,411905620,1114122,3.7686956,3.4169507,-5.699703,52.25,0,0,0,0,1
412004754,412004736,1114122,3.761517,3.115455,-5.570491,52.25,0,0,0,0,1
412107340,412107322,1114122,3.8835511,3.3092737,-5.8432727,52.125,0,0,0,0,1
412204917,412204900,1114122,3.761517,3.5676985,-5.8863435,52.25,0,0,0,0,1
412307482,412307467,1114122,3.7040894,3.2590244,-5.8432727,52.125,0,0,0,0,1
412406523,412406508,1114122,3.7399817,3.2949166,-5.9294143,52.125,0,0,0,0,1
412503085,412503070,1114122,3.8404803,3.3954153,-5.7355957,52.25,0,0,0,0,1
412705333,412705311,1114122,3.976871,3.2590244,-5.8289156,52.25,0,0,0,0,1
412807863,412807848,1114122,3.56052,3.3092737,-5.958128,52.25,0,0,0,0,1
412905483,412905465,1114122,3.9625142,3.345166,-6.13759,52.125,0,0,0,0,1
413005574,413005556,1114122,3.8835511,3.3882368,-5.9653068,52.125,0,0,0,0,1
413106839,413106824,1114122,3.8117664,3.3523445,-5.85763,52.25,0,0,0,0,1
413204531,413204516,1114122,3.7974093,3.5030923,-5.757131,52.25,0,0,0,0,1
413306338,413306323,1114122,3.9984064,3.2159536,-5.972485,52.25,0,0,0,0,1
413407145,413407127,1114122,3.869194,3.316452,-6.015556,52.125,0,0,0,0,1
413503738,413503723,1114122,3.7974093,3.424129,-5.893522,52.25,0,0,0,0,1
413606669,413606646,1114122,3.7543385,3.3092737,-5.8217373,52.125,0,0,0,0,1
413703647,413703631,1114122,4.0271206,3.1944182,-5.9653068,52.25,0,0,0,0,1
413806224,413806207,1114122,3.6251261,3.180061,-5.692525,52.125,0,0,0,0,1
413904835,413904820,1114122,3.897908,3.330809,-5.9437714,52.125,0,0,0,0,1
414003880,414003862,1114122,3.9338002,3.1441689,-5.570491,52.0,0,0,0,0,1
414106471,414106453,1114122,3.790231,3.5174491,-5.6135616,52.25,0,0,0,0,1
414201506,414201491,1114122,3.732803,3.3092737,-6.0514483,52.25,0,0,0,0,1
414306582,414306567,1114122,3.7040894,3.330809,-5.771488,52.25,0,0,0,0,1
414405685,414405670,1114122,3.9625142,3.3020952,-6.1591253,52.25,0,0,0,0,1
414505476,414505461,1114122,3.8548372,3.56052,-5.8289156,52.125,0,0,0,0,1
414606841,414606826,1114122,3.8620157,3.0795627,-6.1591253,52.125,0,0,0,0,1
414702018,414702003,1114122,3.8117664,3.3236306,-5.9007006,52.125,0,0,0,0,1
414807017,414807002,1114122,3.818945,3.2590244,-6.04427,52.25,0,0,0,0,1
414904624,414904609,1114122,4.084548,3.1226335,-6.04427,52.125,0,0,0,0,1
415007216,415007201,1114122,3.9122648,3.129812,-5.879165,52.25,0,0,0,0,1
415106043,415106024,1114122,3.668197,3.5030923,-6.23091,52.125,0,0,0,0,1
415202405,415202389,1114122,3.9984064,3.2949166,-6.0370913,52.0,0,0,0,0,1
415307462,415307446,1114122,4.0271206,3.3092737,-6.2380886,52.125,0,0,0,0,1
415402542,415402527,1114122,3.8045878,3.223132,-6.1663036,52.25,0,0,0,0,1
415507626,415507611,1114122,3.6251261,3.345166,-6.1016974,52.125,0,0,0,0,1
415605195,415605180,1114122,3.6251261,3.3882368,-6.0729837,52.125,0,0,0,0,1
415706678,415706663,1114122,3.8907294,3.3810582,-6.0514483,52.125,0,0,0,0,1
415806389,415806370,1114122,3.7399817,3.2446673,-5.6853466,52.25,0,0,0,0,1
416008020,416008002,1114122,3.6179478,3.2446673,-5.52742,52.125,0,0,0,0,1
416105637,416105622,1114122,3.6179478,3.3954153,-5.7140603,52.125,0,0,0,0,1
416308317,416308302,1114122,3.7112677,3.1513474,-5.757131,52.25,0,0,0,0,1
416403503,416403476,1114122,3.7112677,3.1585257,-5.907879,52.25,0,0,0,0,1
416508457,416508430,1114122,3.65384,3.2590244,-6.1016974,52.125,0,0,0,0,1
416708613,416708592,1114122,3.7399817,3.574877,-6.0658054,52.0,0,0,0,0,1
416806179,416806164,1114122,3.7686956,3.0795627,-6.151947,52.125,0,0,0,0,1
417008970,417008942,1114122,3.682554,3.3092737,-5.6566324,52.25,0,0,0,0,1
417105252,417105231,1114122,3.8261232,3.3523445,-5.9007006,52.125,0,0,0,0,1
417209053,417209038,1114122,3.732803,3.1513474,-5.6566324,52.125,0,0,0,0,1
417304087,417304071,1114122,3.869194,3.223132,-5.6279187,52.125,0,0,0,0,1
417406669,417406654,1114122,3.775874,3.0652058,-6.123233,52.125,0,0,0,0,1
417504284,417504269,1114122,3.9122648,3.115455,-5.864808,52.0,0,0,0,0,1
417601885,417601870,1114122,3.6753755,3.3523445,-6.1160545,52.25,0,0,0,0,1
417706900,417706883,1114122,3.761517,3.3667014,-5.7140603,52.125,0,0,0,0,1
417804449,417804434,1114122,3.869194,3.2303104,-5.9437714,52.125,0,0,0,0,1
417907061,417907043,1114122,3.6251261,3.129812,-5.922236,52.125,0,0,0,0,1
418007185,418007170,1114122,4.084548,3.2159536,-6.029913,52.125,0,0,0,0,1
418102355,418102330,1114122,3.7543385,3.345166,-5.864808,52.125,0,0,0,0,1
418207306,418207288,1114122,3.9840496,3.4097722,-5.8719864,52.25,0,0,0,0,1
418304842,418304827,1114122,3.9409788,3.223132,-5.642276,52.125,0,0,0,0,1
418407485,418407470,1114122,3.8404803,3.452843,-5.785845,52.0,0,0,0,0,1
418505055,418505037,1114122,3.8333018,3.1657043,-5.771488,52.125,0,0,0,0,1
418602691,418602676,1114122,3.6466615,3.3810582,-5.584848,52.125,0,0,0,0,1
418706530,418706515,1114122,3.8045878,3.3810582,-6.04427,52.25,0,0,0,0,1
418804157,418804134,1114122,4.091727,3.115455,-6.0729837,52.0,0,0,0,0,1
418905985,418905970,1114122,3.926622,3.4169507,-6.0729837,52.125,0,0,0,0,1
419005468,419005452,1114122,3.7974093,3.1728828,-5.706882,52.125,0,0,0,0,1
419103000,419102985,1114122,3.7686956,3.2015965,-6.108876,52.0,0,0,0,0,1
419206285,419206270,1114122,3.7686956,3.2733812,-5.800202,52.125,0,0,0,0,1
419305705,419305687,1114122,3.7974093,3.5389845,-5.742774,52.125,0,0,0,0,1
419403688,419403673,1114122,3.926622,3.1872396,-5.800202,52.125,0,0,0,0,1
419506585,419506570,1114122,3.8548372,3.0293133,-5.879165,52.25,0,0,0,0,1
419605958,419605943,1114122,3.6969109,3.1513474,-5.771488,52.125,0,0,0,0,1
419707135,419707120,1114122,3.869194,3.2518458,-5.9796634,52.125,0,0,0,0,1
419806121,419806105,1114122,3.7112677,3.1944182,-5.8360944,52.0,0,0,0,0,1
419906188,419906170,1114122,3.7686956,3.3667014,-5.9007006,52.125,0,0,0,0,1
420007481,420007466,1114122,3.7543385,3.424129,-5.9437714,52.25,0,0,0,0,1
420105107,420105082,1114122,3.7830524,3.2662027,-5.8432727,52.125,0,0,0,0,1
420206938,420206920,1114122,3.9696927,3.3236306,-6.1806607,52.125,0,0,0,0,1
420307741,420307726,1114122,3.9338002,3.1226335,-5.9007006,52.25,0,0,0,0,1
420398042,420398027,1114122,3.7256248,3.2518458,-5.814559,52.25,0,0,0,0,1
420506708,420506692,1114122,3.5964124,3.237489,-5.6566324,52.125,0,0,0,0,1
420601770,420601751,1114122,3.9840496,3.237489,-5.972485,52.25,0,0,0,0,1
420706849,420706831,1114122,3.8548372,3.452843,-5.649454,52.0,0,0,0,0,1
420805475,420805460,1114122,3.5964124,3.3092737,-5.7140603,52.0,0,0,0,0,1
420900987,420900972,1114122,3.8261232,3.2733812,-5.9509497,52.125,0,0,0,0,1
421007096,421007078,1114122,3.6107693,3.1944182,-6.087341,52.125,0,0,0,0,1
421102125,421102110,1114122,3.7112677,3.115455,-5.8863435,52.125,0,0,0,0,1
421207211,421207196,1114122,3.7543385,3.5174491,-5.986842,52.125,0,0,0,0,1
421306285,421306270,1114122,3.7256248,3.5964124,-5.85763,52.125,0,0,0,0,1
421405097,421405082,1114122,4.199404,3.1944182,-6.1663036,52.125,0,0,0,0,1
421505027,421505012,1114122,3.8548372,2.993421,-5.9294143,52.125,0,0,0,0,1
421602716,421602691,1114122,3.8907294,3.438486,-6.0729837,52.0,0,0,0,0,1
421707650,421707635,1114122,3.761517,3.4959137,-6.1160545,52.125,0,0,0,0,1
421804006,421803980,1114122,3.9409788,3.330809,-6.087341,52.0,0,0,0,0,1
421905882,421905867,1114122,3.8117664,3.4313076,-5.8217373,52.125,0,0,0,0,1
422007903,422007885,1114122,3.8117664,3.4456644,-5.8432727,52.0,0,0,0,0,1
422102945,422102930,1114122,3.7112677,3.180061,-5.757131,52.125,0,0,0,0,1
422206135,422206120,1114122,3.7184463,3.180061,-5.814559,52.125,0,0,0,0,1
422305608,422305593,1114122,4.0558343,3.37388,-5.9437714,52.0,0,0,0,0,1
422408229,422408212,1114122,3.7543385,3.2518458,-5.915057,52.25,0,0,0,0,1
422506473,422506458,1114122,3.7112677,3.0939195,-6.04427,52.0,0,0,0,0,1
422603496,422603474,1114122,3.732803,3.2518458,-5.678168,52.0,0,0,0,0,1
422708523,422708508,1114122,3.6251261,3.316452,-6.04427,52.125,0,0,0,0,1
422804653,422804631,1114122,3.790231,3.1082766,-5.7284174,52.125,0,0,0,0,1
422906111,422906096,1114122,3.9984064,3.3523445,-5.9007006,52.125,0,0,0,0,1
423007285,423007270,1114122,3.9481573,3.330809,-5.907879,51.875,0,0,0,0,1
423101265,423101250,1114122,3.5820553,3.5389845,-5.922236,52.125,0,0,0,0,1
423207853,423207831,1114122,3.9409788,3.3882368,-5.9437714,52.125,0,0,0,0,1
423306556,423306541,1114122,3.682554,3.452843,-5.785845,52.125,0,0,0,0,1
423406549,423406531,1114122,3.9122648,3.1944182,-6.0586267,52.125,0,0,0,0,1
423506587,423506572,1114122,3.7112677,3.2805598,-5.7140603,52.0,0,0,0,0,1
423601876,423601828,1114122,3.790231,3.1728828,-6.001199,52.125,0,0,0,0,1
423706800,423706782,1114122,3.7830524,3.2877383,-6.2668023,52.0,0,0,0,0,1
423803185,423803170,1114122,3.9840496,3.424129,-6.0370913,52.125,0,0,0,0,1
423906971,423906956,1114122,4.199404,2.9359932,-6.769295,52.0,0,0,0,0,1
424005837,424005822,1114122,3.546163,3.330809,-5.85763,52.0,0,0,0,0,1
424107077,424107062,1114122,3.8404803,3.1657043,-5.9653068,52.0,0,0,0,0,1
424205339,424205323,1114122,3.9409788,2.9359932,-5.8719864,52.125,0,0,0,0,1
424302326,424302304,1114122,3.4169507,3.022135,-5.958128,52.0,0,0,0,0,1
424407336,424407321,1114122,3.991228,3.37388,-5.2402816,52.125,0,0,0,0,1
424504939,424504921,1114122,3.481557,3.5964124,-6.0083776,52.0,0,0,0,0,1
424603291,424603276,1114122,3.7974093,3.2949166,-6.769295,52.125,0,0,0,0,1
424707648,424707633,1114122,4.1635113,3.5389845,-5.8217373,52.125,0,0,0,0,1
424803838,424803823,1114122,3.9840496,3.5676985,-5.5130634,52.125,0,0,0,0,1
424906741,424906726,1114122,4.113262,3.007778,-5.584848,52.125,0,0,0,0,1
425006489,425006473,1114122,5.046463,2.6344976,-8.327023,52.125,0,0,0,0,1
425103092,425103070,1114122,4.1204405,4.328616,-4.156333,52.125,0,0,0,0,1
425205985,425205970,1114122,4.465007,2.7565317,-5.9653068,52.0,0,0,0,0,1
425305582,425305567,1114122,3.9338002,2.3401804,-5.4843493,52.0,0,0,0,0,1
425408179,425408162,1114122,5.4125648,3.481557,-6.431907,52.0,0,0,0,0,1
425505723,425505708,1114122,4.63729,4.407579,-5.032106,52.0,0,0,0,0,1
425605817,425605802,1114122,4.206582,1.8592231,-6.582655,52.125,0,0,0,0,1
425705936,425705921,1114122,5.032106,4.0630126,-3.8476586,52.0,0,0,0,0,1
425803529,425803514,1114122,4.8957148,2.5986054,-6.1016974,52.0,0,0,0,0,1
425907405,425907382,1114122,5.089534,2.0027926,-7.2861447,52.0,0,0,0,0,1
426006264,426006241,1114122,5.146961,2.6919253,-4.005585,52.0,0,0,0,0,1
426106231,426106216,1114122,4.788038,3.56052,-6.7334027,52.0,0,0,0,0,1
426206281,426206266,1114122,5.017749,3.7543385,-5.0105705,52.125,0,0,0,0,1
426301418,426301403,1114122,6.2380886,3.7543385,-6.9343996,52.0,0,0,0,0,1
426406457,426406442,1114122,5.24746,3.6107693,-4.4578285,52.0,0,0,0,0,1
426504178,426504150,1114122,5.907879,2.3617158,-6.13759,52.0,0,0,0,0,1
426604585,426604570,1114122,6.2811594,2.8354948,-7.5014987,52.0,0,0,0,0,1
426804440,426804415,1114122,8.750552,3.7112677,-1.4500505,52.0,0,0,0,0,1
426906870,426906855,1114122,6.812366,2.5268207,-7.020541,52.125,0,0,0,0,1
427005685,427005670,1114122,7.7240314,2.4765713,-3.101098,51.875,0,0,0,0,1
427103385,427103359,1114122,6.2883377,5.5202417,-4.644469,52.0,0,0,0,0,1
427207094,427207079,1114122,9.131011,3.0293133,-2.4622145,52.0,0,0,0,0,1
427304668,427304653,1114122,6.2380886,4.2783666,-5.7786665,52.0,0,0,0,0,1
427407836,427407821,1114122,7.6163545,2.778067,-8.958728,52.0,0,0,0,0,1
427507337,427507322,1114122,8.398808,-0.4881358,-5.6063833,52.0,0,0,0,0,1
427602565,427602541,1114122,9.145368,2.1966112,-4.0630126,51.875,0,0,0,0,1
427707660,427707635,1114122,7.810173,2.2468605,-9.762716,52.0,0,0,0,0,1
427802731,427802707,1114122,8.140383,3.8907294,-5.599205,51.875,0,0,0,0,1
427907748,427907733,1114122,8.829515,1.9453647,-8.420342,52.125,0,0,0,0,1
428005400,428005371,1114122,8.606983,3.9696927,-3.4313076,51.875,0,0,0,0,1
428102917,428102883,1114122,7.645068,3.8835511,-6.7262244,51.875,0,0,0,0,1
428207941,428207926,1114122,7.472785,2.2899313,-14.091332,52.0,0,0,0,0,1
428305515,428305500,1114122,8.484949,2.6919253,-8.535198,52.0,0,0,0,0,1
428408032,428408017,1114122,7.3794646,1.3567303,-14.636895,51.875,0,0,0,0,1
428508231,428508205,1114122,7.1282187,4.407579,-12.799208,52.0,0,0,0,0,1
428603326,428603304,1114122,6.920043,4.421936,-6.1160545,51.875,0,0,0,0,1
428708284,428708269,1114122,7.960921,3.2159536,-8.571091,51.875,0,0,0,0,1
428805906,428805890,1114122,7.2717876,1.5864414,-10.135997,52.0,0,0,0,0,1
428906185,428906170,1114122,6.8697934,3.9050865,-6.2883377,52.0,0,0,0,0,1
429006988,429006973,1114122,8.190632,3.0652058,-8.370093,52.0,0,0,0,0,1
429106121,429106103,1114122,6.2237315,5.1828537,-9.0951185,51.875,0,0,0,0,1
429208696,429208678,1114122,6.9918275,4.019942,-2.0458634,51.875,0,0,0,0,1
429307288,429307273,1114122,6.080162,2.024328,-10.77488,51.875,0,0,0,0,1
429413841,429413826,1114122,7.300502,4.328616,-3.775874,51.875,0,0,0,0,1
429506426,429506408,1114122,6.8985076,3.452843,-4.019942,51.875,0,0,0,0,1
429604078,429604056,1114122,6.3816576,2.4119651,-7.8245296,52.0,0,0,0,0,1
429706723,429706701,1114122,5.6853466,2.993421,-4.019942,51.75,0,0,0,0,1
429804161,429804146,1114122,5.0608196,1.3854443,-10.207781,51.875,0,0,0,0,1
430006817,430006802,1114122,5.477171,4.141976,-5.864808,51.875,0,0,0,0,1
430103185,430103170,1114122,5.972485,4.9028935,-3.7830524,51.875,0,0,0,0,1
430205081,430205058,1114122,6.9918275,3.3092737,-2.9431717,51.75,0,0,0,0,1
430305868,430305852,1114122,5.5489554,1.2346964,-9.554541,51.75,0,0,0,0,1
430403491,430403473,1114122,6.3816576,2.8139594,-7.0061846,51.875,0,0,0,0,1
430507257,430507234,1114122,6.302695,3.2518458,-2.6991038,51.875,0,0,0,0,1
430604771,430604756,1114122,5.139783,4.2855453,-2.684747,51.75,0,0,0,0,1
430707322,430707307,1114122,6.798009,4.235296,-1.4213367,51.75,0,0,0,0,1
430805639,430805624,1114122,5.218746,4.7665024,-3.3523445,51.75,0,0,0,0,1
430902481,430902463,1114122,5.864808,3.1082766,-2.993421,51.625,0,0,0,0,1
431007580,431007565,1114122,5.1756754,1.6151552,-4.788038,51.875,0,0,0,0,1
431103835,431103820,1114122,6.195018,1.227518,-5.7355957,51.75,0,0,0,0,1
431203585,431203570,1114122,6.0083776,4.3429728,-4.249653,51.625,0,0,0,0,1
431307962,431307940,1114122,5.4843493,3.3882368,-2.3688943,51.625,0,0,0,0,1
431404164,431404142,1114122,5.3479586,4.0773697,-2.426322,51.625,0,0,0,0,1
431505993,431505978,1114122,6.582655,5.3192444,0.89730847,51.75,0,0,0,0,1
431606790,431606775,1114122,5.8217373,2.627319,-6.7118673,51.875,0,0,0,0,1
431706539,431706524,1114122,5.3910294,4.54397,-5.2259245,51.75,0,0,0,0,1
431806288,431806271,1114122,6.6975102,1.68694,-4.0701914,51.625,0,0,0,0,1
431903350,431903327,1114122,5.972485,2.2899313,-4.536792,51.75,0,0,0,0,1
432008463,432008422,1114122,5.7786665,4.0558343,-4.465007,51.625,0,0,0,0,1
432104485,432104470,1114122,5.635097,4.6301117,-2.4693928,51.5,0,0,0,0,1
432206368,432206353,1114122,5.5776696,1.5074782,-8.161918,51.75,0,0,0,0,1
432401074,432401059,1114122,5.663811,4.220939,-4.8885365,51.75,0,0,0,0,1
432606220,432606205,1114122,6.04427,1.9310079,-4.7234316,51.5,0,0,0,0,1
432706330,432706312,1114122,4.881358,5.448457,-2.4981067,51.5,0,0,0,0,1
432804838,432804823,1114122,5.032106,1.887937,-8.585447,51.625,0,0,0,0,1
432904585,432904570,1114122,5.706882,4.328616,-1.7371892,51.625,0,0,0,0,1
433006571,433006556,1114122,5.462814,1.8233308,-6.675975,51.625,0,0,0,0,1
433103056,433103031,1114122,5.2259245,2.684747,-7.408179,51.5,0,0,0,0,1
433206712,433206697,1114122,5.678168,2.074577,-7.063612,51.625,0,0,0,0,1
433305685,433305670,1114122,5.0105705,4.3932223,-3.1441689,51.5,0,0,0,0,1
433403341,433403320,1114122,5.362315,4.0630126,-4.1778684,51.5,0,0,0,0,1
433506924,433506908,1114122,5.922236,3.6323047,-6.094519,51.625,0,0,0,0,1
433602062,433602047,1114122,6.4390855,2.979064,-7.566105,51.5,0,0,0,0,1
433707097,433707082,1114122,5.692525,3.9409788,-5.0105705,51.5,0,0,0,0,1
434007278,434007261,1114122,4.601398,5.1613183,-3.2446673,51.5,0,0,0,0,1
434102313,434102298,1114122,5.9940205,5.419743,-3.7471602,51.5,0,0,0,0,1
434207392,434207369,1114122,4.328616,3.4671998,-10.552347,51.375,0,0,0,0,1
434302508,434302493,1114122,5.4915276,3.7974093,-8.700303,51.5,0,0,0,0,1
434408188,434408170,1114122,4.9028935,3.7543385,-4.249653,51.375,0,0,0,0,1
434503735,434503720,1114122,5.369494,3.7974093,-3.345166,51.25,0,0,0,0,1
434605206,434605189,1114122,4.9531426,1.887937,-1.8233308,51.375,0,0,0,0,1
434707779,434707762,1114122,5.1756754,1.6151552,-4.2711883,51.25,0,0,0,0,1
434805360,434805344,1114122,4.536792,3.1082766,-0.43788654,51.375,0,0,0,0,1
434905423,434905399,1114122,5.0105705,2.0889342,-1.2490534,51.375,0,0,0,0,1
435006685,435006670,1114122,3.6969109,2.9216363,-1.442872,51.25,0,0,0,0,1
435105622,435105607,1114122,3.5030923,4.3429728,-3.9696927,51.25,0,0,0,0,1
435206185,435206170,1114122,4.2927237,4.2927237,-2.239682,51.25,0,0,0,0,1
435305657,435305642,1114122,4.4434714,1.9525433,-5.879165,51.25,0,0,0,0,1
435408835,435408820,1114122,4.0701914,2.7421746,-1.7946169,51.25,0,0,0,0,1
435504387,435504370,1114122,4.5798626,3.8476586,3.0939195,51.25,0,0,0,0,1
435708505,435708489,1114122,3.237489,2.318645,-2.1104696,51.25,0,0,0,0,1
435806053,435806035,1114122,2.9503503,5.261817,-6.1734824,51.125,0,0,0,0,1
435908650,435908635,1114122,3.3379874,3.8548372,-7.3794646,51.0,0,0,0,0,1
436007338,436007323,1114122,3.3379874,3.022135,-0.66041905,51.25,0,0,0,0,1
436103935,436103920,1114122,3.790231,2.4909282,-0.3948157,51.125,0,0,0,0,1
436208824,436208809,1114122,2.9862425,0.5742774,-9.468399,51.125,0,0,0,0,1
436306360,436306345,1114122,3.8261232,4.709075,0.32303104,51.125,0,0,0,0,1
436408978,436408960,1114122,3.4887352,3.7686956,-4.220939,51.25,0,0,0,0,1
436509106,436509086,1114122,3.330809,3.4959137,-6.783652,51.0,0,0,0,0,1
436601750,436601721,1114122,3.7112677,2.7421746,-14.888142,51.0,0,0,0,0,1
436706686,436706668,1114122,4.328616,3.9984064,-15.613167,51.125,0,0,0,0,1
436803235,436803220,1114122,3.6466615,5.3336015,-13.49552,51.125,0,0,0,0,1
436909462,436909447,1114122,3.9194434,3.0652058,-10.344172,51.0,0,0,0,0,1
437005885,437005870,1114122,3.976871,4.4434714,-10.444671,51.0,0,0,0,0,1
437104587,437104570,1114122,4.041477,2.8642087,-16.890934,51.125,0,0,0,0,1
437209595,437209580,1114122,3.8117664,4.529613,-14.493326,50.875,0,0,0,0,1
437304654,437304632,1114122,3.3092737,4.299902,-15.2686,51.0,0,0,0,0,1
437409745,437409723,1114122,4.680361,4.2855453,-19.281364,51.0,0,0,0,0,1
437505703,437505680,1114122,4.098905,3.2518458,-12.433106,51.0,0,0,0,0,1
437604760,437604745,1114122,3.5820553,5.448457,-3.6179478,50.875,0,0,0,0,1
437709946,437709930,1114122,3.2159536,5.362315,-7.1569324,50.875,0,0,0,0,1
437806011,437805988,1114122,3.4169507,3.9481573,-0.2009971,50.875,0,0,0,0,1
437910150,437910125,1114122,3.0939195,1.9597217,-1.8951155,50.875,0,0,0,0,1
438007610,438007595,1114122,3.7830524,1.8951155,-5.448457,50.875,0,0,0,0,1
438105127,438105112,1114122,3.65384,5.2402816,0.021535404,50.875,0,0,0,0,1
438206035,438206020,1114122,3.546163,5.362315,-3.2446673,50.75,0,0,0,0,1
438307758,438307743,1114122,3.531806,2.9862425,-1.3136595,50.75,0,0,0,0,1
438407832,438407817,1114122,3.3236306,2.8067808,-0.25842485,50.625,0,0,0,0,1
438505432,438505417,1114122,4.235296,4.1347976,-2.426322,50.875,0,0,0,0,1
438605508,438605493,1114122,3.1944182,4.436293,-1.4787643,50.875,0,0,0,0,1
438710571,438710555,1114122,4.1635113,3.1944182,-4.701896,50.75,0,0,0,0,1
438804535,438804520,1114122,4.465007,2.8283162,-3.2446673,50.625,0,0,0,0,1
438908183,438908168,1114122,3.424129,5.771488,-3.1226335,50.75,0,0,0,0,1
439010911,439010892,1114122,3.0795627,2.3545375,-5.039284,50.75,0,0,0,0,1
439105886,439105870,1114122,3.8261232,2.9718857,-0.17228323,50.75,0,0,0,0,1
439206685,439206670,1114122,3.6610186,3.316452,-4.5511484,50.75,0,0,0,0,1
439303486,439303471,1114122,4.0630126,3.8404803,-7.982456,50.625,0,0,0,0,1
439411480,439411465,1114122,3.9409788,1.3710873,-5.958128,50.625,0,0,0,0,1
439511087,439511072,1114122,3.5030923,3.2015965,-11.284552,50.75,0,0,0,0,1
439603680,439603665,1114122,3.4743783,3.4097722,-11.19841,50.5,0,0,0,0,1
439711762,439711747,1114122,2.9359932,3.9409788,-7.996813,50.5,0,0,0,0,1
439811335,439811319,1114122,2.5842483,5.003392,-11.069198,50.375,0,0,0,0,1
439906364,439906346,1114122,2.548356,4.4147577,-6.862615,50.375,0,0,0,0,1
440007835,440007820,1114122,2.4909282,0.6173482,-8.082954,50.375,0,0,0,0,1
440107603,440107581,1114122,0.69631135,4.9028935,-5.0679984,50.5,0,0,0,0,1
440206695,440206670,1114122,-0.2943172,3.7112677,-3.0005994,50.5,0,0,0,0,1
440304985,440304970,1114122,-0.6173482,3.8261232,-4.249653,50.5,0,0,0,0,1
440404735,440404720,1114122,-1.1413764,3.976871,-0.92602235,50.5,0,0,0,0,1
440506785,440506770,1114122,-0.6675975,2.8642087,-2.57707,50.375,0,0,0,0,1
440603185,440603170,1114122,-0.43070805,2.6201408,-3.7040894,50.375,0,0,0,0,1
440706850,440706835,1114122,0.33738798,2.656033,-8.599804,50.375,0,0,0,0,1
440805881,440805866,1114122,-1.0624132,3.1944182,-2.3545375,50.5,0,0,0,0,1
440902047,440902032,1114122,-0.45942193,4.1204405,-0.66041905,50.375,0,0,0,0,1
441007048,441007033,1114122,-0.8398807,1.9597217,-2.871387,50.5,0,0,0,0,1
441106138,441106120,1114122,-0.94037926,4.5224347,-2.2253249,50.5,0,0,0,0,1
441207222,441207204,1114122,-1.1844472,4.7306104,-0.8614161,50.25,0,0,0,0,1
441307246,441307230,1114122,0.23688944,3.9840496,-6.647261,50.25,0,0,0,0,1
441401228,441401210,1114122,-0.5455635,2.8067808,-8.398808,50.25,0,0,0,0,1
441507555,441507526,1114122,-0.021535404,2.8067808,-1.3495519,50.375,0,0,0,0,1
441602452,441602437,1114122,-0.31585258,1.9740787,-5.4125648,50.375,0,0,0,0,1
441705688,441705672,1114122,0.22971097,3.7040894,-7.4225354,50.25,0,0,0,0,1
441806488,441806470,1114122,-0.38763726,2.3401804,-4.9316072,50.125,0,0,0,0,1
441902687,441902670,1114122,0.15792629,2.0386848,-3.3954153,50.25,0,0,0,0,1
442007741,442007726,1114122,-0.3948157,3.3882368,-4.594219,50.25,0,0,0,0,1
442106785,442106770,1114122,2.4909282,3.4313076,-4.2927237,50.125,0,0,0,0,1
442207886,442207868,1114122,3.4743783,2.5411775,-6.410372,50.25,0,0,0,0,1
442311535,442311520,1114122,4.1778684,3.6179478,-8.987442,50.0,0,0,0,0,1
442409185,442409170,1114122,4.249653,0.34456646,-7.874779,50.125,0,0,0,0,1
442508083,442508065,1114122,4.4578285,1.0193424,-3.5389845,50.125,0,0,0,0,1
442605648,442605626,1114122,4.7808595,0.0071784677,-4.493721,50.125,0,0,0,0,1
442713688,442713673,1114122,4.63729,-0.17946169,-7.2646093,50.125,0,0,0,0,1
442807135,442807120,1114122,4.421936,-0.2871387,-7.092326,50.125,0,0,0,0,1
442903382,442903365,1114122,4.407579,0.33020952,-15.139388,50.25,0,0,0,0,1
443013986,443013971,1114122,4.091727,3.180061,-5.096712,50.125,0,0,0,0,1
443107500,443107478,1114122,4.7952166,1.5290136,-6.015556,50.0,0,0,0,0,1
443203596,443203581,1114122,4.809573,1.012164,-12.397214,50.0,0,0,0,0,1
443308587,443308572,1114122,4.4004006,1.4787643,-14.593824,50.0,0,0,0,0,1
443406191,443406176,1114122,4.5152564,3.223132,-14.069797,50.0,0,0,0,0,1
443508742,443508723,1114122,4.220939,4.9316072,-14.414363,50.0,0,0,0,0,1
443607281,443607266,1114122,4.206582,3.438486,-11.413764,49.875,0,0,0,0,1
443711409,443711393,1114122,4.867001,3.5102706,-11.794223,50.0,0,0,0,0,1
443814002,443813975,1114122,4.4721856,4.0127635,-19.001404,50.0,0,0,0,0,1
443906543,443906528,1114122,4.3214374,3.6035907,-12.023933,50.0,0,0,0,0,1
444006560,444006542,1114122,5.125426,0.96191466,-20.51606,50.0,0,0,0,0,1
444106598,444106573,1114122,4.63729,0.6173482,-17.38625,49.875,0,0,0,0,1
444201669,444201654,1114122,4.486542,1.5074782,-18.305092,50.0,0,0,0,0,1
444306902,444306870,1114122,3.3810582,4.156333,-14.155938,49.875,0,0,0,0,1
444404328,444404313,1114122,4.587041,5.419743,-20.889341,49.875,0,0,0,0,1
444506832,444506817,1114122,3.1944182,1.1270194,-8.463413,49.75,0,0,0,0,1
444605821,444605783,1114122,4.3501515,2.024328,-11.650653,49.875,0,0,0,0,1
444703479,444703463,1114122,3.9984064,4.2927237,1.4069797,49.75,0,0,0,0,1
444807024,444807009,1114122,4.6157546,1.6079768,-4.9674997,49.75,0,0,0,0,1
444906088,444906073,1114122,4.127619,3.4743783,-16.07259,49.875,0,0,0,0,1
445004664,445004649,1114122,4.098905,5.692525,-5.706882,49.75,0,0,0,0,1
445107414,445107364,1114122,4.041477,4.2855453,-7.738388,49.75,0,0,0,0,1
445204817,445204799,1114122,4.149154,2.9359932,-1.6941184,49.75,0,0,0,0,1
445307417,445307402,1114122,4.407579,5.9294143,2.103291,49.75,0,0,0,0,1
445404947,445404929,1114122,3.574877,1.1629118,-6.7621164,49.625,0,0,0,0,1
445507493,445507478,1114122,3.3236306,3.7256248,-9.0951185,49.75,0,0,0,0,1
445607649,445607634,1114122,4.4578285,1.3280165,-7.350751,49.625,0,0,0,0,1
445704095,445704080,1114122,4.8311086,3.3595228,-4.5511484,49.625,0,0,0,0,1
445807660,445807645,1114122,2.993421,2.5698915,-5.7140603,49.625,0,0,0,0,1
445906753,445906731,1114122,4.35733,4.91725,-3.4025936,49.625,0,0,0,0,1
446005312,446005297,1114122,3.6969109,2.993421,3.1728828,49.375,0,0,0,0,1
446106239,446106220,1114122,3.5246277,4.572684,4.493721,49.625,0,0,0,0,1
446203061,446203037,1114122,4.7665024,2.7062824,-3.9625142,49.5,0,0,0,0,1
446306812,446306797,1114122,4.0271206,2.684747,-2.0673988,49.375,0,0,0,0,1
446405589,446405573,1114122,3.2518458,2.734996,-5.541777,49.375,0,0,0,0,1
446505657,446505642,1114122,3.5964124,5.7212386,-8.420342,49.375,0,0,0,0,1
446607109,446607094,1114122,4.8311086,1.4069797,-5.7140603,49.625,0,0,0,0,1
446704735,446704720,1114122,4.2783666,1.0193424,-6.6185474,49.5,0,0,0,0,1
446806647,446806632,1114122,4.3429728,3.7830524,-9.396614,49.5,0,0,0,0,1
446905892,446905874,1114122,4.1060834,1.8233308,-11.973684,49.5,0,0,0,0,1
447005921,447005906,1114122,4.113262,3.180061,-6.963114,49.375,0,0,0,0,1
447106032,447106017,1114122,3.9696927,4.989035,-8.348557,49.25,0,0,0,0,1
447202487,447202465,1114122,3.3954153,4.1347976,-7.8029943,49.375,0,0,0,0,1
447306115,447306100,1114122,3.8548372,1.9094725,-5.3336015,49.25,0,0,0,0,1
447406205,447406187,1114122,3.1585257,3.5892339,-6.7764735,49.375,0,0,0,0,1
447502735,447502720,1114122,2.9216363,3.8404803,-6.518049,49.25,0,0,0,0,1
447606292,447606277,1114122,3.8045878,2.8929224,-6.144768,49.375,0,0,0,0,1
447705430,447705398,1114122,3.345166,4.6301117,-7.12104,49.125,0,0,0,0,1
447806458,447806440,1114122,3.5174491,1.335195,-9.396614,49.125,0,0,0,0,1
447906516,447906499,1114122,3.790231,3.4743783,-4.924429,49.125,0,0,0,0,1
448004067,448004049,1114122,3.424129,3.8117664,-3.6394832,49.125,0,0,0,0,1
448106714,448106699,1114122,3.7471602,1.536192,-8.650054,49.125,0,0,0,0,1
448205185,448205170,1114122,3.330809,1.9812571,-5.462814,49.125,0,0,0,0,1
448304257,448304240,1114122,2.6991038,4.5511484,-5.254638,49.25,0,0,0,0,1
448406842,448406827,1114122,3.9553356,1.8951155,-6.6544394,49.0,0,0,0,0,1
448504470,448504455,1114122,3.2662027,1.6366906,-7.566105,49.125,0,0,0,0,1
448606945,448606927,1114122,2.8785655,3.9840496,-7.4799633,49.125,0,0,0,0,1
448706990,448706975,1114122,2.928815,1.887937,-8.743374,49.0,0,0,0,0,1
448804530,448804515,1114122,3.3954153,2.0602202,-6.3457656,49.0,0,0,0,0,1
448907126,448907108,1114122,3.0795627,3.316452,-7.2215385,49.0,0,0,0,0,1
449007147,449007132,1114122,3.4097722,1.5074782,-8.520842,49.125,0,0,0,0,1
449102230,449102215,1114122,2.9503503,3.438486,-9.454042,49.0,0,0,0,0,1
449207293,449207278,1114122,2.885744,3.7830524,-9.109475,49.125,0,0,0,0,1
449304880,449304865,1114122,3.1657043,3.2446673,-8.6141615,49.0,0,0,0,0,1
449507630,449507605,1114122,3.37388,2.1894326,-10.423135,49.0,0,0,0,0,1
449603789,449603774,1114122,2.2325034,4.2711883,-11.083554,49.0,0,0,0,0,1
449707594,449707579,1114122,3.452843,4.6731825,-6.1016974,48.875,0,0,0,0,1
449807678,449807660,1114122,3.6610186,1.4141581,-3.732803,48.875,0,0,0,0,1
449902732,449902714,1114122,3.8404803,2.2037895,-11.557333,48.875,0,0,0,0,1
450005938,450005923,1114122,2.6057837,3.4959137,-4.9818563,48.875,0,0,0,0,1
450106739,450106723,1114122,2.519642,3.481557,-6.661618,49.0,0,0,0,0,1
450202905,450202887,1114122,2.9216363,4.1706896,-10.63131,48.875,0,0,0,0,1
450306245,450306229,1114122,2.5268207,5.6135616,-3.5174491,48.875,0,0,0,0,1
450407041,450407020,1114122,2.426322,2.2755742,-7.573283,48.75,0,0,0,0,1
450500734,450500712,1114122,2.562713,3.9481573,-7.5589266,48.875,0,0,0,0,1
450608263,450608241,1114122,3.2446673,1.1844472,-12.296715,48.875,0,0,0,0,1
450708172,450708157,1114122,3.0652058,3.7830524,-2.4047866,48.75,0,0,0,0,1
450908353,450908338,1114122,2.2540388,1.9310079,-5.9294143,48.625,0,0,0,0,1
451005898,451005880,1114122,2.4765713,2.0315063,-4.3357944,48.625,0,0,0,0,1
451105960,451105941,1114122,2.5339992,3.8835511,-10.990234,48.625,0,0,0,0,1
451208523,451208507,1114122,3.072384,2.4981067,-4.4578285,48.5,0,0,0,0,1
451306082,451306066,1114122,2.6632116,3.316452,-3.3882368,48.5,0,0,0,0,1
451406684,451406669,1114122,1.9884355,4.0558343,-8.405986,48.625,0,0,0,0,1
451508694,451508676,1114122,2.4909282,4.694718,-4.084548,48.625,0,0,0,0,1
451605087,451605072,1114122,2.4478574,2.993421,-0.021535404,48.625,0,0,0,0,1
451708804,451708786,1114122,2.103291,2.0315063,-2.3832512,48.5,0,0,0,0,1
451807738,451807721,1114122,3.531806,4.529613,-3.56052,48.625,0,0,0,0,1
451907491,451907476,1114122,2.440679,3.6897323,-7.889136,48.5,0,0,0,0,1
452106513,452106498,1114122,2.548356,3.3954153,-2.347359,48.5,0,0,0,0,1
452206570,452206555,1114122,2.562713,4.9674997,-7.738388,48.5,0,0,0,0,1
452305470,452305455,1114122,2.2540388,2.8929224,-6.245267,48.375,0,0,0,0,1
452403088,452403070,1114122,2.9072795,1.765903,-6.912864,48.375,0,0,0,0,1
452509291,452509275,1114122,2.9359932,2.4119651,-7.149754,48.375,0,0,0,0,1
452607838,452607820,1114122,2.1463618,4.26401,-5.218746,48.375,0,0,0,0,1
452706892,452706874,1114122,2.2755742,3.5820553,-8.348557,48.375,0,0,0,0,1
452806945,452806930,1114122,2.2181466,1.6510476,-6.259624,48.25,0,0,0,0,1
452907085,452907070,1114122,2.6129622,4.5655055,-2.0530417,48.25,0,0,0,0,1
453005785,453005770,1114122,2.268396,4.314259,-4.9459643,48.375,0,0,0,0,1
453105535,453105520,1114122,2.6775684,3.37388,-7.8388867,48.375,0,0,0,0,1
453207391,453207370,1114122,2.562713,4.1204405,-4.113262,48.25,0,0,0,0,1
453308188,453308173,1114122,2.1248264,1.335195,-10.839486,48.375,0,0,0,0,1
453405880,453405865,1114122,2.2755742,1.2777673,-7.357929,48.375,0,0,0,0,1
453507322,453507307,1114122,2.7708886,3.316452,-3.0580273,48.125,0,0,0,0,1
453608487,453608472,1114122,3.1944182,2.117648,-8.126025,48.125,0,0,0,0,1
453707490,453707475,1114122,2.6344976,1.9453647,-5.1828537,48.25,0,0,0,0,1
453907567,453907552,1114122,3.0436704,3.2949166,-7.982456,48.125,0,0,0,0,1
454005113,454005098,1114122,2.2827528,3.7543385,-9.934999,48.125,0,0,0,0,1
454107683,454107668,1114122,2.778067,3.1657043,-2.8139594,48.0,0,0,0,0,1
454209085,454209070,1114122,2.6057837,1.1413764,-6.202196,48.125,0,0,0,0,1
454310354,454310339,1114122,2.9359932,4.5798626,-2.7852454,48.125,0,0,0,0,1
454504135,454504120,1114122,2.4119651,1.3639089,-5.757131,47.875,0,0,0,0,1
454609138,454609123,1114122,3.0508487,1.4069797,-6.403193,48.0,0,0,0,0,1
454710627,454710612,1114122,3.0436704,4.9316072,-4.3501515,47.875,0,0,0,0,1
454803083,454803068,1114122,3.3092737,2.928815,-8.2049885,48.125,0,0,0,0,1
454906285,454906270,1114122,2.3114667,4.2855453,-6.7764735,47.875,0,0,0,0,1
455009185,455009170,1114122,2.7062824,2.9072795,-3.5102706,47.875,0,0,0,0,1
455105920,455105888,1114122,2.7565317,1.4285151,-8.025527,48.0,0,0,0,0,1
455206588,455206570,1114122,3.129812,3.3595228,-1.213161,47.875,0,0,0,0,1
455305899,455305881,1114122,2.1894326,3.9625142,-4.9028935,48.0,0,0,0,0,1
455410964,455410946,1114122,2.5986054,4.960321,-5.9365926,48.0,0,0,0,0,1
455510985,455510970,1114122,3.180061,3.8333018,-8.99462,47.75,0,0,0,0,1
455602484,455602467,1114122,3.3092737,4.091727,-10.380064,47.875,0,0,0,0,1
455711166,455711151,1114122,3.180061,0.63888365,-7.860422,47.875,0,0,0,0,1
455811252,455811221,1114122,2.9718857,4.465007,-1.7946169,47.875,0,0,0,0,1
455902741,455902720,1114122,2.9072795,3.8907294,-4.924429,47.75,0,0,0,0,1
456006252,456006237,1114122,1.9166509,3.9840496,-5.0608196,47.75,0,0,0,0,1
456108855,456108837,1114122,2.8929224,2.6991038,-3.6466615,47.625,0,0,0,0,1
456209340,456209325,1114122,2.5339992,1.4715859,-5.111069,47.875,0,0,0,0,1
456304888,456304870,1114122,2.3688943,2.426322,-3.7184463,47.875,0,0,0,0,1
456404099,456404084,1114122,2.376073,0.61016977,-8.513662,47.75,0,0,0,0,1
456506578,456506561,1114122,2.656033,1.3710873,-6.6185474,47.625,0,0,0,0,1
456610480,456610465,1114122,2.3258235,4.7665024,-3.9194434,47.75,0,0,0,0,1
456708085,456708070,1114122,1.8520447,2.347359,-6.259624,47.75,0,0,0,0,1
456804685,456804670,1114122,2.2755742,5.2402816,-0.90448695,47.75,0,0,0,0,1
456906809,456906791,1114122,2.0889342,4.9316072,-4.26401,47.75,0,0,0,0,1
457009470,457009455,1114122,2.0530417,1.5290136,-7.4943204,47.625,0,0,0,0,1
457105004,457104982,1114122,2.0386848,4.156333,-7.6953173,47.375,0,0,0,0,1
457205785,457205770,1114122,2.6344976,1.3998013,-8.606983,47.5,0,0,0,0,1
457303489,457303474,1114122,2.8139594,2.0315063,-9.0951185,47.5,0,0,0,0,1
457412635,457412620,1114122,2.4622145,1.6151552,-14.392828,47.5,0,0,0,0,1
457509697,457509682,1114122,3.1513474,2.8642087,-14.3354,47.625,0,0,0,0,1
457599711,457599696,1114122,2.4909282,3.237489,-15.27578,47.5,0,0,0,0,1
457712284,457712265,1114122,2.8498516,3.0364919,-17.601603,47.5,0,0,0,0,1
457809823,457809807,1114122,3.4671998,0.33020952,-13.49552,47.5,0,0,0,0,1
457907366,457907348,1114122,2.8498516,1.3710873,-13.976477,47.5,0,0,0,0,1
458005885,458005870,1114122,3.2159536,3.3236306,-12.476177,47.5,0,0,0,0,1
458108785,458108770,1114122,3.6323047,4.256831,-22.590637,47.375,0,0,0,0,1
458212584,458212569,1114122,4.149154,4.5655055,-27.586851,47.5,0,0,0,0,1
458305135,458305120,1114122,3.5174491,0.95473623,-22.310678,47.25,0,0,0,0,1
458407643,458407625,1114122,2.6919253,0.9332008,-11.47837,47.25,0,0,0,0,1
458512705,458512687,1114122,3.0580273,1.4141581,-10.796415,47.375,0,0,0,0,1
458611735,458611720,1114122,4.709075,-1.6654046,-19.53979,47.375,0,0,0,0,1
458708338,458708323,1114122,2.8498516,1.9453647,3.2518458,47.25,0,0,0,0,1
458807829,458807814,1114122,2.3401804,6.195018,7.020541,47.25,0,0,0,0,1
458910392,458910367,1114122,2.3688943,4.2855453,-5.2115674,47.25,0,0,0,0,1
459105557,459105542,1114122,3.7830524,2.182254,-10.581061,47.125,0,0,0,0,1
459208148,459208133,1114122,3.56052,-0.3948157,-4.91725,47.375,0,0,0,0,1
459308133,459308118,1114122,2.3401804,3.1513474,-13.2514515,47.125,0,0,0,0,1
459404485,459404470,1114122,2.3401804,3.8045878,-4.436293,47.125,0,0,0,0,1
459513689,459513673,1114122,1.6295122,4.35733,-2.8139594,47.125,0,0,0,0,1
459607135,459607120,1114122,1.5002997,5.1756754,-4.2281175,47.25,0,0,0,0,1
459704787,459704770,1114122,1.7587246,5.972485,-1.0624132,47.0,0,0,0,0,1
459813397,459813373,1114122,1.6007982,4.601398,-4.141976,47.125,0,0,0,0,1
459911655,459911632,1114122,1.2705888,4.587041,-5.4412785,47.125,0,0,0,0,1
460003564,460003549,1114122,1.1629118,3.869194,-4.8885365,47.0,0,0,0,0,1
460108597,460108582,1114122,2.2181466,2.7996025,-1.0767702,47.125,0,0,0,0,1
460211935,460211920,1114122,1.9238293,0.8183453,-5.297709,47.125,0,0,0,0,1
460307526,460307511,1114122,1.5002997,3.9409788,-2.009971,47.125,0,0,0,0,1
460408747,460408729,1114122,2.0961125,4.0127635,-4.6085763,47.0,0,0,0,0,1
460506273,460506258,1114122,1.7156538,5.5489554,-2.1678972,47.0,0,0,0,0,1
460611990,460611972,1114122,1.3710873,3.9840496,-5.4843493,47.0,0,0,0,0,1
460708903,460708888,1114122,1.6151552,1.4141581,-3.6610186,47.0,0,0,0,0,1
460806485,460806470,1114122,1.3710873,0.5168497,0.021535404,47.0,0,0,0,0,1
460912288,460912273,1114122,0.8685946,2.6775684,-0.34456646,46.75,0,0,0,0,1
461006666,461006644,1114122,0.95473623,1.5433706,-5.3982077,47.0,0,0,0,0,1
461206732,461206717,1114122,0.997807,2.2037895,-5.5202417,47.0,0,0,0,0,1
461304245,461304228,1114122,0.5814559,2.7493532,-8.729016,46.875,0,0,0,0,1
461404268,461404253,1114122,0.6029913,1.9238293,-1.4141581,46.875,0,0,0,0,1
461506852,461506834,1114122,0.4235296,1.2849457,-10.451849,46.875,0,0,0,0,1
461604439,461604424,1114122,1.119841,2.3042881,-11.248659,46.875,0,0,0,0,1
461704504,461704489,1114122,0.15792629,4.7306104,-6.647261,46.875,0,0,0,0,1
461807051,461807036,1114122,1.1557333,2.9718857,-10.351351,46.75,0,0,0,0,1
461904608,461904593,1114122,1.227518,2.3042881,-3.6179478,46.75,0,0,0,0,1
462007195,462007180,1114122,0.25124636,1.7730815,-7.2861447,46.75,0,0,0,0,1
462107341,462107318,1114122,1.0265208,3.9840496,-13.72523,46.75,0,0,0,0,1
462204702,462204687,1114122,0.23688944,1.7300107,-13.976477,46.75,0,0,0,0,1
462307336,462307321,1114122,0.90448695,2.778067,-16.144373,46.75,0,0,0,0,1
462407337,462407319,1114122,2.0889342,2.132005,-15.017354,46.75,0,0,0,0,1
462502394,462502369,1114122,1.765903,1.5218352,-13.316057,46.75,0,0,0,0,1
462607616,462607594,1114122,1.6295122,2.2612174,-16.496119,46.625,0,0,0,0,1
462705080,462705065,1114122,0.8829515,2.9647071,-16.833508,46.625,0,0,0,0,1
462802560,462802543,1114122,1.7946169,2.0530417,-13.746766,46.5,0,0,0,0,1
462907760,462907738,1114122,1.9310079,2.2181466,-15.3188505,46.5,0,0,0,0,1
463005195,463005179,1114122,1.8376877,5.469992,-15.842878,46.5,0,0,0,0,1
463101535,463101520,1114122,1.3854443,4.666004,-16.180265,46.5,0,0,0,0,1
463207860,463207845,1114122,0.40917265,2.7493532,-7.2646093,46.625,0,0,0,0,1
463305345,463305330,1114122,0.10049855,3.4887352,-7.5302124,46.5,0,0,0,0,1
463402983,463402961,1114122,0.49531427,1.68694,-8.786445,46.5,0,0,0,0,1
463506885,463506870,1114122,0.5024927,2.455036,-5.125426,46.5,0,0,0,0,1
463605548,463605533,1114122,1.2346964,2.440679,-4.816752,46.5,0,0,0,0,1
463702995,463702980,1114122,1.0767702,3.4887352,-4.6731825,46.375,0,0,0,0,1
463805613,463805597,1114122,0.15074782,3.2590244,-4.6085763,46.5,0,0,0,0,1
463905630,463905615,1114122,1.1844472,3.546163,-3.8548372,46.375,0,0,0,0,1
464005709,464005691,1114122,1.2562319,3.8333018,-2.7493532,46.5,0,0,0,0,1
464106389,464106370,1114122,1.5864414,2.8283162,-3.0005994,46.5,0,0,0,0,1
464203302,464203287,1114122,1.2562319,0.98345006,-4.881358,46.5,0,0,0,0,1
464308408,464308374,1114122,0.9332008,1.1916256,-5.1326046,46.5,0,0,0,0,1
464406707,464406685,1114122,1.5936198,2.821138,-4.091727,46.375,0,0,0,0,1
464503479,464503461,1114122,1.1844472,3.8261232,-6.769295,46.5,0,0,0,0,1
464607266,464607251,1114122,1.658226,2.993421,-3.1728828,46.5,0,0,0,0,1
464706128,464706113,1114122,0.95473623,3.5820553,-7.365108,46.5,0,0,0,0,1
464906489,464906474,1114122,1.6510476,3.4025936,-6.7190456,46.375,0,0,0,0,1
465006246,465006228,1114122,2.318645,2.57707,-5.355137,46.25,0,0,0,0,1
465101308,465101293,1114122,1.6654046,3.5820553,-7.0348983,46.25,0,0,0,0,1
465206354,465206331,1114122,1.227518,2.376073,-8.003991,46.25,0,0,0,0,1
465306360,465306345,1114122,1.134198,4.701896,-4.249653,46.25,0,0,0,0,1
465403954,465403936,1114122,0.69631135,2.8785655,-9.425328,46.375,0,0,0,0,1
465506535,465506520,1114122,1.1844472,3.4959137,-11.263016,46.25,0,0,0,0,1
465604079,465604064,1114122,2.734996,2.8642087,-16.790436,46.25,0,0,0,0,1
465704488,465704470,1114122,2.2899313,2.4047866,-12.375678,46.125,0,0,0,0,1
465806681,465806665,1114122,1.8448662,1.5936198,-7.7240314,46.25,0,0,0,0,1
465904219,465904202,1114122,1.1270194,3.1513474,-3.5174491,46.25,0,0,0,0,1
466006756,466006741,1114122,1.134198,2.2755742,-4.680361,46.375,0,0,0,0,1
466106835,466106817,1114122,0.23688944,4.26401,3.1944182,46.25,0,0,0,0,1
466203235,466203220,1114122,1.0552348,3.8548372,-4.694718,46.125,0,0,0,0,1
466307047,466307026,1114122,1.4356935,2.928815,-3.897908,46.125,0,0,0,0,1
466405927,466405905,1114122,1.5002997,6.13759,-7.02772,46.125,0,0,0,0,1
466502037,466502019,1114122,1.7443676,1.550549,-10.387242,46.125,0,0,0,0,1
466607107,466607092,1114122,1.9238293,2.0673988,-13.430913,46.125,0,0,0,0,1
466707229,466707197,1114122,2.5842483,1.9381863,-21.104694,46.0,0,0,0,0,1
466802210,466802195,1114122,2.9216363,1.2203395,-24.772892,46.25,0,0,0,0,1
466907252,466907235,1114122,2.0171494,1.0049855,-13.093525,46.0,0,0,0,0,1
467004907,467004885,1114122,2.426322,3.1513474,-22.138395,46.125,0,0,0,0,1
467103086,467103071,1114122,2.5339992,5.1182475,-10.121639,46.0,0,0,0,0,1
467207547,467207522,1114122,1.9022939,6.582655,-12.361321,46.0,0,0,0,0,1
467305094,467305069,1114122,4.3860435,2.9718857,-17.946169,46.0,0,0,0,0,1
467405485,467405470,1114122,2.3832512,7.401,-15.864413,45.875,0,0,0,0,1
467507647,467507632,1114122,2.7565317,4.1778684,-9.949356,46.0,0,0,0,0,1
467602605,467602580,1114122,0.61016977,-1.2921242,-0.67477596,46.0,0,0,0,0,1
467707691,467707675,1114122,0.96191466,-2.1463618,-4.1706896,45.875,0,0,0,0,1
467807734,467807716,1114122,1.7228322,1.1629118,-4.1060834,45.875,0,0,0,0,1
467905280,467905263,1114122,0.5814559,3.7184463,-4.299902,45.875,0,0,0,0,1
468007852,468007836,1114122,1.3495519,4.9531426,-1.3064811,45.75,0,0,0,0,1
468108047,468108031,1114122,0.45942193,5.3192444,1.5002997,46.0,0,0,0,0,1
468205411,468205396,1114122,0.8111668,5.362315,-2.3832512,46.0,0,0,0,0,1
468305496,468305478,1114122,1.1844472,3.7543385,-5.592026,45.75,0,0,0,0,1
468408079,468408064,1114122,0.6675975,2.1535404,-3.1441689,45.75,0,0,0,0,1
468503106,468503087,1114122,0.997807,1.3423735,-5.785845,45.75,0,0,0,0,1
468606685,468606670,1114122,1.658226,1.6797614,-5.986842,45.875,0,0,0,0,1
468706473,468706458,1114122,0.8327023,1.7874385,-4.8454657,45.875,0,0,0,0,1
468807235,468807220,1114122,0.92602235,3.9840496,-2.6919253,45.875,0,0,0,0,1
468905769,468905754,1114122,0.23688944,5.592026,1.1916256,45.875,0,0,0,0,1
469008352,469008337,1114122,0.5240281,4.852644,-1.5936198,45.875,0,0,0,0,1
469106070,469106047,1114122,0.5312066,3.2015965,-1.227518,45.75,0,0,0,0,1
469205944,469205929,1114122,-0.043070808,2.4119651,-0.8255238,45.75,0,0,0,0,1
469306019,469306001,1114122,0.2943172,1.8664016,2.2971096,45.75,0,0,0,0,1
469403630,469403615,1114122,-0.45942193,0.8829515,6.912864,45.75,0,0,0,0,1
469508655,469508640,1114122,0.61016977,2.5698915,5.355137,45.625,0,0,0,0,1
469607335,469607320,1114122,0.6173482,3.007778,3.9840496,45.625,0,0,0,0,1
469703938,469703923,1114122,0.9116654,3.9122648,3.5820553,45.625,0,0,0,0,1
469808805,469808784,1114122,0.74656063,4.3429728,-2.3976083,45.75,0,0,0,0,1
469906373,469906358,1114122,1.4572289,5.24746,-10.107283,45.75,0,0,0,0,1
470005285,470005270,1114122,0.91884387,3.5964124,-8.176274,45.625,0,0,0,0,1
470107135,470107120,1114122,0.09332008,1.2490534,-2.885744,45.5,0,0,0,0,1
470206510,470206495,1114122,0.9116654,2.76371,-12.110075,45.625,0,0,0,0,1
470304535,470304520,1114122,3.0508487,1.887937,-16.984255,45.75,0,0,0,0,1
470406606,470406582,1114122,3.1082766,3.8907294,-20.343777,45.625,0,0,0,0,1
470504272,470504243,1114122,2.0458634,3.4959137,-14.234901,45.5,0,0,0,0,1
470609246,470609231,1114122,1.6510476,2.426322,-9.934999,45.625,0,0,0,0,1
470803285,470803270,1114122,0.8255238,1.8592231,-7.020541,45.5,0,0,0,0,1
470909498,470909470,1114122,1.0049855,2.4981067,-8.398808,45.5,0,0,0,0,1
471005940,471005925,1114122,0.8039884,4.249653,-0.768096,45.5,0,0,0,0,1
471109890,471109872,1114122,0.23688944,3.574877,-5.814559,45.5,0,0,0,0,1
471209525,471209508,1114122,0.94037926,4.924429,-9.109475,45.5,0,0,0,0,1
471304571,471304553,1114122,2.3545375,3.2805598,-12.447463,45.5,0,0,0,0,1
471407138,471407123,1114122,1.658226,0.70348984,-5.6709895,45.5,0,0,0,0,1
471507842,471507820,1114122,2.6919253,1.8592231,-4.371687,45.375,0,0,0,0,1
471604739,471604724,1114122,2.548356,0.7322037,-8.958728,45.375,0,0,0,0,1
471707335,471707320,1114122,2.7996025,1.5936198,-8.348557,45.25,0,0,0,0,1
471904882,471904864,1114122,2.5339992,2.2468605,-4.364508,45.375,0,0,0,0,1
472009988,472009972,1114122,1.3998013,2.656033,-0.8757731,45.5,0,0,0,0,1
472106335,472106320,1114122,1.3926227,4.149154,-8.10449,45.375,0,0,0,0,1
472202520,472202505,1114122,2.1104696,4.594219,-8.154739,45.375,0,0,0,0,1
472310135,472310114,1114122,0.90448695,2.6344976,5.24746,45.375,0,0,0,0,1
472407615,472407600,1114122,1.8233308,1.6797614,-7.013363,45.375,0,0,0,0,1
472502694,472502676,1114122,1.78026,2.074577,-9.152546,45.25,0,0,0,0,1
472610235,472610220,1114122,2.426322,2.4909282,-6.704689,45.25,0,0,0,0,1
472710435,472710410,1114122,1.3280165,3.7686956,-8.571091,45.375,0,0,0,0,1
472802825,472802810,1114122,2.0171494,4.041477,-6.352944,45.375,0,0,0,0,1
472908543,472908525,1114122,1.658226,4.0701914,-3.1944182,45.25,0,0,0,0,1
473010498,473010483,1114122,1.8233308,2.8354948,-1.9669001,45.25,0,0,0,0,1
473105487,473105471,1114122,1.091127,4.3429728,-0.035892338,45.375,0,0,0,0,1
473206735,473206720,1114122,2.1463618,2.1463618,-5.599205,45.25,0,0,0,0,1
473310678,473310663,1114122,2.1104696,1.335195,-4.4291143,45.25,0,0,0,0,1
473404135,473404120,1114122,1.4931213,1.6366906,0.10049855,45.25,0,0,0,0,1
473503343,473503317,1114122,1.564906,3.1082766,0.31585258,45.375,0,0,0,0,1
473608278,473608260,1114122,2.333002,2.6632116,2.5914268,45.25,0,0,0,0,1
473709685,473709670,1114122,2.426322,3.5246277,-4.8454657,45.25,0,0,0,0,1
473805891,473805873,1114122,2.5268207,3.3954153,-8.535198,45.25,0,0,0,0,1
473907088,473907073,1114122,2.074577,3.1441689,-7.3722863,45.125,0,0,0,0,1
474004737,474004720,1114122,2.2253249,2.3904297,-7.6666036,45.25,0,0,0,0,1
474111053,474111038,1114122,1.4285151,2.76371,-5.6135616,45.125,0,0,0,0,1
474209485,474209470,1114122,2.1248264,1.7084754,-5.9294143,45.25,0,0,0,0,1
474303626,474303611,1114122,1.2562319,2.6488545,-8.327023,45.25,0,0,0,0,1
474406885,474406870,1114122,1.9166509,0.997807,-6.144768,45.25,0,0,0,0,1
474508773,474508758,1114122,1.0624132,1.550549,-1.536192,45.125,0,0,0,0,1
474603821,474603802,1114122,1.012164,3.9409788,-4.2137604,45.125,0,0,0,0,1
474706359,474706341,1114122,1.1916256,2.5268207,-5.419743,45.125,0,0,0,0,1
474808872,474808857,1114122,1.213161,3.7543385,-6.259624,45.125,0,0,0,0,1
474907755,474907733,1114122,0.98345006,3.0436704,-3.0867412,45.125,0,0,0,0,1
475006518,475006500,1114122,0.7106683,0.94037926,-5.52742,45.25,0,0,0,0,1
475103035,475103020,1114122,-0.36610186,1.4213367,4.2281175,45.125,0,0,0,0,1
475212257,475212232,1114122,0.3948157,3.4097722,-0.7537391,45.125,0,0,0,0,1
475306735,475306720,1114122,0.23688944,2.6344976,-5.742774,45.125,0,0,0,0,1
475409193,475409178,1114122,0.22971097,2.7062824,-6.302695,45.125,0,0,0,0,1
475511814,475511799,1114122,0.90448695,3.022135,-7.9322066,45.125,0,0,0,0,1
475606790,475606775,1114122,1.1916256,1.9381863,-12.282358,45.0,0,0,0,0,1
475707855,475707833,1114122,2.3976083,2.0171494,-17.75235,45.0,0,0,0,0,1
475806919,475806904,1114122,3.531806,1.8735801,-22.43989,45.125,0,0,0,0,1
476010235,476010220,1114122,1.1700902,3.237489,-12.6269245,45.125,0,0,0,0,1
476105785,476105770,1114122,1.7300107,1.5792629,-13.883157,45.0,0,0,0,0,1
476202424,476202410,1114122,1.6151552,2.2468605,-17.24268,45.0,0,0,0,0,1
476307152,476307137,1114122,1.9166509,3.0149565,-16.266407,45.0,0,0,0,0,1
476412250,476412232,1114122,1.8735801,2.0458634,-12.756137,45.125,0,0,0,0,1
476505881,476505866,1114122,2.0458634,3.1657043,-8.657232,45.0,0,0,0,0,1
476607324,476607309,1114122,2.7062824,2.7565317,-9.8345,45.0,0,0,0,0,1
476710040,476710011,1114122,4.651647,2.426322,-11.227123,44.875,0,0,0,0,1
476809966,476809948,1114122,4.3860435,4.0271206,-8.563912,44.875,0,0,0,0,1
476905885,476905870,1114122,5.469992,1.7730815,-7.3938217,44.75,0,0,0,0,1
477005030,477005015,1114122,6.0729837,4.35733,-10.25803,45.125,0,0,0,0,1
477112672,477112657,1114122,6.525227,4.4147577,-10.30828,44.875,0,0,0,0,1
477212673,477212655,1114122,5.419743,-1.012164,-15.060425,45.0,0,0,0,0,1
477302809,477302794,1114122,6.460621,-0.05742774,-8.276773,44.875,0,0,0,0,1
477407790,477407775,1114122,7.523034,3.9553356,-2.8426733,44.75,0,0,0,0,1
477511741,477511726,1114122,5.096712,3.0867412,-9.27458,44.875,0,0,0,0,1
477607834,477607819,1114122,5.3766723,2.67039,-9.317651,44.875,0,0,0,0,1
477810487,477810470,1114122,6.252445,4.529613,-1.536192,44.75,0,0,0,0,1
477913127,477913112,1114122,6.8195443,2.76371,-6.518049,44.75,0,0,0,0,1
478006285,478006270,1114122,6.798009,4.314259,-1.3926227,44.875,0,0,0,0,1
478108208,478108182,1114122,6.568298,3.1657043,-2.0817556,44.75,0,0,0,0,1
478208187,478208169,1114122,5.2259245,4.0271206,-5.6279187,44.75,0,0,0,0,1
478308240,478308222,1114122,5.922236,5.663811,3.8620157,44.875,0,0,0,0,1
478409489,478409474,1114122,5.096712,4.5511484,3.9625142,44.875,0,0,0,0,1
478508367,478508352,1114122,5.34078,3.7399817,-6.360122,44.875,0,0,0,0,1
478605912,478605893,1114122,6.015556,1.3926227,-6.4821563,44.875,0,0,0,0,1
478709823,478709787,1114122,4.960321,2.8642087,-3.4671998,44.75,0,0,0,0,1
