timestamp,timestamp_sample,accel_device_id,gyro_device_id,delta_angle[0],delta_angle[1],delta_angle[2],delta_velocity[0],delta_velocity[1],delta_velocity[2],delta_angle_dt,delta_velocity_dt,delta_velocity_clipping,calibration_count
394713479,394713104,1114122,2228234,6.45521e-05,5.859383e-05,-4.9584694e-05,0.006432468,0.0012936927,-0.048062228,5010,5014,0,3
395218964,395218524,1114122,2228234,4.6182686e-05,-4.5927714e-05,2.6210175e-05,0.006602252,0.00027159034,-0.047800556,4987,5057,0,3
395714293,395713904,1114122,2228234,7.871035e-05,-3.307566e-05,-1.7552316e-05,0.006870995,0.00033808025,-0.04753239,4978,5044,0,3
396209707,396209318,1114122,2228234,8.026445e-05,-4.4734767e-05,1.6873531e-05,0.006929774,0.0009963673,-0.047194432,4968,4961,0,3
396712538,396707213,1114122,2228234,-3.0698702e-05,1.7765495e-05,-2.985332e-05,0.0069545475,0.0005090302,-0.045875818,4918,4817,0,3
397713554,397713134,1114122,2228234,9.527102e-05,-4.1878855e-05,-3.797411e-05,0.0067382585,0.00042442617,-0.04844537,5108,5126,0,3
398216347,398215971,1114122,2228234,6.9787835e-05,-2.2157454e-05,7.159557e-05,0.00663605,0.0008379789,-0.04765352,5027,5033,0,3
398711822,398711359,1114122,2228234,1.8208602e-05,-1.1936303e-05,3.6176239e-06,0.0067294007,0.0010870346,-0.047650967,4955,4958,0,3
399212220,399211787,1114122,2228234,0.00014386426,5.116148e-06,-1.4254155e-05,0.0059879394,0.00089188427,-0.0466726,4959,4962,0,3
399716358,399714697,1114122,2228234,0.00015518277,-4.3228767e-05,-6.8912486e-05,0.0069231996,-0.00035251523,-0.04735578,4994,4994,0,3
400215405,400215092,1114122,2228234,0.00023153269,1.670363e-05,9.579306e-05,0.007000587,0.0013228281,-0.04770064,4999,4999,0,3
400712107,400710501,1114122,2228234,-2.8058797e-05,-3.9892216e-06,-7.999724e-05,0.0069014444,0.00032080425,-0.04763628,4986,5005,0,3
401216220,401215900,1114122,2228234,5.7818324e-05,-6.705471e-06,-8.196853e-05,0.005387823,0.0010498619,-0.04760744,4980,4977,0,3
401711648,401711335,1114122,2228234,1.5086085e-05,-1.0267856e-06,5.1363368e-05,0.0065004495,0.0010124398,-0.047531076,4838,5028,0,3
402211925,402206728,1114122,2228234,0.000109561406,-1.6020937e-05,-7.200251e-05,0.006664081,0.0012650426,-0.046991363,5003,5016,0,3
402715576,402714801,1114122,2228234,3.464558e-06,6.1439896e-06,-1.5898528e-06,0.006853678,0.0006778704,-0.047894023,5128,5041,0,3
403215738,403215114,1114122,2228234,0.00019343966,8.062942e-06,-0.00016183272,0.0067116176,0.00015501134,-0.04911529,5054,5075,0,3
403716179,403715607,1114122,2228234,-1.4044268e-05,2.0765216e-05,1.1527476e-05,0.0070516467,0.00015142438,-0.047628783,5112,5025,0,3
404211311,404208392,1114122,2228234,0.00012657353,-7.761426e-06,-3.1054456e-05,0.0064535923,0.00032967018,-0.04676047,5037,4947,0,3
404717787,404717384,1114122,2228234,6.365332e-05,-1.0773793e-05,-1.3277374e-05,0.006853337,0.0011530063,-0.05037145,5022,5250,0,3
405214666,405214363,1114122,2228234,4.604589e-05,-7.581015e-06,-7.169429e-05,0.0059319795,0.0012928622,-0.047214247,5109,4993,0,3
405715109,405714722,1114122,2228234,3.2936852e-05,4.7862668e-05,-3.6083725e-06,0.0059041195,0.00078051246,-0.047356762,5148,5067,0,3
406215335,406214996,1114122,2228234,-5.8860885e-05,-7.5176017e-06,-0.000117401105,0.0065214764,0.0005840654,-0.04710196,4927,5006,0,3
406713524,406707923,1114122,2228234,-7.520639e-05,2.4025103e-05,-9.163324e-05,0.006299045,0.0010278062,-0.048037305,5032,5032,0,3
407213742,407213349,1114122,2228234,0.00025983833,-2.3672284e-05,-6.775325e-06,0.0064979303,0.00096097495,-0.047962576,5036,5049,0,3
407711461,407708717,1114122,2228234,-0.00011644599,1.7371698e-05,-7.030974e-05,0.0066654636,0.00060793664,-0.04829919,5005,5026,0,3
408211879,408211642,1114122,2228234,0.00012417007,-3.4420204e-06,-0.00012676757,0.0075556524,0.00046341188,-0.047736928,5018,5056,0,3
408712909,408712014,1114122,2228234,-4.6312776e-05,1.0317339e-05,6.4202145e-06,0.007882121,0.0002590733,-0.048009433,4961,5033,0,3
409212719,409212457,1114122,2228234,0.00010086126,-2.385847e-06,-4.250968e-05,0.006137217,0.00030492738,-0.047114663,5031,5021,0,3
409713120,409712869,1114122,2228234,5.9838408e-06,6.3135544e-06,-6.461967e-06,0.0063053183,0.0009223363,-0.048942268,5009,5010,0,3
410211223,410210795,1114122,2228234,6.264377e-06,4.569675e-05,2.4630597e-05,0.005928633,0.00080839085,-0.04694283,5053,4987,0,3
410716663,410716226,1114122,2228234,0.0001768264,-1.754059e-05,-8.773346e-06,0.0069640093,0.0006077514,-0.0473724,5084,5085,0,3
411214262,411211584,1114122,2228234,8.817242e-05,-1.5212025e-05,3.161791e-05,0.006892387,0.00071938,-0.047741316,5025,5014,0,3
411715908,411714571,1114122,2228234,0.00011746601,-3.8006712e-07,4.8026537e-05,0.006750808,0.00076777715,-0.04887117,5105,5131,0,3
412215818,412214878,1114122,2228234,0.00012082719,2.45996e-07,3.3672375e-05,0.007591098,0.0013388252,-0.047646787,4942,5004,0,3
412715743,412715378,1114122,2228234,8.2072555e-05,1.0081569e-05,7.017397e-05,0.006508682,0.00093001843,-0.04950646,5110,5162,0,3
413213888,413213279,1114122,2228234,0.00013173238,4.626042e-05,5.1507254e-07,0.007182812,0.00035523536,-0.047781654,5099,5105,0,3
413716433,413713747,1114122,2228234,2.6768864e-06,-2.498338e-06,2.4811241e-05,0.0073666936,0.0003129057,-0.045953903,5142,5048,0,3
414211748,414203992,1114122,2228234,8.339315e-05,2.5998103e-05,1.7059345e-05,0.006934015,0.00073163497,-0.04785174,5006,5017,0,3
414716143,414714525,1114122,2228234,4.0886334e-05,-3.698626e-05,6.2433e-05,0.00701952,0.001230051,-0.0480262,5113,5121,0,3
415213685,415212347,1114122,2228234,0.00011334536,-2.3827731e-06,1.1465389e-05,0.005996329,0.0009424104,-0.04636236,4980,4975,0,3
415717948,415717726,1114122,2228234,9.763045e-05,3.518521e-05,5.3805958e-05,0.006561793,0.0008934929,-0.045372102,4971,4850,0,3
417214347,417214049,1114122,2228234,3.9105544e-05,3.3553504e-05,-0.000114480776,0.0066004666,-0.00050213776,-0.046355672,4982,4981,0,3
417714506,417709341,1114122,2228234,-7.70062e-05,3.583697e-05,-5.8634174e-05,0.0062573943,0.00060754945,-0.04721937,4821,5017,0,3
418213898,418212289,1114122,2228234,0.00010880316,3.1769363e-05,-7.1396826e-05,0.0068636863,0.0012233614,-0.04817837,5035,5035,0,3
418713233,418712687,1114122,2228234,0.00010978449,-4.1074705e-05,-5.6497142e-06,0.0067803324,0.0008338017,-0.04860365,5025,5102,0,3
419213469,419213080,1114122,2228234,0.00019341912,5.390825e-05,0.00017673307,0.0074775536,0.0008823734,-0.047755748,4986,5045,0,3
420216734,420216418,1114122,2228234,-1.0097754e-05,9.387557e-06,3.9644e-05,0.0067101917,0.00074321486,-0.046081495,4918,4903,0,3
420712148,420711876,1114122,2228234,0.00013250366,-4.2657953e-06,-3.239295e-05,0.006543948,0.0013197891,-0.047691036,5082,5015,0,3
421212498,421212217,1114122,2228234,-5.066675e-05,9.318443e-06,6.426454e-05,0.0067827483,0.0015637142,-0.048576385,4992,5061,0,3
421711756,421710116,1114122,2228234,0.0003011191,-4.235598e-05,0.00012897137,0.00657033,0.0016873187,-0.047725085,4844,4928,0,3
422215995,422215571,1114122,2228234,-5.2824555e-05,-5.838867e-06,-2.6041347e-05,0.006399433,0.0007288159,-0.049203165,5037,5040,0,3
422716918,422715931,1114122,2228234,0.00015859955,2.2450457e-05,2.5737529e-05,0.006561085,0.00088143727,-0.04708615,4872,4956,0,3
423216810,423216368,1114122,2228234,0.0001842538,4.846922e-06,8.677733e-05,0.006872794,0.0013334705,-0.046856694,4918,4934,0,3
423714487,423714254,1114122,2228234,2.8693388e-05,-5.268402e-05,7.358421e-05,0.0066336547,0.0007275343,-0.04853874,5012,5021,0,3
424214935,424214706,1114122,2228234,6.738442e-05,1.0654553e-05,2.6554202e-05,0.0064132777,0.0017154809,-0.048966452,5019,4941,0,3
424715426,424715064,1114122,2228234,0.00010543351,4.5015437e-05,-0.00013044362,0.0071926927,0.0008593828,-0.049598962,4867,4963,0,3
425213462,425210467,1114122,2228234,7.052649e-05,3.7219754e-06,-0.00041835487,0.011927548,-0.003117362,-0.05244602,4970,5031,0,3
425713853,425713389,1114122,2228234,-0.00012666745,-0.00018985062,-0.0004147867,0.016489202,-0.0034076977,-0.04716891,4993,4983,0,3
426214273,426213827,1114122,2228234,0.00012780342,0.00034242176,-0.00071299565,0.015858356,-0.0047951243,-0.045324087,5053,4979,0,3
427215009,427214574,1114122,2228234,-0.0010798312,-0.0002205095,0.0011001158,0.027133215,0.0125795,-0.04493615,4998,5062,0,3
427715394,427715014,1114122,2228234,-0.00088840944,-0.00055090425,-6.1422346e-05,0.030555516,0.0025354568,-0.040794596,5007,5007,0,3
428213198,428212898,1114122,2228234,-0.0008431416,0.0016262905,-0.0010553176,0.026949074,-0.0009690128,-0.06439251,5035,4943,0,3
428716161,428713255,1114122,2228234,-0.0005831299,0.00082685286,-0.0015413467,0.027370615,-0.0016957906,-0.056155622,4953,5024,0,3
429213919,429213668,1114122,2228234,0.0026398294,0.00059132976,-0.00067891047,0.021663303,-0.0028238855,-0.05103776,5027,4961,0,3
429713320,429711557,1114122,2228234,0.0008779417,0.0004527792,0.00028189932,0.017096173,-0.002304336,-0.04788715,4924,4889,0,3
430214684,430214460,1114122,2228234,1.2365496e-05,0.00061239116,0.00027225877,0.017183973,-0.003277438,-0.04571381,5038,4009,0,3
430714999,430709822,1114122,2228234,0.0025490879,-0.00017421521,0.0012441742,0.01900953,0.0020519078,-0.040495574,4945,5016,0,3
431215410,431210260,1114122,2228234,-0.004086759,-0.00061494514,0.00048382758,0.01626565,-0.0017127453,-0.059511047,5089,5029,0,3
431715861,431715618,1114122,2228234,-0.0015632552,-0.00063079904,0.00034251445,0.019681288,0.00035292248,-0.042850375,5044,5038,0,3
432214363,432211971,1114122,2228234,-0.0018468983,-0.00011675103,-0.00053112383,0.016070282,0.0027185634,-0.050493572,5001,5217,0,3
432715024,432713770,1114122,2228234,0.0005408342,-0.0004619224,-0.00042661573,0.0145371,0.003757717,-0.03727459,4985,4990,0,3
433214917,433209166,1114122,2228234,-0.0015282923,-0.00045327639,0.0003423707,0.0155477375,-0.0027010355,-0.051415186,5010,4999,0,3
433712220,433707042,1114122,2228234,-0.00032658287,0.0003694328,-0.002051474,0.016455468,-0.0005185812,-0.05481715,5045,5016,0,3
434215501,434212443,1114122,2228234,0.0018575102,-0.00018543607,-0.0007440293,0.013497512,0.00404377,-0.04640589,5036,5042,0,3
434716359,434712730,1114122,2228234,0.0001396847,-0.00043244817,-6.080615e-05,0.010923793,-0.0067881304,-0.038126606,5005,5000,0,3
435211773,435211404,1114122,2228234,0.002154174,-0.00074240734,-0.00015154979,0.010914031,-0.0010373075,-0.043180935,5011,5292,0,3
435711422,435710963,1114122,2228234,0.0018985678,9.9611294e-05,0.0004568469,0.0038255036,-0.004288497,-0.037546307,5022,4951,0,3
436217533,436213784,1114122,2228234,-0.0018429714,-0.00067596004,0.0007087016,0.00351453,-0.004738306,-0.048483334,4942,5015,0,3
436714402,436712907,1114122,2228234,0.00019861595,0.0023276573,0.0008846864,0.011320262,0.0025914935,-0.11213022,5015,4985,0,3
437218211,437216988,1114122,2228234,-0.00029058487,0.0019054555,9.2170354e-05,0.0077946098,-0.00232281,-0.08324999,4911,4915,0,3
437718444,437718184,1114122,2228234,0.003702319,-0.0010358294,0.0008852464,0.009524354,0.009236867,-0.093670174,10830,10374,0,3
438215410,438215178,1114122,2228234,0.003394378,-0.00016570021,0.0015456541,0.007546369,0.010587381,-0.03187783,4999,4993,0,3
438719041,438715522,1114122,2228234,-0.0015542539,-0.000851897,0.0022156937,0.00851989,0.009674849,-0.024362177,5000,4997,0,3
439216075,439215881,1114122,2228234,0.0025951043,0.00059365074,0.0007993154,0.0094962595,-0.00018056201,-0.053646035,5036,4960,0,3
439720369,439718712,1114122,2228234,-0.002280381,-0.0003170105,0.0016348673,0.002462362,0.0050521493,-0.03862145,4998,4998,0,3
440211753,440209052,1114122,2228234,-0.0005245379,-0.00038229828,0.0017548819,-0.015135429,0.0012734564,-0.030010242,5022,5021,0,3
440712093,440711839,1114122,2228234,-0.005916109,-0.0004334557,-5.2710264e-05,-0.013271828,-0.0041793836,-0.0567129,4968,5047,0,3
441216369,441212391,1114122,2228234,0.0013979356,-0.00050826266,-0.0003307164,-0.017111726,0.0029658221,-0.020272987,5217,5016,0,3
441716666,441715062,1114122,2228234,-0.0029804644,-0.000707589,4.2585412e-05,-0.014342291,-0.0045377444,-0.05273919,4946,6001,0,3
442215906,442215374,1114122,2228234,0.0063899416,0.00051997416,-0.0017663204,0.0055132885,0.008884163,-0.06496864,4980,5082,0,3
442721695,442718168,1114122,2228234,0.0056935973,0.0025690242,0.0032055904,0.010296229,-0.014713271,-0.053766225,4968,4962,0,3
443213767,443213504,1114122,2228234,-0.004306716,0.0029539813,0.0018733222,0.012268937,-0.0029622884,-0.06961394,5001,5006,0,3
443722957,443721321,1114122,2228234,0.0008808606,0.0023315318,6.394145e-05,0.007349138,0.0027636262,-0.0966857,4893,4895,0,3
444215530,444214134,1114122,2228234,-0.0039505474,0.00089034496,0.0026580316,0.009113115,-0.00013654777,-0.09657797,4978,4969,0,3
444715303,444714503,1114122,2228234,0.001066702,0.0012036226,0.00050184526,0.00058466854,-0.008255294,-0.033710174,4957,5022,0,3
445215051,445214788,1114122,2228234,0.0025225005,-0.00010295924,1.0904909e-05,0.0039269077,-0.0035000488,-0.026960338,5024,5025,0,3
445713368,445707598,1114122,2228234,-0.0031426544,-0.00042154492,0.0008577176,0.011138458,-0.007526366,-0.05356975,5007,4903,0,3
446214546,446212924,1114122,2228234,0.00082070153,0.0007500035,-0.00039559117,0.0053937268,0.00033103733,-0.064647205,4998,4998,0,3
446714469,446714314,1114122,2228234,-0.00038936952,0.0009958993,0.00057999237,0.01219253,-0.00414691,-0.04985952,5717,5044,0,3
447214992,447211022,1114122,2228234,0.00068556616,0.0006517603,0.00055527716,0.008194536,0.002055712,-0.061454974,5002,4995,0,3
447715082,447713842,1114122,2228234,-4.337462e-05,0.00032252437,0.0011086956,0.0071800738,0.00060432334,-0.05125834,5010,5008,0,3
448213092,448211662,1114122,2228234,-0.00053063035,0.00037612903,0.0011758746,0.004388076,-0.0044919755,-0.062187225,5007,5010,0,3
448715272,448711977,1114122,2228234,-0.00018778417,0.00087361614,0.0008006914,0.0012239292,0.0019968972,-0.06099564,4964,4972,0,3
449215559,449214859,1114122,2228234,-0.0045292513,-0.0005408543,0.0014340483,0.00019306925,0.0024371415,-0.045841217,5101,5107,0,3
449716062,449715059,1114122,2228234,0.0026711216,0.00092382304,-0.00034826412,0.006956294,0.0044124494,-0.077289835,9183,8384,0,3
450211835,450211379,1114122,2228234,0.00013670561,-0.00011369971,0.00055153685,0.0029446175,0.0029604745,-0.05925897,5717,6265,0,3
450716454,450715662,1114122,2228234,-0.002628984,-0.00015980526,0.0014575727,0.0068412125,-0.0027612734,-0.085663214,8788,9996,0,3
451217195,451213479,1114122,2228234,-0.00061050325,-4.6627996e-05,0.0002950029,0.0023899972,0.0012096331,-0.060898982,5005,5008,0,3
451717542,451716485,1114122,2228234,-0.0024818804,0.00011126819,-0.00014458777,-0.0022611495,0.00011737297,-0.037735734,6466,6290,0,3
452213445,452212664,1114122,2228234,-0.00042322103,7.581691e-05,0.00018986176,0.0012543052,0.0006941522,-0.043936025,5004,4251,0,3
452713027,452712455,1114122,2228234,-0.0002455917,0.00028068517,0.00067633623,0.0009406186,-0.0014670369,-0.047902796,4995,5949,0,3
453218991,453217144,1114122,2228234,-0.00063978595,-0.00015081376,-0.0002560579,-0.0019857793,0.0033450352,-0.046632856,4920,4912,0,3
453718540,453717493,1114122,2228234,0.0016586019,0.00026755288,9.559161e-05,-0.0002362659,0.0023100292,-0.0463889,5050,4949,0,3
454219179,454215251,1114122,2228234,0.00078014506,-6.924875e-06,0.00023462028,0.0041126697,-0.0013059973,-0.030195097,5035,4974,0,3
454718884,454710642,1114122,2228234,0.0008931517,-6.7240435e-05,9.127087e-05,0.0032264702,0.0025433274,-0.039352186,5065,5064,0,3
455216023,455213303,1114122,2228234,0.0010048596,0.00047534265,0.00075092266,0.0033419183,-0.0044678664,-0.051137842,4987,5047,0,3
455719538,455716076,1114122,2228234,-0.001924682,0.0008662161,0.0011527726,0.0023020392,-0.010707037,-0.07549208,4971,4961,0,3
456220092,456216411,1114122,2228234,0.00047777177,0.00015950609,0.0002720701,-0.0026462956,-0.00067450333,-0.050809886,4917,4818,0,3
456720308,456716658,1114122,2228234,-0.00025949985,-4.6421446e-05,0.0013551252,0.0016130679,-0.0022175433,-0.03264621,5008,5004,0,3
457215116,457214525,1114122,2228234,-0.0013689481,0.0010719607,0.0011848789,-0.00060738536,-0.00097598846,-0.05601704,4726,5148,0,3
457720703,457719703,1114122,2228234,0.0035605,0.0050441716,0.0002541486,0.0036680454,-0.0069985418,-0.20309958,9958,10484,0,3
458222775,458222548,1114122,2228234,0.007835356,0.0024035072,0.0023053586,0.007560522,0.014010397,-0.19853804,6745,6645,0,3
458714478,458712765,1114122,2228234,-0.004684621,0.0024234685,0.0037353246,0.0041461806,-0.0061490103,-1.195828e-05,5007,5006,0,3
459222033,459221833,1114122,2228234,-0.0011867955,0.0009502847,-0.00051244505,0.002236669,-0.009135823,-0.061230212,6260,6160,0,3
459717154,459715911,1114122,2228234,-0.00092375744,-0.00058180135,0.0015396099,-0.0048450567,0.007790815,-0.02698329,5070,5131,0,3
460222272,460218610,1114122,2228234,-0.0009787268,-0.0006036735,0.0015610125,-0.005841175,-0.001100452,-0.033310946,5001,4997,0,3
460714216,460713959,1114122,2228234,0.0010723824,-0.0007702396,0.0002630069,-0.006037589,0.0011816657,-0.031694375,5102,5114,0,3
461212793,461211639,1114122,2228234,0.00063293736,-0.00047848374,0.00094854954,-0.012194424,-0.0015328286,-0.04197184,4957,4955,0,3
461714802,461714528,1114122,2228234,0.0014888683,0.00059131125,0.0014313356,-0.010107757,0.0050314604,-0.041427273,5104,5102,0,3
462214982,462214724,1114122,2228234,0.0031180985,0.002854149,0.0006399023,-0.008918799,-0.0055371597,-0.06348525,5007,5077,0,3
462713564,462713154,1114122,2228234,-0.0013759838,0.0024269759,0.0014140158,-0.0058660284,-0.0034396495,-0.111420855,5005,4982,0,3
463216128,463215241,1114122,2228234,-0.0025192972,0.00043692233,0.0005449412,-0.010264626,-0.0034084797,-0.059449736,5018,5021,0,3
463715824,463715599,1114122,2228234,-0.0005990336,-0.00079832075,0.0015545425,-0.0066580693,0.0026088331,-0.03766957,5095,5024,0,3
464213656,464211082,1114122,2228234,-0.0006900822,-0.00039270602,0.00045619588,-0.008232082,-0.0028362102,-0.038256265,5279,5015,0,3
464714573,464713531,1114122,2228234,0.0027836473,0.00074298965,0.0004984359,-0.0062671946,0.006300216,-0.053328957,4981,4976,0,3
465214987,465214226,1114122,2228234,-0.0016890939,0.00016070773,0.0024286406,-0.0059396783,-0.012308107,-0.07660008,7152,7019,0,3
465714922,465711605,1114122,2228234,-0.00081841636,-0.0004063159,0.00087001966,-0.0049734055,0.0051055676,-0.11029527,5030,6055,0,3
466214829,466214400,1114122,2228234,-0.0022329784,0.0010821758,0.0016460279,-0.005146708,0.0045534936,-0.05101383,5005,5012,0,3
466715236,466712123,1114122,2228234,-0.0005966987,0.0015948452,-0.0011831966,0.00066163583,-0.0019375626,-0.104330376,4872,4896,0,3
467212802,467212483,1114122,2228234,0.0075452123,0.001588572,7.9733e-05,0.0011861487,0.0071767466,-0.07662127,5016,5023,0,3
467716141,467715293,1114122,2228234,-0.0104730865,-0.00050874264,0.0006242821,-0.01066981,-0.045637593,-0.06346671,10151,10045,0,3
468216323,468212887,1114122,2228234,0.0065781563,-0.0002846976,-0.00051494763,-0.0042540417,0.00708458,-0.037411653,4971,4969,0,3
469213686,469210995,1114122,2228234,-0.0016406048,-0.001570097,-0.0022800174,-0.01135499,-0.00550983,-0.026619421,5037,5096,0,3
469716662,469716244,1114122,2228234,0.0024184163,0.000635152,0.002541974,-0.01089566,0.002208869,-0.0018460522,4962,4885,0,3
470217850,470213983,1114122,2228234,-0.0061887424,0.0027247465,-0.0021668633,-0.004678158,-0.009905593,-0.08007063,5025,4956,0,3
471217803,471212042,1114122,2228234,0.008419212,0.0005709507,-0.00056445133,-0.0070497417,0.009689265,-0.06785534,5016,5080,0,3
471715046,471714768,1114122,2228234,-0.009076877,-0.00052051217,0.0015873718,-0.00039662828,-0.009554925,-0.0705569,4940,4925,0,3
472212903,472212524,1114122,2228234,0.00470564,0.000114048686,0.0016574806,-0.0018946336,0.0038951833,-0.05086226,5028,5033,0,3
473213615,473213125,1114122,2228234,-1.4110559e-06,-0.00083994126,-0.0019436639,0.00069033384,-0.007974437,-0.043175425,5113,5130,0,3
473719480,473715787,1114122,2228234,-0.0027053994,-0.00073698856,0.0011550514,-0.0015610979,0.004655965,-0.045790356,4979,4975,0,3
474219520,474216038,1114122,2228234,-0.0022390173,-0.0008793517,-0.0027116828,-0.0007226739,-0.0070577664,-0.040523104,4896,4879,0,3
475220275,475219061,1114122,2228234,0.0013795008,0.0007774348,0.00055337546,-0.015036745,0.0024265216,-0.02655299,4968,5030,0,3
475720241,475714714,1114122,2228234,-0.0011625746,0.0037883727,-0.0011967146,-0.0025596397,-6.175809e-05,-0.09780335,5163,4904,0,3
476215090,476214634,1114122,2228234,-0.00032245647,0.0020598047,0.0005280638,-0.0042366693,-0.0049225404,-0.08799027,5010,5077,0,3
476721022,476719879,1114122,2228234,-0.004162312,0.0006625136,0.0004263556,0.008201323,-0.0024945415,-0.07131395,5007,4940,0,3
477220949,477215155,1114122,2228234,0.0026703754,0.0020871658,-0.001336682,0.018330136,-0.011504338,-0.06991563,5006,5066,0,3
478213418,478213161,1114122,2228234,-0.0050055766,-0.0025093802,0.0009164661,0.022291483,0.0070463046,-0.055331435,7428,7547,0,3
478721900,478718412,1114122,2228234,0.0011940837,-0.0013777068,-0.001309942,0.01830795,3.5554738e-05,-0.031457793,4970,4981,0,3
479216550,479212494,1114122,2228234,0.000958292,-0.0007409539,-0.0005806485,0.016621798,-0.0058394205,-0.05830708,4981,5076,0,3
479712627,479711478,1114122,2228234,0.0005121821,-0.001388307,0.0003685044,0.009582318,0.0013699974,-0.01822254,5008,5011,0,3
480214395,480214203,1114122,2228234,0.0026724169,0.0004979109,-0.0015011369,0.008201715,0.0073029515,-0.040598817,5030,4959,0,3
480714757,480714479,1114122,2228234,0.0008050698,0.001058347,0.002058313,0.004408541,-0.0036110363,-0.028328486,5009,5079,0,3
481213153,481212173,1114122,2228234,-0.00083307613,0.0015915474,-0.0013486936,0.011522586,-0.0065974602,-0.056425326,4998,5001,0,3
481715205,481714953,1114122,2228234,0.00084196485,0.0012954604,0.00095083064,0.0068345536,0.005470615,-0.07734079,5010,5015,0,3
482213198,482212754,1114122,2228234,-0.0012258606,0.0021130373,-0.0003366386,0.0065408335,-0.0020521,-0.05973457,5030,5027,0,3
482715823,482712962,1114122,2228234,-0.002555091,0.0013318316,0.000829651,0.011126825,-0.00717075,-0.10024327,4991,4991,0,3
483216067,483215690,1114122,2228234,0.00085111475,0.00080573844,0.00027928984,0.015293864,-0.0017379402,-0.053516004,4876,4857,0,3
483716458,483716294,1114122,2228234,-0.00423767,-0.0029444245,2.0108342e-05,0.010735724,-0.0074925967,-0.018130442,5020,4982,0,3
484214799,484213717,1114122,2228234,-0.0024766698,-0.0014686884,0.00031156302,0.01324187,0.0057474724,-0.032270085,5002,4935,0,3
484716666,484711622,1114122,2228234,-0.0014863061,-0.0005841745,9.3132694e-05,0.012098988,0.0020480694,-0.0071938243,5154,5029,0,3
485212209,485211770,1114122,2228234,-0.0008681002,-0.00048183987,9.30158e-05,0.009753325,0.0063513513,-0.026535226,5027,5114,0,3
486215064,486212187,1114122,2228234,0.0010967655,0.00092084205,-0.0010569204,0.008432818,0.00026683536,-0.069058985,4998,5009,0,3
486716390,486714932,1114122,2228234,0.001323483,0.00081081333,0.000430825,0.0089874705,-0.008329402,-0.06139261,4870,4853,0,3
487213017,487212694,1114122,2228234,0.004199191,0.0013793922,-0.00088139065,0.01814166,0.003768524,-0.07114455,7477,7546,0,3
487716535,487715441,1114122,2228234,-3.095755e-05,0.0004332276,0.0013711902,0.01006677,-0.0030421123,-0.0634556,4986,4981,0,3
488216082,488215686,1114122,2228234,0.0019236767,0.0007625458,0.00095848326,0.010074006,-0.0026104702,-0.04698437,4932,4936,0,3
488713827,488713534,1114122,2228234,-0.0004052494,0.00081269717,0.0010593064,0.012284157,-0.0023447846,-0.039510142,5087,5102,0,3
489216996,489208664,1114122,2228234,-0.00095017336,0.0010318302,0.0013629928,0.011026974,0.00026201573,-0.059974015,4760,4996,0,3
489714328,489711580,1114122,2228234,0.0011202084,0.0004534875,0.002594108,0.015971644,-0.0029977292,-0.06938207,5173,5066,0,3
490217402,490214149,1114122,2228234,-0.0006602806,0.0007177192,0.0008865717,0.0122908065,-0.0029295417,-0.049988784,4865,4934,0,3
490709746,490709414,1114122,2228234,-0.0010781537,0.00072505826,0.0019419051,0.011458205,-0.005299666,-0.06659541,4970,5042,0,3
491212766,491212243,1114122,2228234,-0.00019220785,0.0007465106,0.0006082717,0.011500066,-0.0052031684,-0.04899745,5116,5137,0,3
492213069,492212669,1114122,2228234,-0.002528324,-0.00032757508,0.0023014182,0.005833926,-0.0055998974,-0.03796916,5048,4983,0,3
492719060,492717867,1114122,2228234,0.001336826,0.001031038,-0.0005886545,0.007144518,-0.00566315,-0.07516009,5010,5012,0,3
493214550,493214339,1114122,2228234,-0.0002299389,0.00016094766,0.001483798,0.007620793,-0.0046122284,-0.034881648,5005,4232,0,3
493719563,493719150,1114122,2228234,-0.003843567,-0.0001538292,0.0027039212,0.012889503,-0.006687633,-0.108482994,10791,10120,0,3
494211358,494211092,1114122,2228234,-0.0012764346,-0.0002171467,0.0008364128,0.0066255312,0.0035387112,-0.046154287,5018,5031,0,3
494719647,494713828,1114122,2228234,-0.0017647337,6.127227e-05,0.0009289616,0.0037969053,-0.0039425995,-0.0553054,4972,4929,0,3
495217213,495214048,1114122,2228234,-0.0004686619,0.00014473186,0.0003227031,0.0002212344,0.0017190406,-0.048977263,4971,5032,0,3
495712329,495711879,1114122,2228234,-0.0012617423,-0.00017229798,0.0005479101,0.00074504886,0.005282277,-0.05158895,5099,5116,0,3
496210414,496205898,1114122,2228234,0.00042214984,-0.00033520072,-0.0003381273,0.00089011143,0.005256308,-0.04107966,5004,4968,0,3
496720822,496717271,1114122,2228234,-0.0008168273,-0.0002461668,-9.637872e-05,0.0017080293,-0.0015718192,-0.039515026,4970,4962,0,3
497212782,497212547,1114122,2228234,0.00070780126,0.000104994884,-0.00022160925,-0.0015520685,0.0012043492,-0.039528776,5004,5004,0,3
498221561,498220492,1114122,2228234,0.0017681448,0.0002331788,0.0009282785,-0.00086852186,0.0019844568,-0.07948086,4945,4980,0,3
499222050,499219623,1114122,2228234,0.0035391871,0.0008347709,0.0013236583,-0.0046527055,0.004011462,-0.06246741,4998,6012,0,3
500212262,500208877,1114122,2228234,-0.0011147124,0.0018634285,-0.00047275465,-0.0018605799,0.0012906675,-0.09101504,4961,4967,0,3
500714345,500711714,1114122,2228234,0.00027375482,0.001801533,0.000903074,0.0015352168,0.008207603,-0.0869572,4984,4983,0,3
501214672,501214360,1114122,2228234,-0.0009939459,0.00074510707,0.0017564901,0.0053233607,-0.0076902155,-0.07308477,5004,5052,0,3
501713258,501712086,1114122,2228234,0.0034949863,0.001324508,-0.001110711,0.003316594,-0.004519931,-0.059224553,4926,4958,0,3
502212791,502212336,1114122,2228234,0.002537632,0.0006894129,0.0014990078,0.007209717,-0.00086845993,-0.04511425,4886,4971,0,3
502715354,502715028,1114122,2228234,-0.0031965768,-0.0022544523,0.0020289852,0.015263482,-0.0040781414,-0.065990284,7461,7465,0,3
503213865,503212749,1114122,2228234,-0.00015213754,-0.0021476152,0.0016185913,0.007846843,0.0058090584,-0.012918729,4997,4995,0,3
503714330,503714114,1114122,2228234,-0.0019800845,-0.0010976421,0.00015511324,0.01062276,-0.0040080375,-0.038906354,6006,4914,0,3
504214888,504214625,1114122,2228234,0.0015723585,-0.0013946153,0.0027841097,0.0069451104,-0.0033986976,-0.024668224,8762,4972,0,3
504714629,504713439,1114122,2228234,0.001265687,-0.00050345267,0.0004915136,0.0051214607,-0.0035063215,-0.036416095,4947,5013,0,3
505209736,505209179,1114122,2228234,0.0005278109,-0.0014652972,0.002036127,0.0005985944,0.00047153022,-0.034269158,5518,5977,0,3
505716641,505716448,1114122,2228234,-3.9854065e-05,0.00077862886,0.0009169028,-0.0024829889,-0.0077739805,-0.040967274,4886,4903,0,3
506212503,506211710,1114122,2228234,-0.0010804427,0.0025162615,0.0005870024,-0.003085273,-0.004086315,-0.07964348,5079,5073,0,3
506715286,506711898,1114122,2228234,-0.0011718109,0.0013927208,0.00060050865,-0.00606317,-0.0067755687,-0.08693176,5025,4995,0,3
507215836,507214560,1114122,2228234,-0.00033261807,0.0013629062,0.0004988814,-0.00562919,-0.0074925898,-0.08325242,4866,4935,0,3
507712625,507712397,1114122,2228234,0.0005452149,0.0018738873,0.00042134075,-0.012417981,-0.0012235977,-0.095977634,4959,5043,0,3
508213816,508213609,1114122,2228234,-0.0004759587,0.0015347489,0.0017375574,-0.005316622,-0.0017833939,-0.06229737,5004,4149,0,3
508713061,508710429,1114122,2228234,0.001028654,0.0022071816,0.0006292729,-0.0033109994,-0.0021739895,-0.07932898,5195,5033,0,3
509213242,509213002,1114122,2228234,-0.0010980344,0.0009873554,0.00091998174,-0.0061272285,-0.009495451,-0.043997347,4928,4850,0,3
509716173,509715782,1114122,2228234,0.001620206,0.0008978681,0.00022406358,-0.013536397,-0.0039539444,-0.040816672,5056,5126,0,3
510216700,510213417,1114122,2228234,-0.0035308583,0.0010932196,0.0025959495,-0.0067569935,-0.005055823,-0.059295014,4934,5003,0,3
510716572,510716151,1114122,2228234,1.4399094e-05,0.0008152026,0.001966934,-0.0047442378,-0.0015616636,-0.042760246,4990,5000,0,3
511215304,511213898,1114122,2228234,-0.0008127235,0.00027905634,0.0015604607,-0.0027167571,-0.0025058074,-0.055108745,5032,5019,0,3
511714353,511714121,1114122,2228234,-0.0007147454,-0.00075276126,0.0017059377,-0.0024816878,-0.0025502162,-0.03711403,5024,4922,0,3
512712561,512712129,1114122,2228234,-0.0018278817,-0.0007273835,0.0007968466,-0.005298058,-0.002806812,-0.04513835,5047,5067,0,3
513218452,513215034,1114122,2228234,-0.0018706456,0.0023386583,6.269373e-05,0.0013960623,0.0011077264,-0.0751291,5257,4952,0,3
513712929,513712540,1114122,2228234,0.0011583809,0.0014006407,-0.00041980084,0.0020932483,0.00084346527,-0.0881601,5039,5049,0,3
514218420,514215250,1114122,2228234,0.0006185219,0.00029613436,0.00049848045,-0.00055767666,-0.0060151145,-0.0621685,4983,4921,0,3
514719278,514717962,1114122,2228234,-0.00049793074,-0.00051913236,0.000919476,0.0021726598,-0.000726525,-0.044385623,4975,5041,0,3
515219086,515216318,1114122,2228234,-0.0002352214,-0.001306407,0.00017279643,0.0072036707,-0.0042166268,-0.029843833,5004,5016,0,3
515719502,515715910,1114122,2228234,-0.0007883999,-0.0013136062,0.0005258486,0.008046654,-0.0026562463,-0.045679912,5003,7515,0,3
516216404,516216206,1114122,2228234,0.000791063,-0.001140519,-0.00012823081,0.0051250085,7.6527416e-05,-0.042846885,5039,5026,0,3
516714272,516713909,1114122,2228234,-0.001475143,-0.001132747,0.00022125951,-0.0029431195,-0.0023437743,-0.021939825,5032,5031,0,3
517220005,517216600,1114122,2228234,-0.0010891058,0.0014063262,-0.0006492889,-0.0036172313,0.0024696847,-0.050524637,5016,5014,0,3
517720337,517714529,1114122,2228234,0.0009107234,0.000949292,-0.00034383504,-0.006546962,0.0027627107,-0.0693825,5215,5004,0,3
518212315,518212029,1114122,2228234,0.0014172146,0.00096129806,0.00067421835,-0.0076227277,-0.0020839153,-0.0689491,5004,5010,0,3
518720690,518716265,1114122,2228234,-0.00037273212,0.0008185511,8.4335574e-05,-0.013986835,-0.014970264,-0.08713437,5026,7438,0,3
519212735,519212509,1114122,2228234,0.0050832857,0.0011342309,-0.00036967936,-0.0069972863,0.0036217575,-0.055862308,5007,5011,0,3
519716622,519715814,1114122,2228234,-0.0048874635,0.00018927848,0.0027540142,-0.007717138,-0.0029410224,-0.083684854,5005,5250,0,3
520221042,520215452,1114122,2228234,-0.0013734911,-0.0005392397,-0.00079354027,-0.0049150586,-0.00014987029,-0.03839009,4996,4992,0,3
520713554,520713257,1114122,2228234,-0.0028130144,-0.0007326871,0.0013071353,-0.0061014565,-0.0003743893,-0.025092147,4993,5003,0,3
521222118,521218414,1114122,2228234,-0.0035935002,-0.00015252172,-0.00029278954,-0.0022973164,-0.0027962048,-0.04473464,4979,4972,0,3
521716632,521716107,1114122,2228234,0.0014973327,-0.0002891045,-0.0018905253,-0.0043440205,-0.00033899554,-0.049507655,4986,5050,0,3
522214160,522211415,1114122,2228234,0.0042486307,-0.000105830695,0.0003999352,0.0017636335,-0.0010991143,-0.08049857,5087,5097,0,3
522722806,522721564,1114122,2228234,0.0013369549,-0.00061529817,-0.0001467972,-0.0053224303,0.00044632913,-0.08736843,4995,6059,0,3
523214524,523212163,1114122,2228234,-0.0010793768,0.0015608877,0.0012460242,-0.0028317822,0.0016487857,-0.056770314,5294,4856,0,3
523713041,523711986,1114122,2228234,-0.004722361,0.0014643645,-0.0008361781,-0.0010393878,-0.01003186,-0.17438687,9315,10025,0,3
524214968,524214749,1114122,2228234,0.0028913473,-0.00052504137,4.309743e-05,-0.0108850105,-0.0020138077,-0.028339637,4940,4930,0,3
524713818,524709972,1114122,2228234,-0.003324164,-0.0004363007,-0.00034515822,-0.00971151,-0.005624557,-0.02641681,4990,4987,0,3
525213114,525212654,1114122,2228234,0.0047358894,-0.00015217604,-0.00033042274,-0.010575285,0.0010151927,-0.061452825,4869,4948,0,3
525713756,525710388,1114122,2228234,-0.0049704956,-7.411233e-05,0.0011955205,-0.007822826,-0.003676565,-0.052150518,4951,5032,0,3
526215825,526215634,1114122,2228234,0.0032585703,0.0023676315,-0.00021437665,-0.0065245284,-2.7649014e-05,-0.07613793,4878,4898,0,3
527214883,527211069,1114122,2228234,-0.00021746584,-0.00041726072,0.0009822325,0.0007809116,0.00012577164,-0.05073815,4929,5027,0,3
528216737,528216506,1114122,2228234,-0.0031245463,-0.0015179855,-0.00018271877,0.00016856755,-0.0006062795,-0.022429232,4958,4961,0,3
528715022,528711735,1114122,2228234,0.00041302826,-0.001019983,0.0017427966,-0.0026274768,-0.00367817,-0.03339593,4998,5050,0,3
529209900,529209517,1114122,2228234,0.0005310032,0.0020579186,0.001758637,-0.0022591716,0.0012238758,-0.056978576,5074,5000,0,3
529715538,529712199,1114122,2228234,-0.0037553112,0.003156616,0.0018552362,0.018563215,0.005206065,-0.08024389,5028,4944,0,3
530207760,530206294,1114122,2228234,0.002089467,-0.000393352,-0.0013378254,0.008521275,-0.00070019555,-0.07068057,5006,5051,0,3
530715660,530715145,1114122,2228234,-0.0023387994,-0.0018333809,-0.00018095736,0.0044795745,-0.0042949677,-0.023590812,5018,5059,0,3
531215995,531212930,1114122,2228234,0.00086902035,0.0014323634,-0.00081473816,0.009930756,0.0010576112,-0.06601664,5081,5095,0,3
532216610,532216159,1114122,2228234,0.00071496546,-0.00061868835,-0.0030846635,0.010271475,-0.0017474465,-0.07548413,7143,7475,0,3
532713875,532713545,1114122,2228234,0.0022122036,-1.7211532e-05,-0.0021854416,0.0035585524,-0.00054920535,-0.044930365,5003,5003,0,3
533217560,533216297,1114122,2228234,0.00095664366,0.0024835982,8.391103e-05,0.033331472,-0.0012869999,-0.07333528,4969,4977,0,3
533717308,533713979,1114122,2228234,-8.8171626e-05,0.0021089646,-0.00028605317,0.033589892,-0.0152972685,-0.069828086,4897,4880,0,3
534212078,534211718,1114122,2228234,0.0023756116,-0.0010840867,0.00059840723,0.027082277,0.0022651572,-0.03551006,5000,5002,0,3
535214929,535214668,1114122,2228234,-0.00046195678,-7.811294e-05,0.0009329274,0.025092157,-0.0057854005,-0.031682756,4992,4989,0,3
535719099,535717388,1114122,2228234,-0.0010618798,-0.001381632,0.002303059,0.012344437,-0.0026500267,-0.00608553,4977,5013,0,3
536215596,536215202,1114122,2228234,0.0045665028,-8.932851e-05,-0.00082560274,0.012084343,0.002700309,-0.014640493,5055,5070,0,3
536715810,536715401,1114122,2228234,-0.002641573,-0.00016687131,0.0013979959,0.013222164,-0.002763778,-0.04738429,4729,5017,0,3
537213608,537213168,1114122,2228234,-0.0015403313,0.0008340008,-0.0004808779,0.016514804,-0.0014646015,-0.049523383,5092,5172,0,3
537714641,537713794,1114122,2228234,0.0016712121,0.0009458402,-0.0004922047,0.013718258,-0.0016124116,-0.0785642,5005,6247,0,3
538219779,538218521,1114122,2228234,0.0015265257,0.0010714087,0.0011915345,0.015480661,-0.0064919223,-0.052017752,4988,4980,0,3
538715445,538713885,1114122,2228234,-0.0009470984,0.00081621355,-0.00014324869,0.017831469,-0.006557969,-0.08438845,4811,5118,0,3
539211758,539211505,1114122,2228234,-0.001221577,-0.0007057025,0.00012467754,0.01608114,-0.0022751435,-0.044941757,5019,5017,0,3
539720474,539719159,1114122,2228234,-0.000185646,-0.00057708874,0.0012171064,0.013382618,0.009131168,-0.029383302,4990,4988,0,3
540210673,540206907,1114122,2228234,-0.0017668938,-0.000990362,-0.00016579668,0.014236486,-0.0024741685,-0.025035681,4989,4904,0,3
540720808,540719610,1114122,2228234,0.0033291543,0.0009464249,0.0007201467,0.012815547,0.0029825256,-0.061585706,4991,4981,0,3
541213188,541212350,1114122,2228234,-0.0002823116,0.00076420617,0.00085849856,0.015444389,-0.002705712,-0.054651763,5018,5032,0,3
541721263,541720077,1114122,2228234,-0.00013911822,0.0016167171,0.001629136,0.020265883,-0.005559506,-0.10916158,8717,9897,0,3
542213029,542212768,1114122,2228234,-0.00063531287,0.0011457417,0.0011770499,0.013059786,-0.0036868693,-0.09602074,7320,7438,0,3
543221617,543220688,1114122,2228234,0.00056324445,0.00081377884,0.0011213779,0.010590383,-0.0011035211,-0.04768955,4981,4983,0,3
543711508,543711012,1114122,2228234,-0.0018209061,-0.0014968301,0.001154628,0.00950194,-0.00039779203,-0.0064276694,5084,4985,0,3
544213901,544213653,1114122,2228234,0.00043194633,-0.0006722477,0.00015921282,0.0055581057,-0.00051162037,-0.028668627,4990,4989,0,3
545214253,545209205,1114122,2228234,-0.0024017424,-0.00038883864,0.0022887678,0.009112863,0.0044608354,-0.07016731,5120,5045,0,3
545713472,545711894,1114122,2228234,-0.001575786,-6.334568e-05,0.00059603644,-0.0067436625,0.0028226294,-0.048938755,5111,5126,0,3
546213160,546212045,1114122,2228234,0.00010422518,-2.7500717e-05,1.241755e-05,-0.010663939,-0.0080157,-0.019595504,5058,4200,0,3
546714997,546714759,1114122,2228234,-0.00077181915,-0.00091578887,0.00034694682,-0.01803809,0.00029995223,-0.031958237,5034,5031,0,3
547212887,547212473,1114122,2228234,-0.0018382234,-6.56837e-05,-0.0015338992,-0.010205804,-0.006579677,-0.023326658,5002,5014,0,3
547715451,547715164,1114122,2228234,0.0002396807,-0.00088857394,-0.0014130247,-0.010601262,0.0050039836,-0.039084114,4893,4987,0,3
548213210,548212853,1114122,2228234,-0.0033407547,-0.00043051768,0.0004064544,-0.013912695,-0.0048038648,-0.030279998,4999,4999,0,3
549213626,549210880,1114122,2228234,0.00072085176,0.0069281794,-0.0008082515,0.004012256,-0.002801807,-0.14095387,5008,4980,0,3
549713951,549713542,1114122,2228234,0.0005912041,0.005523806,-0.00043445488,0.008294548,-0.003935737,-0.13911192,4965,4958,0,3
550214516,550214142,1114122,2228234,0.0031290904,-0.00068958104,2.7371065e-05,0.0037411295,-0.007732702,-0.05948039,6438,6263,0,3
551212089,551211728,1114122,2228234,-0.0013612973,0.0013060925,0.00089021196,0.011441191,-0.008959748,-0.114388265,7273,7631,0,3
551715277,551710668,1114122,2228234,0.003311566,0.0041979332,0.0009413244,0.015268425,-0.012643825,-0.04708856,5028,6078,0,3
552215830,552215458,1114122,2228234,-0.0038132588,0.006739975,0.0054039583,0.025439428,-0.004970405,-0.13571304,9996,9450,0,3
553216293,553214995,1114122,2228234,-0.0020088037,-0.0013198915,0.002452983,0.012293982,-0.0019785173,-0.01673292,4904,4884,0,3
553716464,553715233,1114122,2228234,0.0066383877,0.0032315466,0.0005269616,0.030729877,0.0013663388,-0.12776704,10028,10277,0,3
554213248,554212958,1114122,2228234,-0.0019367218,0.0012451849,0.0024739269,0.013930859,0.0010270155,-0.058592793,5026,4956,0,3
555216247,555215875,1114122,2228234,-0.0012742167,0.0006076428,0.0009449843,0.014826493,0.0019374966,-0.045084216,5027,5036,0,3
556217492,556216342,1114122,2228234,4.7554688e-05,-0.00045549707,8.5801206e-05,0.016836355,0.0028122156,-0.03969705,5068,4965,0,3
557217715,557216696,1114122,2228234,0.0031596168,0.0009959076,-0.0019560119,0.029351125,-0.0012500315,-0.08576693,9972,9966,0,3
557713130,557712347,1114122,2228234,-0.0006562924,0.0003236086,-0.0008438076,0.01572932,0.0022832905,-0.030737657,5006,5028,0,3
558212561,558212148,1114122,2228234,0.0011840983,-5.798696e-05,0.0004125431,0.014566637,-6.233387e-05,-0.04353064,4996,5063,0,3
558715080,558714848,1114122,2228234,-0.00017348994,0.00031606838,-0.0011777052,0.0145200845,-0.0006358321,-0.033745162,4993,4990,0,3
559218477,559218134,1114122,2228234,-0.005110726,-0.00061279035,0.0012968918,0.019942425,-0.006441883,-0.07213821,7963,7369,0,3
559713975,559713629,1114122,2228234,0.00010070843,2.3533305e-05,0.00019359832,0.01898477,0.00026055874,-0.04055174,5005,4949,0,3
560218726,560215490,1114122,2228234,0.0016186851,0.0002216107,-0.002432451,0.021158949,-0.00035342286,-0.053196747,4915,5021,0,3
560713621,560713212,1114122,2228234,-0.0014785883,-0.0002827049,2.1002908e-05,0.017312154,-0.005495405,-0.042220075,4949,5059,0,3
561213875,561213701,1114122,2228234,-0.00033999412,-0.0005536175,0.00024490932,0.021044282,0.0040874705,-0.039439194,5007,4967,0,3
561719580,561718633,1114122,2228234,-0.0003094983,-0.0013036446,-6.2994645e-06,0.03277569,-0.0074084816,-0.1122985,10010,10008,0,3
562711826,562711628,1114122,2228234,0.00085124176,-0.0013205436,0.0006760492,0.017057953,0.0060250163,-0.04430546,4945,6007,0,3
563214645,563214246,1114122,2228234,0.0026950096,-0.00018076472,-0.00060386304,0.01193902,-0.005019514,-0.04587787,4967,5038,0,3
563712304,563709472,1114122,2228234,-0.00019897774,-0.00068064686,0.0012700858,0.011099371,-0.00032369493,-0.040874545,4999,4992,0,3
564213244,564212216,1114122,2228234,0.00012480833,-0.0010457399,0.0010225769,0.006927817,-0.0053983717,-0.017022703,5045,4966,0,3
564715400,564709942,1114122,2228234,-0.00024112401,0.0013511401,0.00039500708,0.005900605,-0.0012426534,-0.061907575,5052,4986,0,3
565212835,565207632,1114122,2228234,-0.0015192502,0.001273576,0.00041999615,0.0027038457,-0.0045595733,-0.07057207,5030,5029,0,3
565715718,565715333,1114122,2228234,-0.0005420307,0.001121037,-0.00031687986,0.0068119075,-0.0009166677,-0.07861113,4993,4997,0,3
566713632,566713306,1114122,2228234,-0.0019813925,0.0011566569,0.0018889207,0.0033074864,-0.0072376938,-0.0577451,5056,4956,0,3
567213646,567210958,1114122,2228234,-0.0010233548,0.0013434008,8.074543e-05,0.007060226,-0.0062909797,-0.06428604,4993,4926,0,3
567722139,567718657,1114122,2228234,-0.0010078057,0.0009926717,0.0008842193,0.007073757,0.002330889,-0.049382173,4970,5031,0,3
568222038,568217866,1114122,2228234,-0.0018229033,0.0013792656,0.00022918684,0.011835662,-0.0035961987,-0.059486087,4965,4876,0,3
568712034,568711605,1114122,2228234,-0.0034248363,-0.0026778406,0.00040747627,0.008224847,-0.0027066704,-0.02870092,5041,3945,0,3
569212592,569211797,1114122,2228234,0.001996077,-0.0011951881,-0.000818508,0.01008632,0.0019760798,-0.02889925,4894,4885,0,3
569712975,569712045,1114122,2228234,-0.0007898086,-0.0012990263,-0.00047706795,0.010500701,-0.0012211339,-0.029829891,5055,4958,0,3
570215682,570214719,1114122,2228234,2.5079396e-05,-0.001569383,0.00052165444,0.0050437218,0.00018304578,-0.03430079,4817,4979,0,3
570713369,570707490,1114122,2228234,0.0016954652,-0.0010963165,-0.0006005609,0.0027089585,0.0023513758,-0.028181762,4910,4968,0,3
571215365,571215143,1114122,2228234,0.00054443476,-0.00020515923,0.00072878454,0.0012622798,-0.0032546376,-0.035780203,4998,5004,0,3
571713267,571712908,1114122,2228234,-0.00039467204,0.00096078997,0.00045809668,-0.0004943355,0.000903791,-0.064540274,4974,4956,0,3
572215975,572215659,1114122,2228234,0.00048055808,0.00061763753,0.00026993547,-0.0027261246,0.0014288027,-0.06293087,5114,5157,0,3
572713735,572710787,1114122,2228234,0.0007161781,0.0005224251,0.00044069195,-0.0029759232,0.0005810206,-0.058308654,5048,4983,0,3
573213862,573213462,1114122,2228234,0.0018237425,0.0011775437,0.00044766508,-0.0040047127,-0.005121214,-0.060541686,4964,4777,0,3
573716420,573714044,1114122,2228234,-0.0013731215,0.00048269826,0.0011451469,-0.0022735759,0.00018967816,-0.060362145,5374,5069,0,3
574216806,574216452,1114122,2228234,-0.0028963157,0.0005851297,0.00016602331,-0.0014475259,0.0012801994,-0.059156284,5022,4994,0,3
574714635,574714161,1114122,2228234,0.0026769587,0.000828944,0.0010784672,-0.0007604042,0.004198527,-0.056188576,4944,5996,0,3
575212214,575211863,1114122,2228234,-0.00459371,-6.612026e-06,0.0007535811,0.009605114,-0.0060934955,-0.1172529,4931,4944,0,3
575715615,575714496,1114122,2228234,0.00284586,0.001227388,0.00026540112,0.003704336,0.0076576085,-0.049014997,4950,5015,0,3
576212487,576212215,1114122,2228234,-0.0012297241,0.0014118621,0.0017205809,0.010874539,-0.005099944,-0.05563371,4978,5059,0,3
576716105,576710612,1114122,2228234,0.0003188846,0.0015371642,0.0014576314,0.007974697,0.0038776745,-0.064548746,5008,5115,0,3
577212870,577212638,1114122,2228234,-0.0013318448,8.248463e-05,0.0027525772,0.011230827,0.0013234649,-0.07815098,6508,7489,0,3
577716318,577712852,1114122,2228234,-0.0021822243,0.00010551023,0.0011677722,0.0054718116,-0.0016902736,-0.05470697,4983,4983,0,3
578716645,578713238,1114122,2228234,-0.0054171905,-0.0013628083,0.00036137833,0.010254008,-0.001714073,-0.075297885,4953,5015,0,3
579212570,579211009,1114122,2228234,0.003864641,0.00019979932,0.00031699162,0.0014598585,-0.0026101365,-0.025874414,5000,5000,0,3
580217187,580213895,1114122,2228234,0.0006303335,0.0005866368,0.0021015417,-3.1570497e-05,-0.0017222419,-0.04199765,5003,5003,0,3
580715481,580714165,1114122,2228234,0.001313765,0.0014063417,0.0015059112,-0.0017685029,-0.0019399332,-0.053240266,5075,5081,0,3
581217610,581212269,1114122,2228234,2.1423919e-05,0.0010448355,0.0010898003,-0.0010095799,-0.008697623,-0.0693115,5019,4977,0,3
581718692,581716986,1114122,2228234,-0.0021955953,0.00035798937,0.0021588316,-0.0042900234,-0.00092505926,-0.068995066,5002,4998,0,3
582214933,582214709,1114122,2228234,-0.0015233544,0.00031618058,0.0008167345,0.00085534196,0.0029093134,-0.06253892,5000,5000,0,3
582718919,582717452,1114122,2228234,-0.0036895187,0.0018306554,0.0008499877,-0.0008551806,-0.007954808,-0.07359366,5024,4955,0,3
583715637,583715468,1114122,2228234,0.000276392,0.00064104405,0.0025368712,-0.0069646593,-0.002629544,-0.09994427,6399,6625,0,3
584214653,584213855,1114122,2228234,0.0043794527,-0.002651621,0.002678218,-0.012796607,-0.0018584615,-0.006968604,10044,8858,0,3
584719288,584715724,1114122,2228234,-0.0003199681,-0.0006339504,0.0025566546,-0.0043890784,-0.0023213762,-0.064635724,4895,4879,0,3
585219209,585215982,1114122,2228234,0.0056184516,0.00010346838,-0.0016718422,-0.0039059897,-0.004835354,-0.013273857,4922,4905,0,3
585715355,585713856,1114122,2228234,-0.0030439445,0.00191598,0.0030391428,-0.0064811106,0.0057539106,-0.033522718,4973,4778,0,3
586211748,586211431,1114122,2228234,-0.0044787233,0.0008433378,-0.00025846722,-0.004555194,-0.0067965165,-0.070526324,5028,5120,0,3
587220059,587216742,1114122,2228234,-0.004257733,-0.0005620293,7.302253e-05,-0.009917392,-0.004519004,-0.049132336,4993,6079,0,3
587721131,587718034,1114122,2228234,0.0020513416,-4.337859e-05,-0.0013496329,-0.008633816,0.0047407043,-0.044203747,4962,4943,0,3
588220336,588217193,1114122,2228234,-0.00076190336,0.00010580872,-0.000759589,-0.002806078,-0.0018986219,-0.060412116,4965,4905,0,3
588720882,588718361,1114122,2228234,0.0015985353,0.0003323909,0.0004132648,-0.008569955,0.00095187407,-0.09535846,5034,7455,0,3
589715907,589715470,1114122,2228234,-0.00079939247,2.9481246e-06,-0.0011428597,-0.0024418985,-0.00233425,-0.08250407,5109,5129,0,3
590221507,590220507,1114122,2228234,0.00056311797,4.357898e-05,0.0011624553,-0.0019575367,-0.003592237,-0.0431255,4991,4893,0,3
590713471,590713231,1114122,2228234,-0.0015368368,0.0005283943,-0.0008934275,-0.0047517437,0.00047438714,-0.058815606,5049,4977,0,3
591222031,591221538,1114122,2228234,0.0057577416,0.0005588142,0.0042497963,-0.010483826,0.031940766,-0.15165153,15019,14700,0,3
591715219,591713621,1114122,2228234,-0.0011055149,0.00010312302,0.000108425294,-0.00932047,-0.0018694021,-0.06741185,4926,4904,0,3
592214075,592213806,1114122,2228234,0.0025271599,0.0011249394,-0.0008080615,-0.008592454,6.176874e-05,-0.069873236,5019,5027,0,3
592712029,592711590,1114122,2228234,0.0006073566,-0.00035744687,0.0006048511,-0.0068902248,-0.0066854027,-0.04261867,5064,5062,0,3
593208219,593207804,1114122,2228234,0.002140328,-0.00015870733,-0.0006398492,-0.008288388,-0.004865666,-0.054507963,5005,5211,0,3
594712843,594712367,1114122,2228234,-0.0041089603,-0.0014553805,0.0019158835,-0.007959154,0.0025207403,-0.071169294,4967,5060,0,3
595715856,595715417,1114122,2228234,0.0020428947,-0.00019382415,-0.0008493594,-0.012502941,0.0035895617,-0.08693158,5084,4974,0,3
596213698,596209375,1114122,2228234,-0.0048703803,0.0029575422,0.0021409984,-0.0141627295,-0.008941585,-0.16836232,5003,7462,0,3
596714296,596708269,1114122,2228234,0.0030996415,0.002514201,-0.0017108389,-0.0025398068,-7.587691e-05,-0.0802201,5105,4202,0,3
597215018,597213393,1114122,2228234,0.0019121557,-0.0016308561,0.0013480571,-0.0005266898,0.002676953,-0.017029675,5016,5004,0,3
597714004,597713587,1114122,2228234,-0.0012990909,-0.0017579588,-0.00080865336,0.0015661113,-0.0008125534,-0.03992927,5021,5028,0,3
598214317,598213873,1114122,2228234,0.0006064674,-0.0017626883,0.0017729516,0.00033419058,-0.0012553459,-0.031169,5031,5001,0,3
598715155,598714027,1114122,2228234,-0.0009404094,-0.0004648282,-0.0026085186,0.0074382075,-0.009373261,-0.04477824,4980,6020,0,3
599211911,599211710,1114122,2228234,0.0033143968,0.0007147716,0.00017600857,0.0024260522,0.010034499,-0.05444121,5016,4949,0,3
599715099,599711873,1114122,2228234,-0.0026526966,0.00018306622,0.0013618412,0.006814056,-0.00090566115,-0.06645142,5007,5002,0,3
600215479,600212078,1114122,2228234,-0.003421387,0.0009936325,-0.00033152747,0.0033653693,-0.0064183273,-0.056840435,5001,4997,0,3
600715730,600714821,1114122,2228234,0.00038190628,-0.0024562,0.0021797947,-0.008414208,0.03114941,-0.07540669,10021,10018,0,3
601215993,601215807,1114122,2228234,-0.0036495922,0.0021444003,-0.0025028049,-0.010509411,-0.0041130926,-0.091555774,10010,9450,0,3
601713183,601712700,1114122,2228234,0.0026445938,0.00067221624,-0.0011281397,-0.0051649828,0.004899185,-0.09515469,6406,7554,0,3
602216463,602212904,1114122,2228234,0.0022228544,0.0001712946,0.0011669109,-0.0017980873,-0.0035456861,-0.04620004,5007,5010,0,3
602716450,602715880,1114122,2228234,-0.0039476543,0.00024341351,-0.0012585082,-0.012956416,-0.0021259047,-0.05713228,7745,7464,0,3
603216823,603213352,1114122,2228234,-0.0010092217,0.0015601228,0.0013484812,0.00019792473,-0.0013929819,-0.06942066,4998,4920,0,3
604214261,604213850,1114122,2228234,0.0021654246,0.00012224424,0.0007011251,-0.0053716996,0.002076939,-0.042742945,5083,5175,0,3
604714537,604714072,1114122,2228234,-0.0010721453,-0.0022406103,-0.0023022706,0.0005688134,0.0033617585,-0.07139111,4767,5029,0,3
605217552,605216708,1114122,2228234,-0.0015935276,-0.0011282397,0.00097642915,0.0033161792,0.0007956721,-0.052683745,5060,4986,0,3
605714822,605714515,1114122,2228234,0.0007991695,-9.6216405e-05,-0.00045111173,0.0027174684,8.2073086e-05,-0.04636466,5143,5057,0,3
606217981,606214582,1114122,2228234,0.00050143665,0.0005644383,0.00017679606,0.022247864,0.018900422,-0.0585333,4911,4905,0,3
606715077,606714835,1114122,2228234,0.0016096105,-0.00063412235,-0.0021710217,0.008601432,-0.016913556,-0.045479096,4906,4979,0,3
607213050,607209998,1114122,2228234,-0.0011829644,-0.0010858427,-4.3319662e-05,0.01822035,-0.027871994,-0.0237474,4942,5034,0,3
608213322,608210523,1114122,2228234,-0.003966758,-0.0005305316,-0.0012691253,0.03253184,-0.015766837,-0.06127728,5098,5040,0,3
609219303,609215839,1114122,2228234,0.0008978572,0.0013104627,-0.00018983017,0.0049390434,-0.0027561702,-0.036615912,4955,5030,0,3
609708956,609707144,1114122,2228234,-0.0066905287,-0.003493954,0.002045895,0.012904671,-0.003979211,-0.038486704,4994,4966,0,3
610219593,610216274,1114122,2228234,0.0045917537,0.00035524694,0.0005057889,0.025772875,0.031494882,-0.07199162,4986,4979,0,3
610719856,610719014,1114122,2228234,0.0035978511,0.0055918945,-0.004111327,0.052145515,-0.012096972,-0.2373683,9927,9908,0,3
611214649,611214251,1114122,2228234,0.004797767,0.00092031184,-0.0005746903,0.009616734,0.0028078277,-0.09020519,5028,5025,0,3
611712167,611711927,1114122,2228234,0.016018448,-0.00230733,0.002229517,0.037984464,0.023054736,-0.014113275,5031,4928,0,3
612215082,612214634,1114122,2228234,0.035030637,0.0008956048,0.008914178,0.03508792,0.035228424,-0.21258068,4990,5067,0,3
612714016,612712362,1114122,2228234,0.009529663,0.005864965,0.003673696,0.009339771,0.022034332,-0.31769997,5026,5038,0,3
613221526,613217578,1114122,2228234,-0.02542867,-0.004771991,-0.0027389287,0.05025204,0.026327023,-0.2844231,4995,4939,0,3
613711625,613710441,1114122,2228234,-0.03440821,-0.0023508652,-0.011924165,-0.059529573,-0.06680764,0.11014506,4980,4952,0,3
614221784,614221657,1114122,2228234,-0.002645462,-0.0037064885,0.00040002525,0.018522726,0.02303024,-0.013744815,6163,6189,0,3
615221783,615220954,1114122,2228234,-0.013329453,-0.0030735703,0.00013616034,-0.021385696,0.06322358,-0.013290959,9000,9978,0,3
616214130,616211360,1114122,2228234,-0.0074612875,0.0015993563,0.00091074983,0.013255145,-0.006689085,-0.023938103,5021,4962,0,3
616714500,616714211,1114122,2228234,0.0036841878,-3.922336e-06,-0.00093632686,0.0041412483,0.0048008035,-0.057597555,5004,4996,0,3
617213624,617211757,1114122,2228234,-0.00057229964,-0.0011614035,-0.0010785267,0.005656401,0.002547983,-0.04215533,4963,4923,0,3
617712661,617712086,1114122,2228234,0.004003043,-0.019190373,0.0016741338,-0.0038557725,-0.0056337663,-0.0671287,5112,5127,0,3
618212604,618212241,1114122,2228234,0.0015203349,0.0034739326,-0.0018113245,-0.023168497,-0.0039531146,-0.029771375,5043,5050,0,3
618712976,618712598,1114122,2228234,-0.0005447542,-0.00020761995,-0.0001569027,0.006579645,0.006090485,-0.03843498,5167,5058,0,3
619216153,619215270,1114122,2228234,-0.00015012475,-5.1645235e-05,-4.915878e-05,0.00021779262,0.007921622,-0.0495405,5100,5085,0,3
619715630,619715391,1114122,2228234,-7.608034e-05,-1.1323372e-05,-9.759086e-05,0.0010293217,0.007069557,-0.049218494,5028,5021,0,3
620214281,620213087,1114122,2228234,-0.00018114824,-2.0508154e-05,-5.000082e-05,0.0007011794,0.007316862,-0.049833983,4967,4963,0,3
620713731,620710813,1114122,2228234,-5.5657238e-05,-8.36704e-05,-0.00011590454,-0.00010034845,0.008043534,-0.049785435,4978,4973,0,3
621214165,621213599,1114122,2228234,-0.0001248021,-3.3113025e-05,-0.00013120528,0.0005818321,0.008394497,-0.04830525,5051,4980,0,3
621713027,621711290,1114122,2228234,-6.4323634e-05,-0.00010062843,-9.3185285e-05,0.00019992398,0.008302318,-0.049688794,5023,5047,0,3
622216641,622211508,1114122,2228234,-3.4541663e-05,-1.5385127e-05,-9.998312e-05,0.0011713165,0.008873035,-0.051083498,4996,5063,0,3
622712363,622709455,1114122,2228234,-0.00014572189,-4.108999e-05,-8.588248e-05,0.00041154044,0.008520938,-0.047844794,5168,4972,0,3
623212284,623211974,1114122,2228234,-0.00012961472,-8.179762e-05,-0.00012128794,0.00060750067,0.008184621,-0.050402306,5046,5049,0,3
623715156,623714713,1114122,2228234,-0.00013187088,-3.1629977e-05,-2.8191755e-05,0.0010316381,0.007939498,-0.04943881,5040,5058,0,3
624215162,624209962,1114122,2228234,-0.000101405254,-5.6000055e-05,-5.179113e-05,0.00095792307,0.0071147257,-0.049683373,5049,5079,0,3
624715555,624715138,1114122,2228234,-8.330978e-05,-8.38493e-05,3.0967276e-05,0.0012925745,0.0076291086,-0.049107555,4952,4956,0,3
625210766,625210346,1114122,2228234,-9.425925e-05,-8.0749734e-05,-3.44977e-05,0.0011770852,0.008139727,-0.049417343,4969,5042,0,3
626716501,626716067,1114122,2228234,-6.3422805e-05,-3.6641108e-05,-5.974252e-05,1.0524273e-05,0.0074560945,-0.050624624,4997,5065,0,3
627216933,627213872,1114122,2228234,-3.833618e-05,-5.757146e-05,-3.810748e-05,0.0011102491,0.008139995,-0.050468627,5071,5154,0,3
627711950,627711547,1114122,2228234,-0.00013187838,-6.419259e-05,-6.90934e-05,0.00042157705,0.007770641,-0.04908,4985,5063,0,3
628214741,628212062,1114122,2228234,-0.00014636281,-6.133975e-05,-6.415838e-05,-0.0002797409,0.0074334643,-0.049580444,5003,4946,0,3
628715089,628714661,1114122,2228234,-7.950027e-05,-5.256456e-05,-8.7560315e-05,0.001351103,0.0069393716,-0.050643492,5137,5116,0,3
629212601,629207246,1114122,2228234,-8.997841e-05,-3.1176987e-05,-3.270095e-05,0.0012954051,0.009836787,-0.05872012,5033,5942,0,3
630215484,630215223,1114122,2228234,-0.00010318195,-0.00012426717,-3.583101e-05,0.0005408115,0.0073724133,-0.049055327,5012,4943,0,3
630715762,630712977,1114122,2228234,-0.000103451115,-8.2503015e-05,-5.3262494e-05,-0.00024206052,0.0079647275,-0.04941746,5035,5094,0,3
631215938,631215697,1114122,2228234,-6.127176e-05,-4.2388692e-05,-9.727765e-05,0.0011912925,0.009210474,-0.059954833,5020,5998,0,3
631711166,631710949,1114122,2228234,-0.00017267771,-4.7044974e-05,-4.0120198e-05,0.0006061411,0.01103206,-0.07421824,6097,7461,0,3
632211578,632211199,1114122,2228234,-7.868476e-05,-1.7933116e-05,-8.49679e-05,0.0013700707,0.0083454065,-0.0492008,5050,4981,0,3
632714370,632711524,1114122,2228234,-0.00010059529,-5.4283904e-05,-6.926983e-05,0.00032711474,0.007874459,-0.05074864,5129,5155,0,3
633214562,633214166,1114122,2228234,-0.00013519553,-8.6692686e-05,-6.640424e-05,0.0009049082,0.007825342,-0.049617957,5016,5015,0,3
633712327,633711984,1114122,2228234,-0.0001951792,-5.390422e-05,-1.4956455e-05,0.001092818,0.0072431397,-0.049932893,5110,5139,0,3
634212404,634212144,1114122,2228234,-9.255803e-05,-5.170038e-05,-1.9894911e-05,0.0013796145,0.0070823077,-0.04875525,4914,4928,0,3
634715342,634714945,1114122,2228234,-7.783651e-05,-1.4145196e-05,-7.090296e-05,0.00097407325,0.0077837557,-0.050739,5085,5103,0,3
635212848,635212594,1114122,2228234,-6.64556e-05,-6.155301e-05,-3.3292556e-05,0.0014305405,0.007719894,-0.049163364,4929,4935,0,3
635713433,635712974,1114122,2228234,-6.6458895e-05,-3.547784e-05,-0.00012253037,0.0005629501,0.0077351183,-0.049882922,5131,5050,0,3
636213517,636210643,1114122,2228234,-8.46052e-05,-4.7003177e-05,-2.8499482e-05,0.0009813529,0.00784233,-0.05069549,5056,5109,0,3
637214084,637213668,1114122,2228234,-7.9981546e-05,-3.7327674e-05,-5.6073517e-05,0.0003084643,0.0075727804,-0.050162494,5084,5107,0,3
637716922,637716433,1114122,2228234,-0.000106671265,-6.995647e-05,-1.9572213e-05,-5.024634e-05,0.008466961,-0.049189053,5068,4943,0,3
638215034,638214138,1114122,2228234,-9.5388066e-05,-8.487253e-05,-2.4369037e-05,0.00048013954,0.0074532684,-0.048455887,4978,4908,0,3
638712221,638711842,1114122,2228234,-8.5294916e-05,-1.8856921e-05,-5.9615475e-05,0.00064713013,0.0075439257,-0.05072594,5012,5055,0,3
639212822,639207096,1114122,2228234,-9.187807e-05,-1.5933772e-05,-3.5891437e-05,0.0005519855,0.007577293,-0.049757026,4726,5008,0,3
639712752,639709916,1114122,2228234,-0.00012311057,-4.7703525e-05,-7.207336e-05,0.00065086834,0.008731077,-0.049481783,5060,5008,0,3
640216356,640215134,1114122,2228234,-0.00014954348,-6.678889e-05,-1.1669953e-05,0.0009919867,0.0068553896,-0.049693882,4934,4917,0,3
640715894,640712954,1114122,2228234,-0.00015236191,-8.453905e-05,-4.3370772e-05,0.0011913637,0.0074613816,-0.050234944,5090,5083,0,3
641215895,641215609,1114122,2228234,-0.0001088008,-3.8916816e-05,-4.3032673e-05,0.0014130152,0.007345084,-0.04974853,4885,4968,0,3
642214044,642213630,1114122,2228234,-0.000107217485,-1.5705327e-05,-0.00012602907,0.0011493539,0.0068002907,-0.03873157,4989,3963,0,3
642714209,642711450,1114122,2228234,-8.920595e-05,-4.2183194e-05,5.7668494e-05,-8.605525e-05,0.0077830986,-0.050835907,5109,5127,0,3
643214803,643214222,1114122,2228234,-4.1231902e-05,-5.446233e-05,-4.431043e-05,0.0005702586,0.008505689,-0.048808843,5125,5043,0,3
643714891,643714696,1114122,2228234,-1.7343968e-05,-6.191847e-05,-7.440168e-05,0.00057479454,0.009060335,-0.048302922,5012,5002,0,3
644212366,644212093,1114122,2228234,-6.7128305e-05,-5.3658976e-05,-3.5922993e-05,0.00067519915,0.009124978,-0.048815846,4966,5032,0,3
644710400,644709856,1114122,2228234,-1.3996688e-05,-4.1377312e-05,-6.0540708e-05,0.00031242537,0.008283149,-0.049129643,5006,5007,0,3
645212836,645212613,1114122,2228234,-8.6260596e-05,-7.6158554e-05,1.3760917e-05,0.00094422244,0.009351054,-0.047959503,4986,4983,0,3
645715848,645715415,1114122,2228234,-0.00011023626,-5.2569823e-05,-4.0272254e-05,0.00054380886,0.008484563,-0.048216738,5005,5009,0,3
646713653,646713396,1114122,2228234,-3.2320128e-05,-3.527959e-05,-3.1354437e-05,0.0017856784,0.008308524,-0.04820506,4945,5048,0,3
647214191,647213785,1114122,2228234,-8.9165886e-05,-5.2995118e-05,-4.722793e-05,0.00067418796,0.008468134,-0.049266707,5151,5067,0,3
647711870,647711477,1114122,2228234,-0.000112343216,-3.9066075e-05,-8.0336475e-05,0.0011937459,0.0077685895,-0.048960973,5067,4993,0,3
648215101,648214287,1114122,2228234,-8.2835424e-05,-6.0594855e-05,-7.380097e-05,0.0004404438,0.008982202,-0.047988504,5015,4926,0,3
648714909,648714521,1114122,2228234,-9.975684e-05,-2.0174339e-05,-6.733227e-05,0.0005902093,0.007923701,-0.049650427,4991,4989,0,3
