timestamp,accel_device_id,gyro_device_id,accel_clipping[0],accel_clipping[1],accel_clipping[2],accel_error_count,gyro_error_count,accel_rate_hz,gyro_rate_hz,accel_raw_rate_hz,gyro_raw_rate_hz,accel_vibration_metric,gyro_vibration_metric,gyro_coning_vibration,mean_accel[0],mean_accel[1],mean_accel[2],mean_gyro[0],mean_gyro[1],mean_gyro[2],temperature_accel,temperature_gyro
394703260,2162698,2162698,0,0,0,0,0,399.68027,399.68027,1027.7493,7993.605,0.00025780668,1.5598194e-05,1.1434806e-09,1.5076914,0.17510697,-9.594889,-0.011931695,-0.0035788442,0.008028254,52.76529,52.76529
394803366,2162698,2162698,0,0,0,0,0,399.68027,399.68027,1027.7493,7993.605,0.00024114328,1.506135e-05,9.892464e-10,1.5657722,0.17406903,-9.593848,0.0033978168,-0.0033833333,0.0009162266,52.76529,52.76529
395704309,2162698,2162698,0,0,0,0,0,399.68027,399.68027,1027.7493,7993.605,0.00023354491,1.3014931e-05,8.7395285e-10,1.5703429,0.16358028,-9.606054,0.0053808033,-0.0059644487,0.01572488,52.671165,52.671165
396619796,2162698,2162698,0,0,0,0,0,399.68027,399.68027,1027.7493,7993.605,0.00026563916,1.5370364e-05,1.2471746e-09,1.5761737,0.25129128,-9.59971,0.040353466,-0.004933697,0.01465347,52.76529,52.76529
397625669,2162698,2162698,0,0,0,0,0,399.68027,399.68027,1027.7493,7993.605,0.00031425685,1.2139064e-05,6.62552e-10,1.5363605,0.20068333,-9.592553,0.0004254045,-0.004843738,0.0091157975,52.812366,52.812366
398626500,2162698,2162698,0,0,0,0,0,399.68027,399.68027,1027.7493,7993.605,0.00024729184,1.1577413e-05,5.6174737e-10,1.5284746,0.20759192,-9.585385,0.0032408978,-0.0041719517,0.0033567282,52.718254,52.718254
399632406,2162698,2162698,0,0,0,0,0,399.68027,399.68027,1027.7493,7993.605,0.00028581932,1.7596223e-05,1.6989786e-09,1.5186279,0.29592854,-9.599727,0.0041827215,-0.0019401587,-0.0041520847,52.812366,52.812366
400658154,2162698,2162698,0,0,0,0,0,399.68027,399.68027,1027.7493,7993.605,0.00032597294,2.2411528e-05,2.9574088e-09,1.5036445,0.13670869,-9.58068,-0.026548145,-0.002006351,-0.008565019,52.718254,52.718254
401668900,2162698,2162698,0,0,0,0,0,399.68027,399.68027,1027.7493,7993.605,0.0003376735,1.744003e-05,1.5192538e-09,1.5681818,0.15769443,-9.599911,-0.014007169,-0.0061745825,0.017985936,52.76529,52.76529
402669728,2162698,2162698,0,0,0,0,0,399.68027,399.68027,1027.7493,7993.605,0.00030360458,1.4097018e-05,9.0378877e-10,1.5606294,0.2037215,-9.622596,0.0027255584,-0.0033273618,0.009565076,52.718254,52.718254
403670575,2162698,2162698,0,0,0,0,0,399.68027,399.68027,1027.7493,7993.605,0.0002957606,1.5370517e-05,1.1334016e-09,1.5720452,0.1378095,-9.606384,0.0065810904,-0.0055072457,0.011058071,52.718254,52.718254
404676474,2162698,2162698,0,0,0,0,0,399.68027,399.68027,1027.7493,7993.605,0.00026835632,1.2935174e-05,7.0180056e-10,1.540644,0.18199837,-9.589394,0.012941248,-0.0032662686,0.0067633237,52.812366,52.812366
405692213,2162698,2162698,0,0,0,0,0,399.68027,399.68027,1027.7493,7993.605,0.00030735406,1.2958015e-05,6.90225e-10,1.5236068,0.16940147,-9.595723,-0.00893305,-0.0039147306,0.011353294,52.624134,52.624134
406703062,2162698,2162698,0,0,0,0,0,399.68027,399.68027,1027.7493,7993.605,0.00031286577,1.8844938e-05,1.5287283e-09,1.4990526,0.16543655,-9.594921,0.004575259,-0.0028900732,0.0127748335,52.624134,52.624134
407713958,2162698,2162698,0,0,0,0,0,399.68027,399.68027,1027.7493,7993.605,0.00026582333,1.7321518e-05,1.4627656e-09,1.5646751,0.085443676,-9.603397,-0.025383947,-0.0042461217,-0.004040786,52.624134,52.624134
408619598,2162698,2162698,0,0,0,0,0,399.68027,399.68027,1027.7493,7993.605,0.00026486279,1.498624e-05,1.162944e-09,1.5395682,0.18325104,-9.616188,0.020611482,-0.0024089809,-0.0017990178,52.624134,52.624134
409620413,2162698,2162698,0,0,0,0,0,399.68027,399.68027,1027.7493,7993.605,0.00028502924,1.2917627e-05,7.3983786e-10,1.5301572,0.1824185,-9.585698,0.0046533975,-0.0021978677,0.0035253225,52.624134,52.624134
410621346,2162698,2162698,0,0,0,0,0,399.68027,399.68027,1027.7493,7993.605,0.00025665088,1.2017941e-05,5.780082e-10,1.5489565,0.16010517,-9.612314,-0.005534375,-0.0038647486,0.0070814127,52.624134,52.624134
412632851,2162698,2162698,0,0,0,0,0,399.68027,399.68027,1027.7493,7993.605,0.00026135374,1.3829111e-05,7.980222e-10,1.5131478,0.13221215,-9.601859,-0.0033963902,-0.002822852,0.0008131898,52.624134,52.624134
413643696,2162698,2162698,0,0,0,0,0,399.68027,399.68027,1027.7493,7993.605,0.00029382305,1.330657e-05,7.3078205e-10,1.542166,0.12916218,-9.605477,0.00031183907,-0.0028432522,0.0027586427,52.530018,52.530018
414659574,2162698,2162698,0,0,0,0,0,399.68027,399.68027,1027.7493,7993.605,0.00030587392,1.3938048e-05,7.5585194e-10,1.5667447,0.13976102,-9.608662,0.0011632921,-0.005397413,0.011565631,52.624134,52.624134
415670312,2162698,2162698,0,0,0,0,0,399.68027,399.68027,1027.7493,7993.605,0.0004347178,1.610895e-05,7.2148904e-10,1.5270572,0.13167396,-9.604885,-0.0021747795,-0.003000397,0.0030636876,52.624134,52.624134
418672824,2162698,2162698,0,0,0,0,0,399.68027,399.68027,1027.7493,7993.605,0.00041692646,2.199896e-05,1.7566839e-09,1.5064712,0.081875436,-9.602525,-0.01457343,-0.000619646,-0.0011582954,52.718254,52.718254
420699638,2162698,2162698,0,0,0,0,0,399.68027,399.68027,1027.7493,7993.605,0.00043421294,1.8141682e-05,1.5739272e-09,1.522609,0.22929713,-9.611415,0.005091333,-0.0067043956,0.017171722,52.718254,52.718254
421715261,2162698,2162698,0,0,0,0,0,399.68027,399.68027,1027.7493,7993.605,0.00056522194,2.4400573e-05,2.1201245e-09,1.5144407,0.28558862,-9.58494,0.008333881,-0.0057719764,0.020671345,52.718254,52.718254
422631048,2162698,2162698,0,0,0,0,0,399.68027,399.68027,1027.7493,7993.605,0.00053706963,2.0443376e-05,1.872696e-09,1.5635941,0.17805474,-9.594768,-0.01966079,-0.0076584155,0.023666736,52.624134,52.624134
423646833,2162698,2162698,0,0,0,0,0,399.68027,399.68027,1027.7493,7993.605,0.0004964021,1.8977133e-05,1.4428796e-09,1.5295179,0.2380887,-9.600854,0.016684309,-0.0021695509,-0.007811032,52.718254,52.718254
424652733,2162698,2162698,0,0,0,0,0,399.68027,399.68027,1027.7493,7993.605,0.0029308556,0.00018132672,2.4278123e-08,1.5453535,0.27827546,-9.633971,-0.011837464,-0.0031984064,0.018774789,52.624134,52.624134
425668532,2162698,2162698,0,0,0,0,0,399.68027,399.68027,1027.7493,7993.605,0.010692048,0.00060058926,1.635795e-07,2.3736722,0.23227607,-9.060356,0.077141,-0.0020141667,-0.046868145,52.530018,52.530018
427690095,2162698,2162698,0,0,0,0,0,399.68027,399.68027,1027.7493,7993.605,0.018698663,0.0011841987,9.5103104e-07,6.0310235,-0.1268883,-9.402208,-0.18906215,-0.00936027,0.011661826,51.824104,51.824104
428695890,2162698,2162698,0,0,0,0,0,399.68027,399.68027,1027.7493,7993.605,0.011550357,0.00054427003,6.59567e-07,5.1309834,0.40671694,-12.556778,0.013489667,0.17723691,-0.25022092,51.49472,51.49472
429706884,2162698,2162698,0,0,0,0,0,399.68027,399.68027,1027.7493,7993.605,0.010524943,0.00038594895,5.468243e-07,3.9636955,-0.43652454,-10.984077,0.18385474,0.075141,0.026347186,50.88294,50.88294
430623113,2162698,2162698,0,0,0,0,0,399.68027,399.68027,1027.7493,7993.605,0.010298055,0.00038595495,2.947286e-07,3.6024277,-0.15478148,-6.7967896,0.245386,-0.055787772,0.21152769,50.647675,50.647675
431648334,2162698,2162698,0,0,0,0,0,399.68027,399.68027,1027.7493,7993.605,0.009956713,0.00037484898,5.391459e-07,3.5902426,0.2879211,-8.408761,-0.31842968,-0.108936265,0.1959742,50.224117,50.224117
432674753,2162698,2162698,0,0,0,0,0,399.68027,399.68027,1027.7493,7993.605,0.00950741,0.00034630063,3.4139393e-07,3.0363648,0.57951653,-8.305319,-0.021994747,-0.10764348,0.07922503,49.894684,49.894684
433689809,2162698,2162698,0,0,0,0,0,399.68027,399.68027,1027.7493,7993.605,0.008561734,0.0003424074,3.3189934e-07,3.4058056,0.5648469,-10.863766,-0.027401412,0.026482992,-0.34822643,49.4241,49.4241
434716445,2162698,2162698,0,0,0,0,0,399.68027,399.68027,1027.7493,7993.605,0.009288198,0.0003707815,4.5179928e-07,2.7881248,-1.4957207,-9.660714,0.2309651,-0.047121216,-0.13352443,49.04763,49.04763
435641056,2162698,2162698,0,0,0,0,0,399.68027,399.68027,1027.7493,7993.605,0.008417467,0.00037254635,4.2208802e-07,1.5879424,-0.019761158,-9.682817,0.22488402,0.037188232,0.14201397,48.671165,48.671165
436651777,2162698,2162698,0,0,0,0,0,399.68027,399.68027,1027.7493,7993.605,0.008377504,0.0003276783,4.67457e-07,1.4474434,0.5698757,-15.277807,0.11057674,0.45310506,0.18078668,48.247658,48.247658
437667663,2162698,2162698,0,0,0,0,0,399.68027,399.68027,1027.7493,7993.605,0.008541106,0.0003824105,6.1868616e-07,1.2205453,0.52380353,-12.02586,0.26045713,0.0327409,0.11167529,47.91822,47.91822
438673117,2162698,2162698,0,0,0,0,0,399.68027,399.68027,1027.7493,7993.605,0.011007566,0.00045281285,8.3107034e-07,1.5874374,0.3459019,-7.957633,-0.58275145,-0.19138037,0.41838416,47.54175,47.54175
439689802,2162698,2162698,0,0,0,0,0,399.68027,399.68027,1027.7493,7993.605,0.010143816,0.0004399508,7.877997e-07,1.6543326,-0.06867767,-11.623354,-0.5605369,0.06343502,0.36490154,47.259403,47.259403
440699508,2162698,2162698,0,0,0,0,0,399.68027,399.68027,1027.7493,7993.605,0.010180311,0.0005037141,1.0911965e-06,-2.4518807,-1.2158254,-10.332372,-0.83516324,-0.054529466,-0.08401344,46.88294,46.88294
441620280,2162698,2162698,0,0,0,0,0,399.68027,399.68027,1027.7493,7993.605,0.011071485,0.000484609,1.0677053e-06,-2.292085,-0.3780837,-8.488879,-0.6402699,-0.06842773,-0.026188456,46.788822,46.788822
442641590,2162698,2162698,0,0,0,0,0,399.68027,399.68027,1027.7493,7993.605,0.0096540805,0.0004468399,1.3696846e-06,2.6085138,-3.0946317,-8.94074,0.9795616,0.3130367,0.10454854,46.788822,46.788822
443652268,2162698,2162698,0,0,0,0,0,399.68027,399.68027,1027.7493,7993.605,0.008717851,0.00039916005,1.6611917e-06,1.9787043,1.8131967,-16.828356,0.14470446,0.48208132,0.29863578,46.318233,46.318233
444667300,2162698,2162698,0,0,0,0,0,399.68027,399.68027,1027.7493,7993.605,0.009829431,0.0003791225,1.0747068e-06,1.1524881,-0.13745892,-12.332946,0.7071875,0.17631966,0.08359232,46.224117,46.224117
445693433,2162698,2162698,0,0,0,0,0,399.68027,399.68027,1027.7493,7993.605,0.01113095,0.000483899,5.979186e-07,1.8039591,-0.7797785,-8.415692,-0.2613089,-0.06409895,0.056411013,45.847652,45.847652
446614658,2162698,2162698,0,0,0,0,0,399.68027,399.68027,1027.7493,7993.605,0.009943332,0.00046503192,5.5167743e-07,1.8458414,-0.3295823,-11.161063,0.20339192,-0.0236809,-0.17616025,45.565304,45.565304
447639111,2162698,2162698,0,0,0,0,0,399.68027,399.68027,1027.7493,7993.605,0.008778498,0.0003644291,3.6621395e-07,1.3588437,-0.5392266,-11.346286,0.00031002177,0.1069635,0.22839424,45.377068,45.377068
448675369,2162698,2162698,0,0,0,0,0,399.68027,399.68027,1027.7493,7993.605,0.01015953,0.00037672798,3.7114964e-07,0.9533208,0.10648058,-10.0664625,-0.0029667567,0.088356875,0.22631413,45.047634,45.047634
449695835,2162698,2162698,0,0,0,0,0,399.68027,399.68027,1027.7493,7993.605,0.009289213,0.00039496756,5.6697144e-07,0.6904446,0.66529554,-10.717224,0.09159051,0.06766647,-0.026694795,44.81237,44.81237
450710846,2162698,2162698,0,0,0,0,0,399.68027,399.68027,1027.7493,7993.605,0.009779592,0.00038239537,3.489516e-07,0.37826362,-0.577937,-10.382944,-0.29361808,-0.037079398,0.12658247,44.53002,44.53002
451631476,2162698,2162698,0,0,0,0,0,399.68027,399.68027,1027.7493,7993.605,0.008885009,0.00040367382,3.323862e-07,0.15307023,0.3209152,-9.297712,0.18964687,0.020229382,0.070633166,44.34177,44.34177
452652077,2162698,2162698,0,0,0,0,0,399.68027,399.68027,1027.7493,7993.605,0.010845952,0.00041490447,2.4280075e-07,0.2218323,-0.5948685,-10.275338,-0.007122964,-0.020288559,0.034071364,44.05942,44.05942
453678330,2162698,2162698,0,0,0,0,0,399.68027,399.68027,1027.7493,7993.605,0.011589558,0.00047150312,3.3967e-07,0.15210593,0.3149309,-8.733189,0.13459241,0.008503713,0.07035043,43.72999,43.72999
454693200,2162698,2162698,0,0,0,0,0,399.68027,399.68027,1027.7493,7993.605,0.0112114055,0.00045784315,4.8480763e-07,0.3508487,-0.18713202,-9.703885,0.17825812,0.039413944,0.10511889,43.682957,43.682957
455713782,2162698,2162698,0,0,0,0,0,399.68027,399.68027,1027.7493,7993.605,0.011492795,0.0004997626,7.8906004e-07,0.8567429,-1.3718064,-12.532215,-0.086125575,0.044689793,0.09688066,43.400604,43.400604
456634280,2162698,2162698,0,0,0,0,0,399.68027,399.68027,1027.7493,7993.605,0.010312754,0.00039566375,5.2103513e-07,-0.23560522,-0.06247024,-9.00402,-0.17903818,-0.02462327,0.35971364,43.21237,43.21237
457654820,2162698,2162698,0,0,0,0,0,399.68027,399.68027,1027.7493,7993.605,0.010983284,0.0004053602,6.674572e-07,0.39732504,0.4106592,-20.802917,0.39366218,0.46767426,0.12009556,43.118256,43.118256
458680489,2162698,2162698,0,0,0,0,0,399.68027,399.68027,1027.7493,7993.605,0.012248878,0.00054341165,1.9823174e-06,1.8057665,-1.8294554,-22.358799,-1.3705848,0.2527169,0.44724864,43.02414,43.02414
459701006,2162698,2162698,0,0,0,0,0,399.68027,399.68027,1027.7493,7993.605,0.012330039,0.00047566983,1.4125418e-06,-0.7410701,1.160025,-5.0340147,-0.2670506,-0.117214695,0.4220713,42.788822,42.788822
460622655,2162698,2162698,0,0,0,0,0,399.68027,399.68027,1027.7493,7993.605,0.012310582,0.0005019002,8.587356e-07,-0.7894039,0.29752964,-8.499339,-0.11570147,-0.13733049,0.28834412,42.64767,42.64767
461642133,2162698,2162698,0,0,0,0,0,399.68027,399.68027,1027.7493,7993.605,0.011082441,0.0006270494,1.2701391e-06,-1.8007991,-0.36738503,-14.272502,0.47082752,0.15648727,0.5746378,42.5535,42.5535
462657600,2162698,2162698,0,0,0,0,0,399.68027,399.68027,1027.7493,7993.605,0.0108477315,0.0007431895,2.1175294e-06,-1.2544739,-0.7994662,-20.672215,0.1512377,0.5561804,0.35340938,42.365273,42.365273
463668297,2162698,2162698,0,0,0,0,0,399.68027,399.68027,1027.7493,7993.605,0.009895201,0.00063052744,1.1049129e-06,-1.6261814,-0.2886351,-7.174731,-0.3477558,-0.16472116,0.38085097,42.271156,42.271156
464694492,2162698,2162698,0,0,0,0,0,399.68027,399.68027,1027.7493,7993.605,0.009545166,0.000641808,8.7764624e-07,-1.5749927,0.29900435,-7.083736,0.436027,0.12197251,0.26898897,42.13,42.13
465709327,2162698,2162698,0,0,0,0,0,399.68027,399.68027,1027.7493,7993.605,0.012460327,0.0005726466,6.954925e-07,-0.7309733,0.50765765,-19.346302,-0.21008986,-0.043122273,0.21627584,42.17704,42.17704
466625842,2162698,2162698,0,0,0,0,0,399.68027,399.68027,1027.7493,7993.605,0.012581864,0.00058401574,1.1166624e-06,-0.7396751,0.70842683,-14.470946,-0.39684072,0.3955801,-0.052650716,41.894688,41.894688
467645358,2162698,2162698,0,0,0,0,0,399.68027,399.68027,1027.7493,7993.605,0.013262881,0.000695586,3.1830675e-06,-1.3511257,-2.9590662,-2.9749808,0.47314933,0.005448844,-0.8039456,41.800568,41.800568
469691696,2162698,2162698,0,0,0,0,0,399.68027,399.68027,1027.7493,7993.605,0.0097382255,0.0005170457,2.214752e-06,-1.9196316,0.9735891,-4.1490602,-0.04255354,-0.30713466,0.75149715,41.70645,41.70645
471632426,2162698,2162698,0,0,0,0,0,399.68027,399.68027,1027.7493,7993.605,0.010489259,0.0005805705,2.6373611e-06,-5.729257e-05,-2.4366405,-11.753775,-1.0230119,0.13723984,-0.31564543,41.706455,41.706455
473673459,2162698,2162698,0,0,0,0,0,399.68027,399.68027,1027.7493,7993.605,0.009545468,0.00043784396,1.2334187e-06,-0.56141335,-0.18628433,-3.3657694,-0.75923866,-0.220993,0.271465,41.612335,41.612335
475714491,2162698,2162698,0,0,0,0,0,399.68027,399.68027,1027.7493,7993.605,0.010926383,0.00051882636,1.1735443e-06,-1.1967262,-0.4657482,-17.288961,-0.16190146,0.72914284,-0.21719785,41.61234,41.61234
476635180,2162698,2162698,0,0,0,0,0,399.68027,399.68027,1027.7493,7993.605,0.010947912,0.00049281324,9.129226e-07,0.38194388,-0.6989314,-12.453238,-0.4678511,0.114519835,0.07011637,41.753536,41.753536
478696029,2162698,2162698,0,0,0,0,0,399.68027,399.68027,1027.7493,7993.605,0.010010977,0.00043530422,7.637409e-07,3.3022897,-0.58320445,-8.410935,0.31981897,-0.20501679,-0.2841727,41.51822,41.51822
479712228,2162698,2162698,0,0,0,0,0,399.68027,399.68027,1027.7493,7993.605,0.010877396,0.0004215234,5.544507e-07,2.0225596,0.069682755,-5.13729,0.0026818719,-0.2711504,0.14077511,41.329987,41.329987
480637136,2162698,2162698,0,0,0,0,0,399.68027,399.68027,1027.7493,7993.605,0.011754359,0.00043892273,6.2980905e-07,1.2916601,-1.5789801,-9.615079,-0.2918704,0.012176905,0.25528434,41.14175,41.14175
481657576,2162698,2162698,0,0,0,0,0,399.68027,399.68027,1027.7493,7993.605,0.010724302,0.00043722615,9.764497e-07,1.3310685,0.39409605,-17.06035,-0.10067389,0.2500509,0.4406384,41.047634,41.047634
482683134,2162698,2162698,0,0,0,0,0,399.68027,399.68027,1027.7493,7993.605,0.010725661,0.00043629383,8.683243e-07,1.6246127,-0.19190606,-17.079485,-0.26191562,0.33601895,0.21855123,40.95352,40.95352
483704309,2162698,2162698,0,0,0,0,0,399.68027,399.68027,1027.7493,7993.605,0.012596471,0.00048371623,9.2155597e-07,2.0649261,-1.1668925,-6.342071,-0.5415223,-0.50935626,-0.049483653,40.859406,40.859406
484629044,2162698,2162698,0,0,0,0,0,399.68027,399.68027,1027.7493,7993.605,0.011333114,0.0004501803,8.889165e-07,2.5299485,0.028784081,-7.247309,0.00890444,-0.17312396,-0.0059356783,40.76529,40.76529
486670070,2162698,2162698,0,0,0,0,0,399.68027,399.68027,1027.7493,7993.605,0.011338861,0.00044948154,5.2495227e-07,1.7299694,-0.03327468,-12.712319,0.3707181,0.11577721,0.07688121,40.482918,40.482918
487690581,2162698,2162698,0,0,0,0,0,399.68027,399.68027,1027.7493,7993.605,0.011602089,0.00044121995,5.491592e-07,1.9946595,-0.81225544,-11.634072,-0.13843955,0.036621254,0.20941544,40.3888,40.3888
488701153,2162698,2162698,0,0,0,0,0,399.68027,399.68027,1027.7493,7993.605,0.012075815,0.00046894624,6.872746e-07,2.272058,0.12753633,-9.67792,-0.2741884,0.10816991,0.24222101,40.294685,40.294685
489617483,2162698,2162698,0,0,0,0,0,399.68027,399.68027,1027.7493,7993.605,0.011695179,0.00045462954,7.056342e-07,2.5312364,-0.6788401,-9.206187,-0.19993797,0.0841185,0.35270876,40.294685,40.294685
490632017,2162698,2162698,0,0,0,0,0,399.68027,399.68027,1027.7493,7993.605,0.012053405,0.00045324548,6.38688e-07,2.0178633,-0.42888647,-8.082392,-0.24907103,0.07974616,0.31932878,40.106453,40.106453
492678693,2162698,2162698,0,0,0,0,0,399.68027,399.68027,1027.7493,7993.605,0.012639012,0.00046381366,7.6809584e-07,1.4132931,0.31838554,-9.544364,0.3960706,0.20180221,-0.14392816,39.91822,39.91822
493693549,2162698,2162698,0,0,0,0,0,399.68027,399.68027,1027.7493,7993.605,0.012187229,0.00047305654,5.451943e-07,1.3278273,-0.53967184,-9.660029,-0.17790993,0.009252865,0.19947647,39.91822,39.91822
494719746,2162698,2162698,0,0,0,0,0,399.68027,399.68027,1027.7493,7993.605,0.011674796,0.0004669449,4.5216024e-07,1.089183,-0.20755212,-10.197644,-0.20345879,-0.0032782778,0.13796608,39.871185,39.871185
495634375,2162698,2162698,0,0,0,0,0,399.68027,399.68027,1027.7493,7993.605,0.011699846,0.0004421996,4.2674526e-07,0.38529968,0.2033544,-10.1156,-0.28909516,-0.05049699,0.107543804,39.635868,39.635868
496654960,2162698,2162698,0,0,0,0,0,399.68027,399.68027,1027.7493,7993.605,0.011606298,0.00044162295,3.4679283e-07,0.115848765,-0.48388198,-9.287882,0.033438317,-0.0007549685,-0.032560132,39.72999,39.72999
500632313,2162698,2162698,0,0,0,0,0,399.68027,399.68027,1027.7493,7993.605,0.010940665,0.0003893391,8.217765e-07,0.31716698,0.19625673,-17.491943,-0.42423546,0.31833738,0.15504862,39.07117,39.07117
501653199,2162698,2162698,0,0,0,0,0,399.68027,399.68027,1027.7493,7993.605,0.0116176875,0.00046961635,8.4025237e-07,1.1538663,0.17068826,-16.047865,0.69944143,0.25107262,-0.10120345,39.165287,39.165287
502667766,2162698,2162698,0,0,0,0,0,399.68027,399.68027,1027.7493,7993.605,0.0129655525,0.0005804123,1.2225078e-06,2.0435479,-0.97686493,-10.615583,-0.4672897,-0.07511172,0.234107,39.07117,39.07117
503703188,2162698,2162698,0,0,0,0,0,399.68027,399.68027,1027.7493,7993.605,0.013254319,0.00055939157,9.693887e-07,2.0149407,0.15998092,-6.067566,-0.2899482,-0.1715461,0.035993032,38.977055,38.977055
505649050,2162698,2162698,0,0,0,0,0,399.68027,399.68027,1027.7493,7993.605,0.013770381,0.00059670745,1.0217636e-06,-0.8259541,-0.7018697,-8.583432,0.3418848,0.09583083,0.04759503,38.88294,38.88294
506669563,2162698,2162698,0,0,0,0,0,399.68027,399.68027,1027.7493,7993.605,0.012806727,0.0005643774,9.786058e-07,-1.1771964,-0.50095034,-17.339375,-0.24997015,0.32691982,0.1933136,38.788822,38.788822
507689927,2162698,2162698,0,0,0,0,0,399.68027,399.68027,1027.7493,7993.605,0.012161392,0.00065789133,1.2000153e-06,-2.1083565,-0.72995245,-16.755276,0.352366,0.37886366,0.04892805,38.694706,38.694706
508700489,2162698,2162698,0,0,0,0,0,399.68027,399.68027,1027.7493,7993.605,0.010829738,0.00074636843,1.539364e-06,-0.8704159,-0.442434,-17.406937,0.20857319,0.42742544,0.1881111,38.694706,38.694706
509620873,2162698,2162698,0,0,0,0,0,399.68027,399.68027,1027.7493,7993.605,0.009127281,0.00052337546,1.0980727e-06,-2.3787472,0.086431,-6.708624,0.35358495,0.21831469,0.2644875,38.694706,38.694706
510651325,2162698,2162698,0,0,0,0,0,399.68027,399.68027,1027.7493,7993.605,0.010616564,0.0005041948,1.1933535e-06,-1.0501153,-0.10523396,-9.825936,-0.27454072,0.119331926,0.46000007,38.788822,38.788822
511676833,2162698,2162698,0,0,0,0,0,399.68027,399.68027,1027.7493,7993.605,0.008721171,0.0004609396,8.6589114e-07,-1.0148042,-0.33752596,-7.1188235,-0.19127716,-0.12348659,0.37802082,38.88294,38.88294
512698218,2162698,2162698,0,0,0,0,0,399.68027,399.68027,1027.7493,7993.605,0.009351297,0.0004487988,7.6141686e-07,-0.7881633,-0.19166021,-8.284072,-0.3161494,-0.12965205,0.20148817,38.88294,38.88294
513622662,2162698,2162698,0,0,0,0,0,399.68027,399.68027,1027.7493,7993.605,0.009901586,0.0005380604,1.0633984e-06,0.67016494,-0.07578797,-17.510443,-0.09184362,0.4317718,-0.05080693,38.977055,38.977055
514633079,2162698,2162698,0,0,0,0,0,399.68027,399.68027,1027.7493,7993.605,0.008264273,0.0004957798,6.0929176e-07,0.99053633,-0.3611978,-8.847265,-0.08594745,-0.10872424,0.18401603,38.977055,38.977055
515653556,2162698,2162698,0,0,0,0,0,399.68027,399.68027,1027.7493,7993.605,0.009452582,0.000594379,6.6458125e-07,1.2739879,-0.16682859,-6.544657,-0.050053403,-0.24421023,0.14572418,38.88294,38.88294
516669597,2162698,2162698,0,0,0,0,0,399.68027,399.68027,1027.7493,7993.605,0.009525548,0.00057876116,6.7643094e-07,-0.57981837,-0.19811614,-4.134934,-0.21994866,-0.23816259,0.04289537,38.788822,38.788822
517680184,2162698,2162698,0,0,0,0,0,399.68027,399.68027,1027.7493,7993.605,0.0072928797,0.0006998161,9.653609e-07,-1.4066207,-0.2250659,-12.736361,-0.21092133,0.16790736,-0.044563845,38.8359,38.8359
518714947,2162698,2162698,0,0,0,0,0,399.68027,399.68027,1027.7493,7993.605,0.008197671,0.0007235853,9.720328e-07,-2.0174968,-1.9391004,-12.321631,0.33872384,0.23526104,-0.09014802,38.741783,38.741783
519631032,2162698,2162698,0,0,0,0,0,399.68027,399.68027,1027.7493,7993.605,0.008121064,0.00068574783,1.2093205e-06,-1.1500105,-1.8255061,-13.635658,-1.0197502,0.13301563,0.31587577,38.694706,38.694706
520651094,2162698,2162698,0,0,0,0,0,399.68027,399.68027,1027.7493,7993.605,0.0066096974,0.0006368769,8.285279e-07,-1.2296507,-0.51251096,-6.4154716,-0.5932363,-0.15840748,0.21934551,38.741783,38.741783
521666213,2162698,2162698,0,0,0,0,0,399.68027,399.68027,1027.7493,7993.605,0.0064157182,0.00066358625,6.530339e-07,-0.8715718,0.46726176,-9.561739,0.56621885,-0.026421437,-0.2924214,38.600586,38.600586
522682475,2162698,2162698,0,0,0,0,0,399.68027,399.68027,1027.7493,7993.605,0.01105996,0.0007095598,9.044045e-07,-1.030515,-0.32257292,-7.053879,0.23430619,-0.010092154,-0.018252697,38.55351,38.55351
523702212,2162698,2162698,0,0,0,0,0,399.68027,399.68027,1027.7493,7993.605,0.010111975,0.0007896783,1.1484652e-06,-0.75344276,-0.80351305,-16.208168,-0.39514694,0.20014523,-0.15917946,38.600586,38.600586
524623367,2162698,2162698,0,0,0,0,0,399.68027,399.68027,1027.7493,7993.605,0.009370068,0.00057633227,7.419589e-07,-1.2915888,-0.10771286,-11.420413,-0.39503595,-0.22634259,-0.043071195,38.600586,38.600586
525637998,2162698,2162698,0,0,0,0,0,399.68027,399.68027,1027.7493,7993.605,0.010015965,0.00049625797,1.0821369e-06,-2.2390094,-2.0098288,-8.411861,-0.8274891,0.033025045,-0.20733634,38.45943,38.45943
528715095,2162698,2162698,0,0,0,0,0,399.68027,399.68027,1027.7493,7993.605,0.0076509453,0.0004770147,8.8029907e-07,-0.50108856,-0.92157656,-4.8625846,0.21361113,-0.25189656,0.28585547,38.600586,38.600586
529639813,2162698,2162698,0,0,0,0,0,399.68027,399.68027,1027.7493,7993.605,0.0058056084,0.00037292426,9.031818e-07,1.0965472,0.27060074,-12.863062,-0.49672842,0.35510367,0.36655408,38.88294,38.88294
530640334,2162698,2162698,0,0,0,0,0,399.68027,399.68027,1027.7493,7993.605,0.008072524,0.00044977566,1.3134819e-06,1.3657228,-0.3313261,-3.8354046,-0.56433564,-0.61993515,-0.14105992,38.88294,38.88294
532686987,2162698,2162698,0,0,0,0,0,399.68027,399.68027,1027.7493,7993.605,0.0106772445,0.00052562874,1.1262832e-06,0.932122,-0.33758911,-7.701752,0.7199716,-0.017189048,-0.36954504,38.977055,38.977055
533701628,2162698,2162698,0,0,0,0,0,399.68027,399.68027,1027.7493,7993.605,0.009669045,0.00043349375,1.2160864e-06,6.2125206,-1.9424478,-14.332732,0.29833928,0.4933716,-0.13796318,38.88294,38.88294
535642561,2162698,2162698,0,0,0,0,0,399.68027,399.68027,1027.7493,7993.605,0.011690967,0.00054721365,7.781644e-07,3.6959376,-1.0226222,-3.8728669,-0.34141782,-0.1709883,0.19762035,38.788822,38.788822
536673017,2162698,2162698,0,0,0,0,0,399.68027,399.68027,1027.7493,7993.605,0.009944785,0.00045785657,9.3926496e-07,2.6810925,-0.61554015,-7.6202507,-0.66749704,-0.20332989,0.26280677,38.694706,38.694706
537703421,2162698,2162698,0,0,0,0,0,399.68027,399.68027,1027.7493,7993.605,0.01045645,0.0003812255,5.68182e-07,2.2738085,0.60844964,-10.800361,0.21357684,0.12590729,-0.0019958217,38.600586,38.600586
538619752,2162698,2162698,0,0,0,0,0,399.68027,399.68027,1027.7493,7993.605,0.0100868335,0.00041209467,6.8666685e-07,2.599393,-0.7768077,-14.03137,-0.15881401,0.16069567,-0.2034383,38.50647,38.50647
539634327,2162698,2162698,0,0,0,0,0,399.68027,399.68027,1027.7493,7993.605,0.01022522,0.00039393455,7.305512e-07,2.377212,0.25309265,0.1204053,0.08162954,-0.28422114,0.4666615,38.50647,38.50647
540654743,2162698,2162698,0,0,0,0,0,399.68027,399.68027,1027.7493,7993.605,0.010079019,0.0003944083,5.122095e-07,2.5714648,-0.0930515,-8.851869,0.37044427,0.14313841,0.16230837,38.271156,38.271156
541675219,2162698,2162698,0,0,0,0,0,399.68027,399.68027,1027.7493,7993.605,0.00981589,0.00040646305,5.356453e-07,2.1203666,-0.47167796,-11.604686,0.105529174,0.1723304,0.12917545,38.318233,38.318233
543711270,2162698,2162698,0,0,0,0,0,399.68027,399.68027,1027.7493,7993.605,0.011073638,0.00044086238,7.83196e-07,1.5945376,0.5122103,-3.5814517,-0.3095017,-0.33020556,0.29690307,38.13,38.13
545666937,2162698,2162698,0,0,0,0,0,399.68027,399.68027,1027.7493,7993.605,0.011711809,0.00046339942,5.816374e-07,0.39660436,-0.83057266,-9.58066,-0.311586,-0.016927298,0.04494427,37.94177,37.94177
546687325,2162698,2162698,0,0,0,0,0,399.68027,399.68027,1027.7493,7993.605,0.010613521,0.00044474655,6.213415e-07,-3.158376,-0.26662514,-6.530353,-0.09720816,-0.15403396,0.11298837,38.035885,38.035885
547707775,2162698,2162698,0,0,0,0,0,399.68027,399.68027,1027.7493,7993.605,0.0104961395,0.00045062025,5.5028727e-07,-3.15711,0.6986742,-6.8957605,-0.038159806,-0.11707356,-0.14116578,38.035885,38.035885
549618713,2162698,2162698,0,0,0,0,0,399.68027,399.68027,1027.7493,7993.605,0.010984045,0.0006229337,2.465205e-06,0.39898175,-0.21370214,-30.392931,0.08950714,1.315355,0.025801007,37.94177,37.94177
551669546,2162698,2162698,0,0,0,0,0,399.68027,399.68027,1027.7493,7993.605,0.011038287,0.00071162224,1.926036e-06,2.0736246,-0.81052774,-11.166751,1.1537191,0.73402023,0.21448351,37.94177,37.94177
553705351,2162698,2162698,0,0,0,0,0,399.68027,399.68027,1027.7493,7993.605,0.011690898,0.00051306176,1.2870211e-06,3.3550766,0.01619601,-10.449165,0.72571987,0.31675637,0.03759657,37.94177,37.94177
557692143,2162698,2162698,0,0,0,0,0,399.68027,399.68027,1027.7493,7993.605,0.010724341,0.00062862196,5.101666e-07,2.578894,-0.21975487,-8.053046,0.015392869,0.048551813,-0.17931707,37.847652,37.847652
558622457,2162698,2162698,0,0,0,0,0,399.68027,399.68027,1027.7493,7993.605,0.0101987,0.0007095054,6.741197e-07,2.721369,0.6032545,-9.560269,0.5769905,0.100277305,-0.11662327,37.847652,37.847652
559632952,2162698,2162698,0,0,0,0,0,399.68027,399.68027,1027.7493,7993.605,0.010622655,0.0007138498,6.98256e-07,3.046584,0.116306946,-7.0012903,-0.18327634,-0.025965951,0.16223414,37.847652,37.847652
560659088,2162698,2162698,0,0,0,0,0,399.68027,399.68027,1027.7493,7993.605,0.010797452,0.0007238211,6.6151335e-07,3.2175176,-1.3991587,-7.567931,0.13668273,0.0060740206,-0.17310883,37.753536,37.753536
561679837,2162698,2162698,0,0,0,0,0,399.68027,399.68027,1027.7493,7993.605,0.010644853,0.0007265776,6.3399915e-07,3.7454002,-0.541043,-9.893687,-0.09451179,-0.13092084,-0.13315691,37.753536,37.753536
562694163,2162698,2162698,0,0,0,0,0,399.68027,399.68027,1027.7493,7993.605,0.010412544,0.0006881573,1.0244488e-06,2.8494232,0.50560504,-7.164349,0.12091567,-0.2603303,0.24761352,37.753536,37.753536
563709605,2162698,2162698,0,0,0,0,0,399.68027,399.68027,1027.7493,7993.605,0.0105227,0.0006935576,7.917864e-07,2.1046386,-0.65450996,-9.31939,-0.14295413,-0.13253209,0.25054908,37.65942,37.65942
564620054,2162698,2162698,0,0,0,0,0,399.68027,399.68027,1027.7493,7993.605,0.010509291,0.0006478632,7.1644587e-07,1.0361177,0.04973278,-6.5160728,-0.089061335,-0.05271054,0.2194396,37.753536,37.753536
565635421,2162698,2162698,0,0,0,0,0,399.68027,399.68027,1027.7493,7993.605,0.011338248,0.0007095018,9.799801e-07,0.75381106,-0.34930706,-12.693458,-0.2436058,0.21283482,-0.069276884,37.65942,37.65942
566650866,2162698,2162698,0,0,0,0,0,399.68027,399.68027,1027.7493,7993.605,0.011552708,0.0007421354,1.1561146e-06,0.97877336,-1.3874196,-11.333608,-0.19120912,0.24734381,0.16216733,37.65942,37.65942
567676363,2162698,2162698,0,0,0,0,0,399.68027,399.68027,1027.7493,7993.605,0.010764239,0.0007455855,1.1680731e-06,1.5498416,-0.13815893,-11.312765,-0.11638837,0.18373343,0.26949468,37.565304,37.565304
568696713,2162698,2162698,0,0,0,0,0,399.68027,399.68027,1027.7493,7993.605,0.010897471,0.0007363598,1.1052946e-06,1.9245002,-0.5205639,-7.1511297,-0.7553829,-0.4483964,0.12502164,37.753536,37.753536
569707127,2162698,2162698,0,0,0,0,0,399.68027,399.68027,1027.7493,7993.605,0.011231311,0.00065421825,1.0166846e-06,1.8246636,-0.69337416,-5.686521,-0.056247793,-0.2605949,-0.08974967,37.565304,37.565304
570627617,2162698,2162698,0,0,0,0,0,399.68027,399.68027,1027.7493,7993.605,0.010508369,0.000624954,9.1575845e-07,1.0348355,0.05649107,-5.730643,-0.007847789,-0.2799248,-0.07940859,37.65942,37.65942
571652958,2162698,2162698,0,0,0,0,0,399.68027,399.68027,1027.7493,7993.605,0.01165865,0.00066596275,6.643483e-07,0.2252634,-0.23198952,-11.516848,-0.07897642,0.17951228,0.09529949,37.471188,37.471188
572678484,2162698,2162698,0,0,0,0,0,399.68027,399.68027,1027.7493,7993.605,0.011509208,0.0006705597,6.762948e-07,-0.4541973,-0.46729875,-12.427261,0.12551114,0.16551282,0.0895712,37.565304,37.565304
573698948,2162698,2162698,0,0,0,0,0,399.68027,399.68027,1027.7493,7993.605,0.01037132,0.0007593307,9.974514e-07,-0.62878186,-0.47142282,-12.117203,-0.124743305,0.14913791,0.23189518,37.565304,37.565304
574619325,2162698,2162698,0,0,0,0,0,399.68027,399.68027,1027.7493,7993.605,0.0106478,0.00078134245,1.0821152e-06,-0.2987184,-0.56953555,-9.935471,-0.069433115,0.18184675,0.38601065,37.471188,37.471188
575649654,2162698,2162698,0,0,0,0,0,399.68027,399.68027,1027.7493,7993.605,0.011470032,0.0007875461,1.5744287e-06,0.913491,0.0373407,-11.151652,0.3804821,0.29664922,0.1609827,37.377068,37.377068
576670041,2162698,2162698,0,0,0,0,0,399.68027,399.68027,1027.7493,7993.605,0.011109701,0.0007254744,1.5306694e-06,1.1563411,-0.5079212,-9.473534,0.0995427,0.33185738,0.2583827,37.377068,37.377068
577690496,2162698,2162698,0,0,0,0,0,399.68027,399.68027,1027.7493,7993.605,0.010915772,0.0006978311,9.2184376e-07,1.4825089,-0.24293192,-7.8492446,-0.21729858,-0.056960788,0.23678033,37.471188,37.471188
578705937,2162698,2162698,0,0,0,0,0,399.68027,399.68027,1027.7493,7993.605,0.01044158,0.0007066046,7.4152365e-07,2.1403694,-0.34018955,-14.259036,-0.77249527,-0.18847914,0.19629827,37.377068,37.377068
580667335,2162698,2162698,0,0,0,0,0,399.68027,399.68027,1027.7493,7993.605,0.012307865,0.0006980069,1.5258206e-06,0.23426346,-1.1217077,-11.929661,0.18727037,0.29429612,0.16332631,37.377068,37.377068
581692154,2162698,2162698,0,0,0,0,0,399.68027,399.68027,1027.7493,7993.605,0.012194096,0.000669702,1.3264251e-06,-0.74687,-0.901064,-12.285467,-0.4117294,0.1564288,0.2734618,37.377068,37.377068
582712561,2162698,2162698,0,0,0,0,0,399.68027,399.68027,1027.7493,7993.605,0.012318501,0.00064899464,1.1928649e-06,-0.55755466,-0.3683166,-12.269994,-0.698254,0.27499387,0.084679626,37.188835,37.188835
583622913,2162698,2162698,0,0,0,0,0,399.68027,399.68027,1027.7493,7993.605,0.0131177595,0.0006256059,1.1515228e-06,-1.7891054,-2.0454993,-7.7242208,-0.1540141,0.11092825,-0.10907538,37.377068,37.377068
584658347,2162698,2162698,0,0,0,0,0,399.68027,399.68027,1027.7493,7993.605,0.010317351,0.00061988994,1.3114703e-06,-1.5000414,-1.4364468,-0.16533765,-0.69939446,-0.23578227,0.33869696,37.28295,37.28295
585698771,2162698,2162698,0,0,0,0,0,399.68027,399.68027,1027.7493,7993.605,0.010348893,0.0006984102,2.0003492e-06,-1.3507034,0.32758963,-5.994112,-1.024655,0.015425713,0.66465497,37.188835,37.188835
587634709,2162698,2162698,0,0,0,0,0,399.68027,399.68027,1027.7493,7993.605,0.008356635,0.0007055444,9.347624e-07,-1.674874,1.026181,-6.8183,-0.20902008,-0.021731876,-0.02700107,37.188835,37.188835
588665185,2162698,2162698,0,0,0,0,0,399.68027,399.68027,1027.7493,7993.605,0.006930769,0.00063435675,5.7465104e-07,-1.3597718,-0.9553592,-8.079727,0.00970153,-0.014424646,0.076402575,37.188835,37.188835
589695600,2162698,2162698,0,0,0,0,0,399.68027,399.68027,1027.7493,7993.605,0.008712701,0.00072549784,7.571286e-07,-1.0990149,0.51704776,-8.731883,0.1466652,-0.016539967,0.0005129204,37.188835,37.188835
590711672,2162698,2162698,0,0,0,0,0,399.68027,399.68027,1027.7493,7993.605,0.010332406,0.00072665396,9.4901736e-07,-0.31619877,0.060738385,-13.345894,-0.127652,0.109134644,-0.2017907,37.09472,37.09472
591631190,2162698,2162698,0,0,0,0,0,399.68027,399.68027,1027.7493,7993.605,0.011305095,0.0007475585,1.143273e-06,-1.591507,-0.38084614,-11.8038,-0.22128873,0.03924877,0.0096730525,37.09472,37.09472
592652328,2162698,2162698,0,0,0,0,0,399.68027,399.68027,1027.7493,7993.605,0.009024518,0.00067024183,8.579394e-07,-1.2565421,-0.9495592,-13.150561,-0.78035975,-0.047647372,-0.018855726,37.188835,37.188835
594703418,2162698,2162698,0,0,0,0,0,399.68027,399.68027,1027.7493,7993.605,0.009463272,0.00048115588,1.2988693e-06,-1.8554299,0.16786654,-15.197962,-0.98429656,-0.20822594,0.5155359,37.188835,37.188835
595637972,2162698,2162698,0,0,0,0,0,399.68027,399.68027,1027.7493,7993.605,0.009553209,0.00044391007,8.385365e-07,-3.298108,0.33702117,-7.8021135,0.3783979,0.002151154,-0.05536673,37.28295,37.28295
596668266,2162698,2162698,0,0,0,0,0,399.68027,399.68027,1027.7493,7993.605,0.0102451835,0.00046504283,1.3754252e-06,-1.2997518,0.40238354,-17.070349,0.725496,0.42884657,-0.15752919,37.188835,37.188835
597688888,2162698,2162698,0,0,0,0,0,399.68027,399.68027,1027.7493,7993.605,0.0065564103,0.0005847218,1.4096879e-06,0.28764537,-0.44920838,-8.1368065,0.31586272,-0.20755787,-0.14039342,37.28295,37.28295
598709180,2162698,2162698,0,0,0,0,0,399.68027,399.68027,1027.7493,7993.605,0.0064057233,0.00062847475,1.33868e-06,0.86236495,-0.4167992,-6.7907224,0.14273529,-0.07929504,-0.5416984,37.188835,37.188835
599629533,2162698,2162698,0,0,0,0,0,399.68027,399.68027,1027.7493,7993.605,0.010559694,0.0007179567,1.1048237e-06,1.617123,-1.761018,-15.255425,-0.43196627,0.13474934,-0.03713616,37.28295,37.28295
600669945,2162698,2162698,0,0,0,0,0,399.68027,399.68027,1027.7493,7993.605,0.010073041,0.0006751864,2.03888e-06,-0.5578337,1.3771733,-15.266202,-0.68434894,-0.14963771,0.6067516,37.28295,37.28295
601700365,2162698,2162698,0,0,0,0,0,399.68027,399.68027,1027.7493,7993.605,0.009821773,0.00049116736,8.993227e-07,-0.5690653,0.87629116,-11.935774,0.32446972,-0.00053342414,-0.03533297,37.28295,37.28295
602616558,2162698,2162698,0,0,0,0,0,399.68027,399.68027,1027.7493,7993.605,0.010298688,0.00047217033,1.1365453e-06,-1.3024639,-0.36201513,-10.931474,0.5468102,0.051257946,-0.06154361,37.32999,37.32999
604697311,2162698,2162698,0,0,22,0,0,399.68027,399.68027,1027.7493,7993.605,0.09813618,0.0075333295,8.21176e-05,-0.39254886,0.9080289,-5.008628,-0.12394572,0.16306858,-0.4496567,37.471188,37.471188
605612068,2162698,2162698,0,0,22,0,0,399.68027,399.68027,1027.7493,7993.605,0.021118455,0.0015283518,1.3916927e-05,0.39873418,0.23748203,-9.00824,0.7296237,0.045580886,0.047625355,37.565304,37.565304
606632437,2162698,2162698,0,0,22,0,0,399.68027,399.68027,1027.7493,7993.605,0.031435914,0.0021208753,6.9514253e-06,3.483866,-1.1171668,-11.279128,0.37037084,0.28511903,-0.779179,37.753536,37.753536
609699569,2162698,2162698,0,0,22,0,0,399.68027,399.68027,1027.7493,7993.605,0.05411314,0.0048467102,1.29397995e-05,1.2559692,-0.90413606,-9.446377,-0.94597256,-0.5308791,0.63892573,37.753536,37.753536
610719931,2162698,2162698,0,0,22,0,0,399.68027,399.68027,1027.7493,7993.605,0.06652022,0.007376778,2.9778883e-05,4.874138,-1.7600211,-18.388966,0.20179126,0.628608,-0.52801836,37.753536,37.753536
611644562,2162698,2162698,0,0,22,0,0,399.68027,399.68027,1027.7493,7993.605,0.09526922,0.01562668,4.3158714e-05,1.7046138,0.50492984,-7.704335,0.3560494,-0.39291847,0.2566121,37.847652,37.847652
612664960,2162698,2162698,0,0,22,0,0,399.68027,399.68027,1027.7493,7993.605,0.20566788,0.038020022,0.0001534804,0.59351933,-0.53260696,-9.862294,-0.4924721,0.07886215,0.5053435,37.847652,37.847652
613685445,2162698,2162698,0,0,22,0,0,399.68027,399.68027,1027.7493,7993.605,0.23481551,0.044640988,0.00021139861,0.12618512,0.6735339,-14.663822,0.23733114,0.2001646,0.041615255,37.847652,37.847652
616672009,2162698,2162698,0,0,22,0,0,399.68027,399.68027,1027.7493,7993.605,0.05561744,0.0042401426,1.2895271e-05,0.6982711,0.69729203,-10.336635,0.53223366,0.08451546,0.062360097,38.082924,38.082924
617702310,2162698,2162698,0,0,22,0,0,399.68027,399.68027,1027.7493,7993.605,0.07698708,0.007253467,7.356791e-05,-9.752021,2.1694086,-15.3599,-0.6869875,-1.6272699,-0.37164223,38.271156,38.271156
618627734,2162698,2162698,0,0,22,0,0,399.68027,399.68027,1027.7493,7993.605,0.055397194,0.004791537,2.9799292e-05,-0.84303737,1.2812617,-9.437188,0.009574587,-0.05314115,-0.16912073,38.412354,38.412354
619652969,2162698,2162698,0,0,22,0,0,399.68027,399.68027,1027.7493,7993.605,0.007854984,0.0006408537,3.806995e-06,0.009638755,1.59348,-9.515066,-0.013259959,-0.0013252586,0.0072003948,38.50647,38.50647
620668468,2162698,2162698,0,0,22,0,0,399.68027,399.68027,1027.7493,7993.605,0.0013688384,9.538607e-05,4.9546014e-07,0.02567023,1.5463574,-9.524328,-0.0006369007,0.011310404,-0.008916856,38.600586,38.600586
621693909,2162698,2162698,0,0,22,0,0,399.68027,399.68027,1027.7493,7993.605,0.00057611085,2.8308532e-05,6.388544e-08,0.022812411,1.557459,-9.501731,-0.00691129,0.0017900537,0.005654513,38.694706,38.694706
622714371,2162698,2162698,0,0,22,0,0,399.68027,399.68027,1027.7493,7993.605,0.00039418167,1.6325204e-05,8.629562e-09,0.03760743,1.5466716,-9.518798,-0.008211475,0.0034248207,-2.9832641e-05,38.88294,38.88294
623629819,2162698,2162698,0,0,22,0,0,399.68027,399.68027,1027.7493,7993.605,0.00037360456,1.4675131e-05,1.8101706e-09,0.022842404,1.5763576,-9.504662,-0.0034771734,0.0015621921,0.0029833834,38.977055,38.977055
624655225,2162698,2162698,0,0,22,0,0,399.68027,399.68027,1027.7493,7993.605,0.00032760962,1.2540382e-05,5.1480054e-10,0.032144777,1.5372614,-9.516384,-0.0044447314,0.0032938537,-0.0011651178,39.07117,39.07117
626691410,2162698,2162698,0,0,22,0,0,399.68027,399.68027,1027.7493,7993.605,0.00027351963,1.1407102e-05,3.410567e-10,0.03659608,1.5556959,-9.528663,-0.002145329,0.00258189,0.0026125524,39.30648,39.30648
627611839,2162698,2162698,0,0,22,0,0,399.68027,399.68027,1027.7493,7993.605,0.00025793005,1.0121144e-05,2.2617626e-10,0.040187746,1.5443131,-9.52256,-0.00092167064,0.001974788,0.0030151028,39.494713,39.494713
628637273,2162698,2162698,0,0,22,0,0,399.68027,399.68027,1027.7493,7993.605,0.00028790094,1.0877134e-05,3.0944644e-10,0.024458071,1.5579342,-9.519995,-0.004671772,0.0010587275,0.0068603223,39.54175,39.54175
630688208,2162698,2162698,0,0,22,0,0,399.68027,399.68027,1027.7493,7993.605,0.00025765446,9.714105e-06,2.1011075e-10,0.038549498,1.5339137,-9.530152,-0.0036561752,0.0014353992,0.0027055033,39.72999,39.72999
631703589,2162698,2162698,0,0,22,0,0,399.68027,399.68027,1027.7493,7993.605,0.0002640665,9.709998e-06,2.1552828e-10,0.050557435,1.5204078,-9.543901,-0.0058565573,0.0009497172,0.0026719011,39.871185,39.871185
632618991,2162698,2162698,0,0,22,0,0,399.68027,399.68027,1027.7493,7993.605,0.00027319486,1.0229007e-05,2.4046273e-10,0.045468923,1.5225881,-9.53122,-0.002591078,0.00010847313,0.005262429,40.059418,40.059418
633634486,2162698,2162698,0,0,22,0,0,399.68027,399.68027,1027.7493,7993.605,0.00025863695,1.0551668e-05,2.570534e-10,0.0452578,1.518511,-9.54667,-0.001424905,0.0033184332,-0.0010520869,40.106453,40.106453
634655074,2162698,2162698,0,0,22,0,0,399.68027,399.68027,1027.7493,7993.605,0.00028735516,9.922964e-06,2.0059622e-10,0.04138887,1.5089277,-9.5426445,-0.0028011745,0.0018825216,0.0019084997,40.106453,40.106453
635670490,2162698,2162698,0,0,22,0,0,399.68027,399.68027,1027.7493,7993.605,0.00030895742,9.156107e-06,1.7576664e-10,0.05050168,1.5024288,-9.546067,-0.0030974206,0.001730831,0.00261912,40.24765,40.24765
637701599,2162698,2162698,0,0,22,0,0,399.68027,399.68027,1027.7493,7993.605,0.0002397043,1.0689918e-05,2.4003344e-10,0.058470294,1.5099645,-9.5442295,-0.0065542716,0.0017563588,0.002286875,40.482918,40.482918
638621936,2162698,2162698,0,0,22,0,0,399.68027,399.68027,1027.7493,7993.605,0.00026477812,1.1133829e-05,2.9949163e-10,0.044261765,1.523784,-9.546243,-0.004164456,0.0019562151,0.0021286907,40.577034,40.577034
639637538,2162698,2162698,0,0,22,0,0,399.68027,399.68027,1027.7493,7993.605,0.00025774993,1.1081792e-05,3.5478914e-10,0.055156235,1.5169116,-9.557282,-0.006750646,-0.0022919134,0.0076715834,40.671173,40.671173
640658021,2162698,2162698,0,0,22,0,0,399.68027,399.68027,1027.7493,7993.605,0.00034703282,1.7022081e-05,9.1158836e-10,0.03717398,1.5520606,-9.535769,0.0013827587,0.0049468563,-0.0058577997,40.671173,40.671173
642688961,2162698,2162698,0,0,22,0,0,399.68027,399.68027,1027.7493,7993.605,0.0008593977,3.331058e-05,3.965698e-09,0.011969423,1.6306804,-9.520968,-0.018290004,-0.014639402,0.062730126,40.859406,40.859406
643699567,2162698,2162698,0,0,22,0,0,399.68027,399.68027,1027.7493,7993.605,0.0006068899,2.4169733e-05,1.8720412e-09,0.0036402205,1.637124,-9.531416,-0.0010216325,0.0022564342,-0.0003368336,40.95352,40.95352
644715061,2162698,2162698,0,0,22,0,0,399.68027,399.68027,1027.7493,7993.605,0.00039386953,1.565946e-05,5.363575e-10,0.010126254,1.6241145,-9.530805,-0.0026699882,0.0015310934,0.002258427,41.14175,41.14175
645620512,2162698,2162698,0,0,22,0,0,399.68027,399.68027,1027.7493,7993.605,0.00043723395,1.6837568e-05,6.5433975e-10,0.016276669,1.6124605,-9.530671,-0.0010063804,0.0016650668,0.0009115261,41.14175,41.14175
646640969,2162698,2162698,0,0,22,0,0,399.68027,399.68027,1027.7493,7993.605,0.00040492552,1.7868118e-05,6.955266e-10,0.015259714,1.6323073,-9.529685,-0.0011775205,0.0011945033,-0.0019879737,41.329987,41.329987
647651845,2162698,2162698,0,0,22,0,0,399.68027,399.68027,1027.7493,7993.605,0.00027711847,1.3795841e-05,4.4315457e-10,0.015767254,1.6225066,-9.529664,-0.007336845,-0.0002049043,0.009728896,41.329987,41.329987
648667072,2162698,2162698,0,0,22,0,0,399.68027,399.68027,1027.7493,7993.605,0.0004759788,1.8003566e-05,5.642448e-10,0.022412725,1.6181513,-9.53928,-0.0037605176,0.00082089193,0.0029333322,41.329987,41.329987
649687746,2162698,2162698,0,0,22,0,0,399.68027,399.68027,1027.7493,7993.605,0.0002604397,1.1430368e-05,2.8292296e-10,0.02312586,1.607943,-9.537135,-0.0029717744,0.00085835846,0.0041814675,41.471188,41.471188
650708146,2162698,2162698,0,0,22,0,0,399.68027,399.68027,1027.7493,7993.605,0.00025782315,1.1730248e-05,2.8702438e-10,0.021465067,1.6107312,-9.543286,-0.0048705153,0.0007726575,0.0026694145,41.518223,41.518223
651613875,2162698,2162698,0,0,22,0,0,399.68027,399.68027,1027.7493,7993.605,0.0002619889,1.1461244e-05,3.3293712e-10,0.014014572,1.6105303,-9.545449,-0.006036633,-0.00025535474,0.0050324025,41.706455,41.706455
652619268,2162698,2162698,0,0,22,0,0,399.68027,399.68027,1027.7493,7993.605,0.0003279242,1.3846829e-05,4.0941422e-10,0.018564211,1.6095136,-9.546176,-0.0062122927,-0.00024908799,0.0038775841,41.80057,41.80057
653639716,2162698,2162698,0,0,22,0,0,399.68027,399.68027,1027.7493,7993.605,0.00029237775,1.1315282e-05,3.1433992e-10,0.015826395,1.6187192,-9.540249,-0.005798136,7.256485e-05,0.0053167325,41.894688,41.894688
654645190,2162698,2162698,0,0,22,0,0,399.68027,399.68027,1027.7493,7993.605,0.00032375226,1.348761e-05,3.8625284e-10,0.022786113,1.6008528,-9.541841,-0.0017117205,0.0015646678,0.0006932072,42.035885,42.035885
655650728,2162698,2162698,0,0,22,0,0,399.68027,399.68027,1027.7493,7993.605,0.0003043809,1.1935591e-05,2.556021e-10,0.025961805,1.6066548,-9.536843,-0.002953312,0.0006506801,0.0042793606,42.035885,42.035885
656661323,2162698,2162698,0,0,22,0,0,399.68027,399.68027,1027.7493,7993.605,0.0003047981,1.0871996e-05,2.480341e-10,0.012441707,1.6133653,-9.539797,-0.0042120405,-0.00034272278,0.0037588403,42.082924,42.082924
657676812,2162698,2162698,0,0,22,0,0,399.68027,399.68027,1027.7493,7993.605,0.0003525276,1.1626848e-05,2.7084188e-10,0.016400674,1.6048663,-9.549527,-0.0035675783,0.0009693141,0.0048683025,42.082924,42.082924
658682329,2162698,2162698,0,0,22,0,0,399.68027,399.68027,1027.7493,7993.605,0.00026899052,1.0911851e-05,2.3179146e-10,0.013849399,1.6205771,-9.542198,-0.0007525192,0.0012687338,0.0022638645,42.17704,42.17704
659687928,2162698,2162698,0,0,22,0,0,399.68027,399.68027,1027.7493,7993.605,0.00026435975,1.0876247e-05,1.9700261e-10,0.019878684,1.6085622,-9.541131,-0.00055476604,0.002044124,0.00043384777,42.271156,42.271156
660698454,2162698,2162698,0,0,22,0,0,399.68027,399.68027,1027.7493,7993.605,0.0002768728,1.0182473e-05,2.119703e-10,0.02577642,1.5886265,-9.555233,-0.0013560159,0.0013005012,0.0031527441,42.459435,42.459435
661703987,2162698,2162698,0,0,22,0,0,399.68027,399.68027,1027.7493,7993.605,0.00023283919,9.396913e-06,1.7381611e-10,0.03744134,1.5665109,-9.555537,0.0033853254,0.003418353,-0.0013556264,42.412354,42.412354
662619549,2162698,2162698,0,0,22,0,0,399.68027,399.68027,1027.7493,7993.605,0.00024532498,9.545235e-06,1.8636535e-10,0.036381826,1.5512185,-9.553564,-0.0013841892,0.00047407494,0.0051406277,42.50647,42.50647
663645084,2162698,2162698,0,0,22,0,0,399.68027,399.68027,1027.7493,7993.605,0.00025909444,1.0793058e-05,2.8778735e-10,0.045482572,1.561492,-9.559465,0.0034533266,0.0035914143,-0.0077441623,42.600586,42.600586
664660722,2162698,2162698,0,0,22,0,0,399.68027,399.68027,1027.7493,7993.605,0.00027224526,1.0746081e-05,3.3378558e-10,0.03876836,1.5326335,-9.562804,-0.003277033,0.00044004293,0.0031093857,42.600586,42.600586
666686785,2162698,2162698,0,0,22,0,0,399.68027,399.68027,1027.7493,7993.605,0.0002580353,1.0154927e-05,2.5736618e-10,0.053209595,1.4983636,-9.562878,-0.007891773,-0.00025300635,0.004435109,42.88294,42.88294
667712452,2162698,2162698,0,0,22,0,0,399.68027,399.68027,1027.7493,7993.605,0.00025706724,1.0275371e-05,2.349126e-10,0.044589404,1.5057529,-9.573846,-0.0018413304,0.0019352334,0.001648717,42.930023,42.930023
668627870,2162698,2162698,0,0,22,0,0,399.68027,399.68027,1027.7493,7993.605,0.00024896013,9.239282e-06,1.9042584e-10,0.057840034,1.5116781,-9.569701,-0.0027051214,0.0003093739,0.00436196,43.07117,43.07117
669653487,2162698,2162698,0,0,22,0,0,399.68027,399.68027,1027.7493,7993.605,0.00022477347,9.946959e-06,2.0634724e-10,0.05510515,1.5065767,-9.565639,2.8464324e-06,0.0006995321,0.0039399406,43.07117,43.07117
670674097,2162698,2162698,0,0,22,0,0,399.68027,399.68027,1027.7493,7993.605,0.00024664955,1.0677503e-05,2.7711208e-10,0.04554262,1.5146878,-9.576776,-0.00065332174,8.363145e-05,0.0056182262,43.21237,43.21237
671694629,2162698,2162698,0,0,22,0,0,399.68027,399.68027,1027.7493,7993.605,0.00024685933,1.014632e-05,2.2479339e-10,0.047535524,1.5074582,-9.578093,-0.0016180209,0.00042188689,0.004713384,43.21237,43.21237
672620163,2162698,2162698,0,0,22,0,0,399.68027,399.68027,1027.7493,7993.605,0.00023881016,9.767261e-06,2.0197928e-10,0.059484184,1.5040828,-9.575974,-0.0017497223,0.0009834069,0.0028744217,43.21237,43.21237
673635670,2162698,2162698,0,0,22,0,0,399.68027,399.68027,1027.7493,7993.605,0.00027404082,9.467509e-06,2.077152e-10,0.054804012,1.5096841,-9.566835,-0.0042514186,4.674846e-05,0.0050797723,43.306488,43.306488
674651478,2162698,2162698,0,0,22,0,0,399.68027,399.68027,1027.7493,7993.605,0.00023007137,9.3346625e-06,1.9103417e-10,0.054207332,1.5127236,-9.569683,-0.00022059002,0.0020408402,0.0022854712,43.4006,43.4006
675676812,2162698,2162698,0,0,22,0,0,399.68027,399.68027,1027.7493,7993.605,0.0002887417,1.2909436e-05,4.0365128e-10,0.05982101,1.5077076,-9.569933,-0.0017145949,0.00090504263,-0.0017450011,43.447636,43.447636
676687394,2162698,2162698,0,0,22,0,0,399.68027,399.68027,1027.7493,7993.605,0.00024707493,1.1697637e-05,3.2631353e-10,0.05516007,1.5144979,-9.573658,-0.0028097879,0.0005233616,0.0051662154,43.54175,43.54175
677703025,2162698,2162698,0,0,22,0,0,399.68027,399.68027,1027.7493,7993.605,0.0002690908,1.2351604e-05,3.7735884e-10,0.042859904,1.4946166,-9.58701,-0.0018229368,0.0014082369,0.0065070605,43.588837,43.588837
678623597,2162698,2162698,0,0,22,0,0,399.68027,399.68027,1027.7493,7993.605,0.00038211475,2.0826688e-05,2.5961544e-09,0.11045029,1.1021212,-9.606928,0.052689932,0.006954543,0.0121889645,43.72999,43.72999
679624289,2162698,2162698,0,0,22,0,0,399.68027,399.68027,1027.7493,7993.605,0.0003996528,1.8824909e-05,3.2888587e-09,0.15711197,0.63555753,-9.676229,-0.0104181385,-0.0012037508,0.009368779,43.777073,43.777073
680634702,2162698,2162698,0,0,22,0,0,399.68027,399.68027,1027.7493,7993.605,0.00039169186,1.8327317e-05,4.5825512e-09,0.08991877,1.2382574,-9.597907,-0.19501235,-0.030817714,-0.0014393291,43.87119,43.87119
681650515,2162698,2162698,0,0,22,0,0,399.68027,399.68027,1027.7493,7993.605,0.0004146375,1.7649283e-05,1.922215e-09,0.08240976,1.2467401,-9.606193,0.006534884,0.0025668736,0.006829034,43.87119,43.87119
682660898,2162698,2162698,0,0,22,0,0,399.68027,399.68027,1027.7493,7993.605,0.00031730073,1.1841857e-05,5.9362265e-10,0.090230286,1.2089303,-9.615898,-0.008210569,-0.00029932213,0.0032786846,43.965305,43.965305
683676494,2162698,2162698,0,0,22,0,0,399.68027,399.68027,1027.7493,7993.605,0.000328285,9.886546e-06,3.1986375e-10,0.08377823,1.264963,-9.619817,-0.0007153323,0.00074649556,0.0034130902,43.965305,43.965305
684687132,2162698,2162698,0,0,22,0,0,399.68027,399.68027,1027.7493,7993.605,0.000303085,9.547866e-06,2.6668984e-10,0.08175494,1.2510576,-9.612753,-0.0070316438,-0.0009648723,0.005936287,44.05942,44.05942
685697684,2162698,2162698,0,0,22,0,0,399.68027,399.68027,1027.7493,7993.605,0.00031015946,9.838298e-06,2.47865e-10,0.091656595,1.2709686,-9.606701,-0.0033717114,-0.0010586962,0.0055262665,44.153538,44.153538
686703310,2162698,2162698,0,0,22,0,0,399.68027,399.68027,1027.7493,7993.605,0.0002976959,1.18253165e-05,3.5349212e-10,0.08452466,1.2965279,-9.606051,-0.0011607574,0.00016340784,0.0029289436,44.34177,44.34177
688639420,2162698,2162698,0,0,22,0,0,399.68027,399.68027,1027.7493,7993.605,0.00024992222,1.0840196e-05,4.1104348e-10,0.08383115,1.2836087,-9.615567,0.004697259,-0.00021808942,0.008659089,44.34177,44.34177
689645017,2162698,2162698,0,0,22,0,0,399.68027,399.68027,1027.7493,7993.605,0.00027244745,1.0584545e-05,3.8658599e-10,0.08676763,1.2643307,-9.616357,-0.012169801,-0.0009601121,0.0064343424,44.435905,44.435905
690665626,2162698,2162698,0,0,22,0,0,399.68027,399.68027,1027.7493,7993.605,0.00024606232,1.0280203e-05,3.1837424e-10,0.09006594,1.2581543,-9.614399,0.0023050352,0.001114516,-0.0018642879,44.482918,44.482918
691681324,2162698,2162698,0,0,22,0,0,399.68027,399.68027,1027.7493,7993.605,0.0002219225,1.06246225e-05,4.1445722e-10,0.09644332,1.2953339,-9.6134615,-0.014648894,-0.00052746374,0.0017989575,44.435905,44.435905
692686880,2162698,2162698,0,0,22,0,0,399.68027,399.68027,1027.7493,7993.605,0.0002523185,1.01308e-05,2.9167427e-10,0.08528995,1.2888074,-9.613768,0.0033943076,0.00040545486,0.0046666455,44.67117,44.67117
693687466,2162698,2162698,0,0,22,0,0,399.68027,399.68027,1027.7493,7993.605,0.00023528228,1.0020214e-05,2.5775568e-10,0.08646236,1.2705379,-9.612686,0.003498528,0.00058729295,0.0033741132,44.67117,44.67117
694688041,2162698,2162698,0,0,22,0,0,399.68027,399.68027,1027.7493,7993.605,0.00027695278,1.244151e-05,5.4174293e-10,0.08175387,1.3208969,-9.617634,-0.0014431841,-0.0021489947,0.008592572,44.718254,44.718254
695698824,2162698,2162698,0,0,22,0,0,399.68027,399.68027,1027.7493,7993.605,0.0002476374,1.00528305e-05,3.173397e-10,0.0919749,1.2900323,-9.616453,-0.0015864111,-0.00021614946,0.005112945,44.81237,44.81237
696709292,2162698,2162698,0,0,22,0,0,399.68027,399.68027,1027.7493,7993.605,0.0003956572,1.6601283e-05,7.894304e-10,0.070077844,1.2984548,-9.611225,-0.0025607685,-0.0032012917,0.009897969,44.81237,44.81237
697619840,2162698,2162698,0,0,22,0,0,399.68027,399.68027,1027.7493,7993.605,0.00048309434,2.2327142e-05,1.7883854e-09,0.081217155,1.3226242,-9.612567,-0.021300446,0.00083124207,0.004236877,45.047634,45.047634
