timestamp,timestamp_sample,device_id,x,y,z,temperature,error_count,is_external
394676211,394676192,1114122,0.52984,0.4484,0.04136,52.375,0,0
394686792,394686763,1114122,0.53,0.44847998,0.0412,52.375,0,0
394781213,394781194,1114122,0.53288,0.45224,0.038399998,52.5,0,0
394875950,394875925,1114122,0.53047997,0.44928,0.04088,52.625,0,0
394979663,394979645,1114122,0.53231996,0.4504,0.03824,52.5,0,0
395084667,395084648,1114122,0.53064,0.45248,0.03992,52.375,0,0
395189666,395189648,1114122,0.5324,0.45264,0.03776,52.5,0,0
395276173,395276148,1114122,0.52871996,0.45064,0.039839998,52.375,0,0
395484709,395484690,1114122,0.52992,0.44816,0.04216,52.5,0,0
395578950,395578916,1114122,0.5308,0.44919997,0.04264,52.5,0,0
395683937,395683916,1114122,0.52959996,0.44496,0.04008,52.375,0,0
395777711,395777677,1114122,0.5324,0.45095998,0.04112,52.625,0,0
395882662,395882644,1114122,0.5304,0.45016,0.04264,52.5,0,0
395978258,395978233,1114122,0.52832,0.44392,0.02536,52.5,0,0
396083213,396083195,1114122,0.53072,0.45312,0.044,52.5,0,0
396179358,396179337,1114122,0.53231996,0.45119998,0.04336,52.5,0,0
396274572,396274543,1114122,0.53064,0.45288,0.03032,52.25,0,0
396380369,396380350,1114122,0.53104,0.44623998,0.032959998,52.5,0,0
396474871,396474844,1114122,0.52976,0.44976,0.04336,52.375,0,0
396579855,396579837,1114122,0.53271997,0.44759998,0.034959998,52.375,0,0
396684735,396684716,1114122,0.53064,0.45112,0.043679997,52.375,0,0
396778346,396778321,1114122,0.5316,0.45231998,0.04104,52.375,0,0
396873892,396873873,1114122,0.53095996,0.44864,0.0436,52.5,0,0
396980962,396980944,1114122,0.53128,0.44799998,0.04232,52.375,0,0
397077758,397077732,1114122,0.53104,0.45272,0.04384,52.375,0,0
397277755,397277737,1114122,0.53088,0.4524,0.0424,52.5,0,0
397679212,397679193,1114122,0.53088,0.45007998,0.044639997,52.375,0,0
397784253,397784226,1114122,0.53208,0.44832,0.04288,52.25,0,0
397878710,397878691,1114122,0.53047997,0.45064,0.04144,52.375,0,0
397983420,397983395,1114122,0.532,0.45152,0.040239997,52.375,0,0
398078570,398078536,1114122,0.52992,0.44952,0.04392,52.375,0,0
398182159,398182141,1114122,0.53328,0.45207998,0.04152,52.25,0,0
398276658,398276637,1114122,0.53104,0.45031998,0.04296,52.375,0,0
398383761,398383730,1114122,0.53256,0.44912,0.0424,52.5,0,0
398478840,398478809,1114122,0.53016,0.44663998,0.044719998,52.25,0,0
398583893,398583868,1114122,0.53336,0.44904,0.042719997,52.375,0,0
398679908,398679867,1114122,0.53112,0.45303997,0.043679997,52.375,0,0
398782765,398782747,1114122,0.53192,0.45192,0.04264,52.375,0,0
398877301,398877273,1114122,0.53112,0.4484,0.04352,52.375,0,0
398982269,398982239,1114122,0.5316,0.44983998,0.042239998,52.5,0,0
399077821,399077791,1114122,0.53032,0.44895998,0.04056,52.375,0,0
399181856,399181833,1114122,0.53152,0.44832,0.03944,52.375,0,0
399381987,399381969,1114122,0.53208,0.44904,0.03872,52.375,0,0
399474712,399474694,1114122,0.52928,0.4472,0.03768,52.25,0,0
399579809,399579780,1114122,0.53264,0.44415998,0.0348,52.5,0,0
399684859,399684834,1114122,0.53216,0.44783998,0.04016,52.375,0,0
399779799,399779780,1114122,0.53279996,0.44847998,0.038879998,52.375,0,0
399884894,399884876,1114122,0.5304,0.4472,0.04184,52.375,0,0
400177768,400177743,1114122,0.5324,0.44608,0.03872,52.375,0,0
400377803,400377773,1114122,0.528,0.43807998,0.02808,52.375,0,0
400474310,400474291,1114122,0.53072,0.44687998,0.03632,52.375,0,0
400580488,400580469,1114122,0.53231996,0.44847998,0.03864,52.375,0,0
400675699,400675674,1114122,0.532,0.4468,0.04168,52.5,0,0
400780726,400780697,1114122,0.53312,0.44711998,0.04288,52.375,0,0
401077051,401077027,1114122,0.53264,0.44808,0.04408,52.375,0,0
401184115,401184092,1114122,0.53424,0.45183998,0.03816,52.5,0,0
401278601,401278583,1114122,0.5312,0.44783998,0.04352,52.375,0,0
401384682,401384663,1114122,0.53296,0.44735998,0.043759998,52.375,0,0
401480226,401480197,1114122,0.53152,0.44864,0.04288,52.5,0,0
401576281,401576262,1114122,0.53367996,0.44976,0.04248,52.375,0,0
401681465,401681424,1114122,0.53192,0.45104,0.04184,52.375,0,0
401777389,401777362,1114122,0.53192,0.4484,0.04408,52.375,0,0
401881598,401881580,1114122,0.53007996,0.45007998,0.04,52.375,0,0
401976567,401976549,1114122,0.53304,0.45104,0.0416,52.375,0,0
402081652,402081627,1114122,0.53143996,0.44928,0.04088,52.375,0,0
402175309,402175291,1114122,0.53192,0.452,0.04216,52.25,0,0
402281933,402281914,1114122,0.5312,0.44944,0.04336,52.375,0,0
402377980,402377962,1114122,0.53256,0.44856,0.039279997,52.375,0,0
402482058,402482040,1114122,0.5312,0.44871998,0.04536,52.375,0,0
402577059,402577040,1114122,0.53304,0.45119998,0.04336,52.5,0,0
402682149,402682128,1114122,0.53279996,0.4472,0.04136,52.5,0,0
402778008,402777990,1114122,0.53216,0.44944,0.04248,52.375,0,0
402978666,402978634,1114122,0.5324,0.44759998,0.04352,52.375,0,0
403083560,403083541,1114122,0.53055996,0.45112,0.04456,52.375,0,0
403180217,403180187,1114122,0.53168,0.45128,0.043759998,52.375,0,0
403285328,403285304,1114122,0.53112,0.45255998,0.04304,52.25,0,0
403380274,403380255,1114122,0.53256,0.45136,0.04392,52.375,0,0
403475488,403475464,1114122,0.53104,0.45112,0.041759998,52.5,0,0
403581265,403581247,1114122,0.53328,0.44735998,0.03696,52.25,0,0
403678019,403678001,1114122,0.52976,0.45024,0.045119997,52.375,0,0
403783106,403783088,1114122,0.5316,0.44952,0.043759998,52.25,0,0
403878162,403878144,1114122,0.52992,0.45024,0.045199998,52.375,0,0
403983357,403983317,1114122,0.53264,0.45248,0.04088,52.375,0,0
404080788,404080769,1114122,0.53152,0.44735998,0.0424,52.25,0,0
404174512,404174494,1114122,0.53112,0.44959998,0.0412,52.5,0,0
404281001,404280971,1114122,0.53168,0.44904,0.0404,52.25,0,0
404386092,404386064,1114122,0.53279996,0.45216,0.04336,52.25,0,0
404481311,404481286,1114122,0.53136,0.45312,0.04456,52.375,0,0
404577711,404577687,1114122,0.52984,0.44888,0.04384,52.25,0,0
404682746,404682717,1114122,0.53047997,0.43855998,0.02216,52.375,0,0
404778911,404778893,1114122,0.53192,0.45119998,0.04264,52.375,0,0
404884048,404884030,1114122,0.53143996,0.4508,0.044719998,52.25,0,0
404977760,404977741,1114122,0.53344,0.45071998,0.04168,52.25,0,0
405082766,405082748,1114122,0.53256,0.45264,0.042719997,52.25,0,0
405179182,405179164,1114122,0.53384,0.45255998,0.04192,52.25,0,0
405283316,405283297,1114122,0.53312,0.44959998,0.041759998,52.375,0,0
405379544,405379514,1114122,0.53376,0.44752,0.040239997,52.5,0,0
405475513,405475495,1114122,0.53168,0.45303997,0.044159997,52.375,0,0
405580505,405580475,1114122,0.53376,0.45007998,0.04056,52.5,0,0
405676010,405675991,1114122,0.52936,0.45088,0.044159997,52.25,0,0
405781006,405780987,1114122,0.53312,0.45224,0.042799998,52.25,0,0
405877436,405877407,1114122,0.5312,0.45343998,0.044239998,52.25,0,0
405983668,405983650,1114122,0.53376,0.45128,0.04232,52.25,0,0
406078172,406078151,1114122,0.53168,0.44928,0.044719998,52.25,0,0
406183180,406183162,1114122,0.53328,0.45071998,0.039359998,52.25,0,0
406277739,406277721,1114122,0.53304,0.44735998,0.04192,52.25,0,0
406382760,406382742,1114122,0.53224,0.44856,0.04304,52.25,0,0
406477777,406477759,1114122,0.53055996,0.45047998,0.041279998,52.25,0,0
406582882,406582863,1114122,0.5336,0.45024,0.042799998,52.25,0,0
406678061,406678042,1114122,0.53088,0.452,0.04432,52.375,0,0
406781713,406781684,1114122,0.53224,0.45112,0.04144,52.375,0,0
406875703,406875671,1114122,0.53296,0.44904,0.044639997,52.25,0,0
406980647,406980629,1114122,0.53224,0.45167997,0.04352,52.25,0,0
407180869,407180850,1114122,0.53256,0.4504,0.03672,52.125,0,0
407274112,407274093,1114122,0.532,0.45248,0.042799998,52.25,0,0
407381031,407381013,1114122,0.53192,0.44919997,0.03792,52.375,0,0
407476307,407476277,1114122,0.53231996,0.45231998,0.04304,52.375,0,0
407581756,407581737,1114122,0.53296,0.45071998,0.043679997,52.25,0,0
407676405,407676365,1114122,0.53064,0.44952,0.03768,52.125,0,0
407782312,407782291,1114122,0.53216,0.44792,0.04064,52.375,0,0
407877865,407877846,1114122,0.53152,0.44976,0.04152,52.375,0,0
407985092,407985063,1114122,0.53216,0.45071998,0.03904,52.125,0,0
408079497,408079479,1114122,0.53168,0.44847998,0.04504,52.25,0,0
408174147,408174129,1114122,0.53248,0.4524,0.0412,52.25,0,0
408279235,408279217,1114122,0.5316,0.4524,0.044239998,52.25,0,0
408384356,408384338,1114122,0.53367996,0.45136,0.0436,52.375,0,0
408479560,408479541,1114122,0.53168,0.4508,0.0392,52.375,0,0
408584628,408584603,1114122,0.53288,0.45336,0.04216,52.25,0,0
408679553,408679532,1114122,0.5324,0.452,0.0448,52.25,0,0
408783005,408782973,1114122,0.53288,0.45192,0.040719997,52.25,0,0
408878565,408878546,1114122,0.53112,0.45088,0.040319998,52.375,0,0
408983587,408983562,1114122,0.52959996,0.43855998,0.02736,52.25,0,0
409078009,409077990,1114122,0.53288,0.45384,0.03896,52.25,0,0
409184988,409184965,1114122,0.53336,0.45216,0.03952,52.25,0,0
409280662,409280641,1114122,0.53176,0.45384,0.0436,52.25,0,0
409376257,409376226,1114122,0.53296,0.45248,0.04248,52.125,0,0
409480239,409480220,1114122,0.53016,0.45264,0.04496,52.25,0,0
409584121,409584103,1114122,0.53176,0.4516,0.0404,52.375,0,0
409678653,409678612,1114122,0.53104,0.45279998,0.04392,52.25,0,0
409774198,409774166,1114122,0.53112,0.44928,0.038399998,52.0,0,0
409881255,409881237,1114122,0.53216,0.44568,0.04256,52.125,0,0
409975759,409975740,1114122,0.53152,0.44992,0.04352,52.125,0,0
410080760,410080742,1114122,0.53024,0.452,0.042719997,52.125,0,0
410176316,410176297,1114122,0.53128,0.44728,0.030639999,52.125,0,0
410281322,410281291,1114122,0.53183997,0.45312,0.043199997,52.25,0,0
410376866,410376844,1114122,0.53336,0.45424,0.04312,52.25,0,0
410481906,410481887,1114122,0.53072,0.45336,0.04192,52.25,0,0
410578770,410578744,1114122,0.53288,0.4524,0.04208,52.25,0,0
410684548,410684504,1114122,0.53264,0.4504,0.04456,52.25,0,0
410780097,410780071,1114122,0.5324,0.45143998,0.0436,52.25,0,0
410885142,410885117,1114122,0.53328,0.452,0.04088,52.25,0,0
410979563,410979544,1114122,0.532,0.45264,0.041279998,52.0,0,0
411075110,411075091,1114122,0.532,0.45152,0.04496,52.25,0,0
411181635,411181616,1114122,0.53344,0.45192,0.042,52.125,0,0
411276745,411276727,1114122,0.53072,0.44952,0.04432,52.25,0,0
411382762,411382744,1114122,0.53264,0.45183998,0.04136,52.125,0,0
411476825,411476804,1114122,0.53208,0.45264,0.04488,52.125,0,0
411582016,411581988,1114122,0.53224,0.45391998,0.04336,52.25,0,0
411677032,411677013,1114122,0.53047997,0.4508,0.04504,52.125,0,0
411782819,411782791,1114122,0.53376,0.45104,0.0412,52.125,0,0
411877341,411877316,1114122,0.53216,0.45248,0.045599997,52.25,0,0
411981265,411981246,1114122,0.53424,0.45384,0.042239998,52.25,0,0
412075786,412075761,1114122,0.53248,0.45336,0.043199997,52.25,0,0
412182855,412182837,1114122,0.53224,0.44976,0.039279997,52.25,0,0
412277504,412277485,1114122,0.52896,0.45119998,0.040719997,52.125,0,0
412381312,412381291,1114122,0.53208,0.45104,0.039759997,52.125,0,0
412475819,412475794,1114122,0.5324,0.45064,0.041759998,52.375,0,0
412677782,412677764,1114122,0.53112,0.45152,0.04168,52.25,0,0
412780557,412780538,1114122,0.53208,0.44944,0.0396,52.25,0,0
412875473,412875452,1114122,0.52775997,0.44215998,0.02984,52.125,0,0
412980556,412980534,1114122,0.53176,0.44776,0.03816,52.125,0,0
413075803,413075778,1114122,0.53128,0.44952,0.04528,52.25,0,0
413180866,413180841,1114122,0.53143996,0.45007998,0.03728,52.25,0,0
413380919,413380901,1114122,0.53088,0.45176,0.030159999,52.125,0,0
413474359,413474341,1114122,0.5304,0.44799998,0.038319997,52.25,0,0
413578580,413578561,1114122,0.53176,0.44968,0.03256,52.125,0,0
413684355,413684337,1114122,0.52936,0.44671997,0.03896,52.125,0,0
413779943,413779911,1114122,0.5312,0.44895998,0.040719997,52.25,0,0
413873921,413873903,1114122,0.52976,0.44792,0.03824,52.25,0,0
413978911,413978893,1114122,0.53007996,0.44728,0.032479998,52.125,0,0
414084099,414084074,1114122,0.53304,0.44808,0.03872,52.125,0,0
414179995,414179969,1114122,0.53152,0.45031998,0.03944,52.25,0,0
414275555,414275536,1114122,0.53136,0.44935998,0.04168,52.25,0,0
414380509,414380491,1114122,0.53143996,0.44976,0.0376,52.25,0,0
414475049,414475031,1114122,0.53047997,0.44952,0.04192,52.125,0,0
414580011,414579991,1114122,0.53271997,0.45391998,0.042239998,52.125,0,0
414676909,414676891,1114122,0.53264,0.45216,0.04152,52.125,0,0
414782693,414782668,1114122,0.5336,0.45007998,0.03872,52.25,0,0
414879665,414879646,1114122,0.5312,0.45104,0.04088,52.25,0,0
414974837,414974807,1114122,0.532,0.44808,0.03336,52.25,0,0
415080903,415080872,1114122,0.5304,0.44976,0.03616,52.125,0,0
415177493,415177475,1114122,0.53104,0.44616,0.035919998,52.0,0,0
415282501,415282482,1114122,0.52952,0.44808,0.03712,52.125,0,0
415377654,415377635,1114122,0.53216,0.44696,0.03472,52.25,0,0
415482631,415482612,1114122,0.5288,0.44783998,0.03704,52.25,0,0
415577697,415577678,1114122,0.53152,0.44792,0.02832,52.125,0,0
415683560,415683541,1114122,0.53016,0.44728,0.0336,52.125,0,0
415779156,415779127,1114122,0.53168,0.4484,0.03664,52.25,0,0
415978627,415978591,1114122,0.53055996,0.44415998,0.03216,52.125,0,0
416085592,416085574,1114122,0.53032,0.44944,0.038399998,52.125,0,0
416283270,416283252,1114122,0.52984,0.44919997,0.037839998,52.0,0,0
416378416,416378390,1114122,0.53007996,0.44792,0.0312,52.25,0,0
416484722,416484703,1114122,0.52984,0.45071998,0.03568,52.125,0,0
416781911,416781893,1114122,0.5308,0.44423997,0.03264,52.125,0,0
416982461,416982436,1114122,0.53055996,0.44535998,0.030399999,52.25,0,0
417078904,417078885,1114122,0.52936,0.4456,0.03352,52.125,0,0
417184138,417184112,1114122,0.52928,0.44535998,0.02936,52.0,0,0
417277492,417277474,1114122,0.52656,0.4376,0.0168,52.375,0,0
417373024,417372994,1114122,0.5308,0.44912,0.02584,52.25,0,0
417478044,417478025,1114122,0.52959996,0.44647998,0.03208,52.25,0,0
417574622,417574593,1114122,0.53,0.44616,0.03136,52.25,0,0
417679491,417679472,1114122,0.52968,0.44904,0.0308,52.0,0,0
417775155,417775137,1114122,0.52936,0.44616,0.03024,52.125,0,0
417880206,417880164,1114122,0.52952,0.44351998,0.028159998,52.125,0,0
417975709,417975691,1114122,0.53007996,0.44632,0.0288,52.125,0,0
418080720,418080691,1114122,0.52959996,0.44584,0.0264,52.125,0,0
418176267,418176249,1114122,0.52864,0.4468,0.028959999,52.25,0,0
418279848,418279829,1114122,0.52832,0.44224,0.02704,52.125,0,0
418373660,418373641,1114122,0.52992,0.44663998,0.03384,52.0,0,0
418480764,418480737,1114122,0.52864,0.44224,0.0232,52.125,0,0
418576308,418576289,1114122,0.53064,0.44528,0.02568,52.125,0,0
418681320,418681291,1114122,0.52952,0.44632,0.02736,52.25,0,0
418777931,418777902,1114122,0.53064,0.44696,0.02832,52.0,0,0
418883027,418882998,1114122,0.53016,0.44472,0.03008,52.125,0,0
418978098,418978080,1114122,0.53183997,0.44744,0.02416,52.0,0,0
419074008,419073987,1114122,0.5284,0.44616,0.0332,52.125,0,0
419179051,419179033,1114122,0.53072,0.44303998,0.026479999,52.0,0,0
419274563,419274541,1114122,0.53064,0.44528,0.03424,52.125,0,0
419380918,419380893,1114122,0.52968,0.44327998,0.02808,52.125,0,0
419475878,419475860,1114122,0.52911997,0.44072,0.028719999,52.125,0,0
419580974,419580955,1114122,0.5288,0.4432,0.02864,52.125,0,0
419781129,419781110,1114122,0.52959996,0.44032,0.029679999,52.25,0,0
419875165,419875141,1114122,0.52928,0.44032,0.03032,52.0,0,0
419981298,419981279,1114122,0.52976,0.43991998,0.024079999,52.0,0,0
420076369,420076350,1114122,0.52783996,0.44103998,0.02592,52.0,0,0
420182817,420182791,1114122,0.53143996,0.44647998,0.02904,52.25,0,0
420276655,420276631,1114122,0.52864,0.44008,0.02832,52.0,0,0
420381625,420381607,1114122,0.52864,0.43872,0.027439998,52.25,0,0
420476808,420476789,1114122,0.5284,0.44008,0.02904,52.0,0,0
420582885,420582854,1114122,0.52936,0.44568,0.030879999,52.25,0,0
420676920,420676901,1114122,0.52816,0.4412,0.03032,52.25,0,0
420783480,420783451,1114122,0.53,0.44272,0.028479999,52.25,0,0
420877985,420877954,1114122,0.52944,0.44239998,0.0276,52.0,0,0
420982918,420982892,1114122,0.52944,0.44015998,0.028239999,52.125,0,0
421077249,421077220,1114122,0.52888,0.44191998,0.030159999,52.125,0,0
421182223,421182205,1114122,0.52968,0.44327998,0.029439999,52.125,0,0
421275863,421275845,1114122,0.52856,0.44024,0.025279999,52.125,0,0
421382575,421382541,1114122,0.53064,0.44072,0.028719999,52.125,0,0
421477609,421477588,1114122,0.5272,0.44184,0.02856,52.25,0,0
421582608,421582579,1114122,0.52728,0.43192,0.00664,52.25,0,0
421679062,421679041,1114122,0.52808,0.43896,0.022799999,52.125,0,0
421784064,421784041,1114122,0.53064,0.44415998,0.030639999,52.0,0,0
421878610,421878568,1114122,0.52832,0.43919998,0.027439998,52.0,0,0
421983588,421983563,1114122,0.53104,0.44151998,0.017439999,52.125,0,0
422079145,422079116,1114122,0.52871996,0.44032,0.03096,52.125,0,0
422184151,422184123,1114122,0.52936,0.4416,0.03032,52.0,0,0
422278660,422278635,1114122,0.52823997,0.44088,0.02984,52.125,0,0
422383305,422383280,1114122,0.53143996,0.44432,0.03304,52.125,0,0
422478305,422478287,1114122,0.528,0.4428,0.029679999,52.0,0,0
422582055,422582037,1114122,0.52976,0.43928,0.02472,52.125,0,0
422675978,422675960,1114122,0.52823997,0.44296,0.02976,52.125,0,0
422781096,422781078,1114122,0.52888,0.44191998,0.02736,52.125,0,0
422876154,422876135,1114122,0.5276,0.44008,0.029439999,52.125,0,0
422982140,422982118,1114122,0.5308,0.44024,0.03056,52.125,0,0
423077659,423077637,1114122,0.52823997,0.44039997,0.03072,52.25,0,0
423184039,423184009,1114122,0.53112,0.44287997,0.03232,52.125,0,0
423279083,423279052,1114122,0.52864,0.44303998,0.029679999,52.0,0,0
423385358,423385329,1114122,0.52744,0.43607998,0.028719999,52.0,0,0
423479805,423479787,1114122,0.52904,0.44008,0.031999998,52.125,0,0
423575363,423575345,1114122,0.52952,0.44,0.029919999,51.875,0,0
423680360,423680341,1114122,0.52456,0.42304,0.012,52.0,0,0
423784558,423784529,1114122,0.53055996,0.43864,0.03352,52.0,0,0
423879623,423879594,1114122,0.52944,0.43791997,0.0284,52.125,0,0
423974556,423974537,1114122,0.52911997,0.42696,0.02144,52.0,0,0
424079706,424079688,1114122,0.52952,0.43264,0.018,52.0,0,0
424184725,424184706,1114122,0.53136,0.43216,0.0184,51.875,0,0
424280956,424280938,1114122,0.52952,0.43368,0.014959999,52.125,0,0
424375509,424375491,1114122,0.52959996,0.43296,0.021359999,52.125,0,0
424480085,424480066,1114122,0.52952,0.43264,0.019439999,52.125,0,0
424576013,424575991,1114122,0.53095996,0.43559998,0.018,52.0,0,0
424681024,424680994,1114122,0.52944,0.42552,0.00336,52.125,0,0
424775509,424775491,1114122,0.53264,0.43247998,0.015199999,52.125,0,0
424881597,424881568,1114122,0.53512,0.43032,0.0067999996,52.125,0,0
424977997,424977972,1114122,0.53528,0.42951998,0.00272,52.125,0,0
425073712,425073694,1114122,0.53344,0.43111998,0.01224,52.0,0,0
425180488,425180467,1114122,0.53312,0.42591998,0.008719999,52.0,0,0
425283717,425283699,1114122,0.53328,0.42856,0.00168,52.125,0,0
425378305,425378276,1114122,0.53312,0.43776,0.013119999,52.125,0,0
425483435,425483410,1114122,0.53264,0.43559998,0.008239999,52.0,0,0
425578375,425578356,1114122,0.53496,0.43256,-0.0018399999,52.125,0,0
425683459,425683429,1114122,0.53224,0.43807998,0.00416,52.0,0,0
425777210,425777191,1114122,0.53696,0.43111998,-0.01616,52.0,0,0
425882213,425882194,1114122,0.534,0.42391998,-0.02096,52.0,0,0
425976706,425976687,1114122,0.53432,0.43535998,-0.01536,52.0,0,0
426081321,426081295,1114122,0.53304,0.44127998,-0.01304,52.0,0,0
426178985,426178960,1114122,0.53392,0.43607998,-0.0095999995,52.125,0,0
426283926,426283908,1114122,0.53968,0.42503998,-0.0512,52.0,0,0
426376499,426376481,1114122,0.5376,0.43368,-0.038399998,52.0,0,0
426482813,426482794,1114122,0.5348,0.44064,-0.03664,52.125,0,0
426579236,426579210,1114122,0.5412,0.43199998,-0.06016,52.25,0,0
426779329,426779310,1114122,0.54576,0.41327998,-0.112799995,52.0,0,0
426874504,426874476,1114122,0.54719996,0.41592,-0.10776,52.125,0,0
426979653,426979625,1114122,0.5516,0.41088,-0.11536,52.0,0,0
427075016,427074994,1114122,0.55496,0.39872,-0.094799995,52.0,0,0
427181112,427181088,1114122,0.56207997,0.39112,-0.1072,52.0,0,0
427277220,427277202,1114122,0.56527996,0.39655998,-0.1184,52.0,0,0
427382471,427382442,1114122,0.5704,0.38847998,-0.10904,52.0,0,0
427477369,427477350,1114122,0.5696,0.38959998,-0.114159994,52.0,0,0
427581114,427581095,1114122,0.57071996,0.37015998,-0.14928,51.875,0,0
427675606,427675588,1114122,0.57184,0.34712,-0.1784,52.0,0,0
427782731,427782706,1114122,0.57567996,0.3412,-0.16488,51.875,0,0
427877700,427877682,1114122,0.57383996,0.34136,-0.16792,51.875,0,0
427982785,427982767,1114122,0.57408,0.34311998,-0.1628,51.875,0,0
428077911,428077893,1114122,0.5688,0.34199998,-0.16431999,52.125,0,0
428183079,428183050,1114122,0.55912,0.3344,-0.15968,52.0,0,0
428278101,428278071,1114122,0.54656,0.32624,-0.14816,52.0,0,0
428385737,428385708,1114122,0.53024,0.32231998,-0.14639999,51.875,0,0
428480679,428480660,1114122,0.51752,0.32432,-0.14592,51.875,0,0
428574421,428574395,1114122,0.50975996,0.33528,-0.13976,51.875,0,0
428680831,428680813,1114122,0.50016,0.33376,-0.13608,52.0,0,0
428785909,428785891,1114122,0.4912,0.33168,-0.13032,51.875,0,0
428879965,428879946,1114122,0.48367998,0.33008,-0.1352,51.75,0,0
428976558,428976540,1114122,0.47711998,0.33864,-0.1248,52.0,0,0
429082623,429082597,1114122,0.46936,0.36472,-0.12728,51.875,0,0
429177112,429177093,1114122,0.46815997,0.39448,-0.1416,51.75,0,0
429283740,429283721,1114122,0.46311998,0.428,-0.14224,52.0,0,0
429388815,429388797,1114122,0.45679998,0.44399998,-0.13336,51.875,0,0
429482694,429482669,1114122,0.44496,0.46624,-0.09992,51.875,0,0
429577156,429577138,1114122,0.44151998,0.46912,-0.12696,51.75,0,0
429681591,429681573,1114122,0.44136,0.48071998,-0.1108,51.875,0,0
429776791,429776766,1114122,0.44,0.47983998,-0.12663999,51.875,0,0
429977208,429977190,1114122,0.44024,0.47792,-0.114719994,51.875,0,0
430082209,430082191,1114122,0.43943998,0.47952,-0.105119996,51.875,0,0
430179476,430179458,1114122,0.43831998,0.47664,-0.11672,51.875,0,0
430273316,430273297,1114122,0.43952,0.48479998,-0.11008,51.75,0,0
430379771,430379746,1114122,0.43928,0.47768,-0.11167999,51.875,0,0
430484709,430484690,1114122,0.43655998,0.47303998,-0.12768,51.875,0,0
430577840,430577803,1114122,0.44103998,0.48207998,-0.123119995,51.875,0,0
430675511,430675492,1114122,0.44992,0.49624,-0.1256,51.75,0,0
430782396,430782367,1114122,0.4572,0.51559997,-0.14024,51.875,0,0
430876013,430875994,1114122,0.45911998,0.53312,-0.14184,51.75,0,0
430982531,430982513,1114122,0.4624,0.54968,-0.15472,51.875,0,0
431182872,431182842,1114122,0.46519998,0.52744,-0.1408,51.875,0,0
431278158,431278140,1114122,0.46791998,0.50376,-0.12512,51.625,0,0
431384226,431384194,1114122,0.47968,0.49679998,-0.13239999,51.625,0,0
431478712,431478694,1114122,0.49424,0.49848,-0.12743999,51.75,0,0
431574295,431574276,1114122,0.502,0.49063998,-0.134,51.75,0,0
431681362,431681344,1114122,0.50383997,0.47079998,-0.1296,51.625,0,0
431775726,431775707,1114122,0.50927997,0.46032,-0.13192,51.625,0,0
431881946,431881921,1114122,0.51408,0.45352,-0.119839996,51.75,0,0
431976420,431976393,1114122,0.51688,0.43232,-0.118159994,51.625,0,0
432083364,432083343,1114122,0.52143997,0.42064,-0.12576,51.5,0,0
432178636,432178607,1114122,0.52783996,0.41911998,-0.12056,51.75,0,0
432379610,432379592,1114122,0.52888,0.39552,-0.11071999,51.75,0,0
432578844,432578816,1114122,0.5388,0.37263998,-0.11408,51.5,0,0
432673822,432673804,1114122,0.5408,0.37039998,-0.116239995,51.5,0,0
432779052,432779027,1114122,0.54744,0.37471998,-0.12576,51.625,0,0
432884661,432884643,1114122,0.54535997,0.37576,-0.111839995,51.625,0,0
432979158,432979137,1114122,0.54912,0.3636,-0.11504,51.625,0,0
433076634,433076616,1114122,0.54767996,0.34967998,-0.12799999,51.625,0,0
433182860,433182841,1114122,0.55208,0.34792,-0.121599995,51.375,0,0
433276778,433276759,1114122,0.55736,0.32696,-0.1408,51.5,0,0
433381857,433381838,1114122,0.56791997,0.29384,-0.18536,51.625,0,0
433475812,433475794,1114122,0.5652,0.296,-0.15816,51.625,0,0
433580809,433580791,1114122,0.56312,0.3064,-0.15655999,51.375,0,0
433675312,433675294,1114122,0.56064,0.31399998,-0.16408,51.5,0,0
433982415,433982372,1114122,0.56144,0.30616,-0.16343999,51.5,0,0
434077330,434077309,1114122,0.56159997,0.30568,-0.16951999,51.5,0,0
434181428,434181403,1114122,0.56816,0.32448,-0.16287999,51.5,0,0
434277571,434277553,1114122,0.56688,0.33368,-0.16608,51.5,0,0
434380909,434380891,1114122,0.56232,0.35711998,-0.17216,51.375,0,0
434476515,434476486,1114122,0.56264,0.38408,-0.16832,51.375,0,0
434581502,434581477,1114122,0.55992,0.39343998,-0.17831999,51.375,0,0
434675955,434675937,1114122,0.56224,0.40552,-0.17352,51.25,0,0
434782922,434782896,1114122,0.56744,0.412,-0.17503999,51.375,0,0
434877930,434877912,1114122,0.57376,0.4052,-0.17864,51.375,0,0
434983608,434983587,1114122,0.5832,0.4068,-0.18184,51.25,0,0
435080722,435080697,1114122,0.58456,0.39744,-0.19328,51.25,0,0
435178143,435178125,1114122,0.58848,0.40952,-0.19336,51.125,0,0
435283905,435283887,1114122,0.59544,0.43152,-0.19712,51.25,0,0
435378424,435378392,1114122,0.6008,0.44408,-0.20303999,51.25,0,0
435484499,435484481,1114122,0.6016,0.44623998,-0.19895999,51.25,0,0
435683955,435683937,1114122,0.60128,0.456,-0.20592,51.25,0,0
435778603,435778573,1114122,0.6056,0.46359998,-0.21448,51.125,0,0
435883676,435883657,1114122,0.60719997,0.47239998,-0.21616,51.125,0,0
435978859,435978834,1114122,0.60855997,0.49407998,-0.22863999,51.25,0,0
436074604,436074561,1114122,0.60776,0.49903998,-0.22736,51.0,0,0
436181432,436181403,1114122,0.60704,0.48823997,-0.23935999,51.125,0,0
436382212,436382191,1114122,0.618,0.45703998,-0.22712,51.25,0,0
436477786,436477764,1114122,0.61807996,0.4436,-0.2288,51.0,0,0
436584143,436584125,1114122,0.61432,0.45024,-0.21256,51.0,0,0
436679287,436679250,1114122,0.60256,0.44167998,-0.20432,51.125,0,0
436774908,436774890,1114122,0.59007996,0.44127998,-0.206,51.0,0,0
436881989,436881964,1114122,0.57808,0.43928,-0.19008,51.0,0,0
436976892,436976873,1114122,0.5708,0.44103998,-0.18023999,51.0,0,0
437082101,437082083,1114122,0.55296,0.44,-0.17904,51.0,0,0
437179704,437179675,1114122,0.53672,0.44032,-0.17471999,50.875,0,0
437274712,437274691,1114122,0.52208,0.42839998,-0.16888,51.0,0,0
437380807,437380788,1114122,0.5128,0.42536,-0.15544,50.875,0,0
437477358,437477340,1114122,0.4996,0.4328,-0.14496,51.0,0,0
437582475,437582442,1114122,0.49288,0.44439998,-0.14032,50.875,0,0
437677908,437677889,1114122,0.49368,0.45376,-0.14632,50.875,0,0
437783972,437783948,1114122,0.49424,0.47919998,-0.1256,50.875,0,0
437880008,437879990,1114122,0.49824,0.47447997,-0.14224,50.875,0,0
437985110,437985092,1114122,0.50848,0.47671998,-0.13728,50.875,0,0
438080304,438080278,1114122,0.5164,0.47208,-0.14447999,50.875,0,0
438175351,438175325,1114122,0.52408,0.46879998,-0.15792,50.875,0,0
438281736,438281711,1114122,0.52848,0.50048,-0.17384,50.875,0,0
438376159,438376141,1114122,0.53584,0.508,-0.17176,50.875,0,0
438586159,438586141,1114122,0.54344,0.47375998,-0.16576,50.75,0,0
438681753,438681722,1114122,0.55504,0.44336,-0.1716,50.75,0,0
438778305,438778287,1114122,0.5664,0.42791998,-0.17279999,50.75,0,0
438883342,438883312,1114122,0.56848,0.42615998,-0.16424,50.75,0,0
438978417,438978392,1114122,0.56736,0.41935998,-0.18295999,50.75,0,0
439085852,439085833,1114122,0.57423997,0.40912,-0.1724,50.75,0,0
439179440,439179408,1114122,0.57423997,0.41623998,-0.19136,50.625,0,0
439274967,439274949,1114122,0.57536,0.44184,-0.15816,50.625,0,0
439381054,439381036,1114122,0.5748,0.45376,-0.16864,50.625,0,0
439487098,439487062,1114122,0.57247996,0.44303998,-0.15327999,50.5,0,0
439582624,439582595,1114122,0.57464,0.41592,-0.14288,50.75,0,0
439687609,439687591,1114122,0.5688,0.38096,-0.13696,50.5,0,0
439783960,439783934,1114122,0.56935996,0.36216,-0.13232,50.5,0,0
439878860,439878841,1114122,0.56615996,0.34568,-0.13576,50.375,0,0
439984767,439984741,1114122,0.56479996,0.32336,-0.12935999,50.625,0,0
440079269,440079250,1114122,0.53584,0.36696,0.03416,50.5,0,0
440174812,440174794,1114122,0.53848,0.35191998,0.026719999,50.625,0,0
440279805,440279787,1114122,0.5376,0.34423998,0.028479999,50.5,0,0
440375359,440375341,1114122,0.54424,0.36095998,0.0288,50.5,0,0
440481769,440481750,1114122,0.54784,0.3768,0.02448,50.375,0,0
440576895,440576870,1114122,0.54952,0.35935998,0.0168,50.5,0,0
440683013,440682991,1114122,0.54815996,0.33848,0.02128,50.375,0,0
440777508,440777489,1114122,0.54631996,0.29072,0.0116799995,50.375,0,0
440883593,440883574,1114122,0.54719996,0.25304,0.010079999,50.375,0,0
440977234,440977208,1114122,0.54424,0.22928,-0.0032799998,50.5,0,0
441082177,441082158,1114122,0.54264,0.21888,8e-05,50.375,0,0
441177209,441177188,1114122,0.54336,0.21071999,-0.0055199997,50.25,0,0
441282558,441282540,1114122,0.54664,0.22488,-0.0036,50.25,0,0
441379931,441379912,1114122,0.55144,0.23079999,-0.00064,50.25,0,0
441483110,441483091,1114122,0.55399996,0.21752,-0.00992,50.375,0,0
441577608,441577590,1114122,0.55552,0.19712,-0.02104,50.375,0,0
441683680,441683661,1114122,0.55527997,0.1776,-0.0284,50.25,0,0
441780130,441780112,1114122,0.55496,0.15776,-0.04208,50.125,0,0
441875196,441875178,1114122,0.55447996,0.14624,-0.04632,50.125,0,0
441982889,441982863,1114122,0.55704,0.13032,-0.07448,50.25,0,0
442077887,442077869,1114122,0.57848,0.10768,-0.18144,50.125,0,0
442174012,442173994,1114122,0.59727997,0.13408,-0.21576,50.25,0,0
442282973,442282955,1114122,0.60328,0.18744,-0.2148,50.25,0,0
442388218,442388191,1114122,0.59863997,0.26352,-0.17911999,50.125,0,0
442483785,442483756,1114122,0.59463996,0.30159998,-0.16839999,50.125,0,0
442578246,442578219,1114122,0.59376,0.33455998,-0.16176,50.375,0,0
442684355,442684329,1114122,0.5816,0.37087998,-0.15968,50.125,0,0
442780736,442780717,1114122,0.57712,0.39744,-0.15752,50.125,0,0
442874362,442874344,1114122,0.57224,0.41871998,-0.17624,50.125,0,0
442983545,442983527,1114122,0.56656,0.44847998,-0.18336,50.125,0,0
443078494,443078476,1114122,0.56751996,0.47375998,-0.19216,50.25,0,0
443183710,443183684,1114122,0.55439997,0.46304,-0.1752,50.0,0,0
443278781,443278756,1114122,0.536,0.41935998,-0.14559999,50.0,0,0
443384653,443384632,1114122,0.51456,0.32615998,-0.12288,50.125,0,0
443479158,443479140,1114122,0.49247998,0.24399999,-0.1188,50.0,0,0
443585216,443585197,1114122,0.47072,0.21824,-0.11824,50.0,0,0
443690213,443690191,1114122,0.44935998,0.22952,-0.109759994,50.0,0,0
443784713,443784694,1114122,0.4328,0.23799999,-0.104959995,50.0,0,0
443879205,443879187,1114122,0.41368,0.25351998,-0.106319994,50.0,0,0
443985264,443985245,1114122,0.3936,0.23648,-0.10144,49.875,0,0
444079181,444079163,1114122,0.37432,0.2076,-0.1052,49.75,0,0
444184207,444184178,1114122,0.35288,0.15055999,-0.109919995,49.75,0,0
444278209,444278191,1114122,0.32992,0.13784,-0.0872,49.875,0,0
444384497,444384468,1114122,0.31296,0.13416,-0.103199996,49.875,0,0
444479427,444479409,1114122,0.30152,0.14536,-0.10024,49.75,0,0
444573260,444573241,1114122,0.30247998,0.17359999,-0.09144,49.875,0,0
444678258,444678240,1114122,0.29568,0.20536,-0.08424,49.875,0,0
444784727,444784709,1114122,0.2884,0.21271999,-0.09064,49.75,0,0
444879729,444879700,1114122,0.27688,0.21232,-0.08864,49.75,0,0
444974723,444974705,1114122,0.27096,0.19712,-0.098079994,49.875,0,0
445079757,445079738,1114122,0.27111998,0.1964,-0.09848,49.75,0,0
445174804,445174783,1114122,0.27984,0.22287999,-0.08152,49.625,0,0
445283060,445283041,1114122,0.27984,0.23864,-0.08912,49.75,0,0
445377643,445377618,1114122,0.27592,0.22943999,-0.10176,49.75,0,0
445482549,445482531,1114122,0.27592,0.23536,-0.09072,49.625,0,0
445577606,445577587,1114122,0.27704,0.24248,-0.086559996,49.625,0,0
445682673,445682655,1114122,0.27912,0.23264,-0.09496,49.5,0,0
445777731,445777712,1114122,0.28048,0.20143999,-0.10392,49.625,0,0
445883661,445883642,1114122,0.28239998,0.196,-0.09552,49.625,0,0
445978166,445978141,1114122,0.28496,0.18232,-0.109759994,49.375,0,0
446084269,446084241,1114122,0.28432,0.17056,-0.11896,49.5,0,0
446178708,446178690,1114122,0.2832,0.17656,-0.1348,49.5,0,0
446274262,446274244,1114122,0.28208,0.17887999,-0.11808,49.5,0,0
446379259,446379241,1114122,0.28312,0.1776,-0.12128,49.5,0,0
446475631,446475609,1114122,0.28632,0.19567999,-0.101919994,49.375,0,0
446580688,446580667,1114122,0.29056,0.20424,-0.09896,49.625,0,0
446674325,446674307,1114122,0.28919998,0.20792,-0.107599996,49.25,0,0
446779312,446779291,1114122,0.28184,0.20775999,-0.11511999,49.5,0,0
446874860,446874841,1114122,0.27168,0.20199999,-0.13239999,49.25,0,0
446981991,446981966,1114122,0.26552,0.19688,-0.12872,49.375,0,0
447077521,447077498,1114122,0.25832,0.19576,-0.11951999,49.625,0,0
447182512,447182493,1114122,0.2568,0.21703999,-0.114719994,49.25,0,0
447277057,447277033,1114122,0.24655999,0.21096,-0.13408,49.25,0,0
447383770,447383752,1114122,0.24343999,0.22063999,-0.11696,49.25,0,0
447478821,447478802,1114122,0.23512,0.2192,-0.12032,49.25,0,0
447583898,447583879,1114122,0.23256,0.22943999,-0.121759996,49.125,0,0
447678995,447678964,1114122,0.22656,0.22919999,-0.12487999,49.125,0,0
447783969,447783950,1114122,0.22,0.22872,-0.12855999,49.125,0,0
447879171,447879145,1114122,0.2172,0.23584,-0.114879996,49.125,0,0
447984080,447984062,1114122,0.21103999,0.23519999,-0.13728,49.25,0,0
448080305,448080287,1114122,0.20672,0.24632,-0.11864,49.125,0,0
448176676,448176655,1114122,0.2052,0.25327998,-0.12344,49.25,0,0
448281739,448281718,1114122,0.19928,0.25191998,-0.12728,49.25,0,0
448377007,448376964,1114122,0.19727999,0.25735998,-0.12592,49.125,0,0
448481891,448481873,1114122,0.19216,0.26152,-0.13248,49.125,0,0
448575856,448575837,1114122,0.19112,0.26056,-0.1348,49.125,0,0
448682961,448682941,1114122,0.18336,0.26216,-0.13272,49.125,0,0
448778609,448778567,1114122,0.18144,0.26552,-0.134,49.0,0,0
448883509,448883491,1114122,0.17576,0.2652,-0.13896,49.125,0,0
448979830,448979805,1114122,0.17464,0.258,-0.13256,49.125,0,0
449074800,449074781,1114122,0.17199999,0.24727999,-0.13127999,49.125,0,0
449180659,449180641,1114122,0.16839999,0.23087999,-0.1428,49.125,0,0
449276268,449276250,1114122,0.16448,0.19951999,-0.15327999,49.125,0,0
449475745,449475727,1114122,0.15416,0.15616,-0.15184,49.0,0,0
449580708,449580690,1114122,0.15104,0.14928,-0.15959999,48.875,0,0
449675227,449675206,1114122,0.15144,0.15376,-0.15808,49.125,0,0
449782690,449782672,1114122,0.14768,0.16664,-0.15456,48.875,0,0
449877884,449877859,1114122,0.14863999,0.17552,-0.15856,48.875,0,0
449975255,449975237,1114122,0.14792,0.18816,-0.15696,48.875,0,0
450080509,450080480,1114122,0.14216,0.20303999,-0.15376,48.875,0,0
450175414,450175396,1114122,0.14288,0.20831999,-0.1604,48.875,0,0
450282944,450282926,1114122,0.13896,0.20352,-0.15463999,48.875,0,0
450378064,450378045,1114122,0.13808,0.21079999,-0.15135999,48.75,0,0
450483241,450483216,1114122,0.13528,0.21759999,-0.16759999,48.875,0,0
450580660,450580642,1114122,0.13511999,0.21552,-0.15944,48.75,0,0
450685718,450685699,1114122,0.1328,0.20831999,-0.15584,48.75,0,0
450875835,450875816,1114122,0.13336,0.20456,-0.15624,48.625,0,0
450983554,450983525,1114122,0.13312,0.20072,-0.15504,48.5,0,0
451078642,451078617,1114122,0.12784,0.2016,-0.16839999,48.625,0,0
451184057,451184039,1114122,0.13295999,0.20872,-0.15232,48.625,0,0
451278622,451278603,1114122,0.12976,0.20031999,-0.16864,48.5,0,0
451384617,451384592,1114122,0.1308,0.2016,-0.16263999,48.625,0,0
451480160,451480141,1114122,0.12704,0.18664,-0.168,48.625,0,0
451585161,451585141,1114122,0.132,0.20415999,-0.16431999,48.625,0,0
451679689,451679664,1114122,0.13152,0.20768,-0.16032,48.625,0,0
451784655,451784637,1114122,0.12935999,0.19392,-0.16008,48.625,0,0
451880227,451880194,1114122,0.124239996,0.18256,-0.16768,48.5,0,0
452079736,452079711,1114122,0.12239999,0.16968,-0.17344,48.5,0,0
452174207,452174187,1114122,0.12224,0.15944,-0.16856,48.375,0,0
452279256,452279238,1114122,0.121039994,0.16319999,-0.17016,48.375,0,0
452383163,452383145,1114122,0.12143999,0.16888,-0.17503999,48.375,0,0
452479287,452479269,1114122,0.12143999,0.16679999,-0.16815999,48.375,0,0
452584454,452584414,1114122,0.12472,0.17424,-0.16488,48.375,0,0
452679432,452679413,1114122,0.12264,0.16832,-0.16176,48.375,0,0
452774526,452774501,1114122,0.12128,0.168,-0.16752,48.25,0,0
452880860,452880841,1114122,0.11976,0.17544,-0.16632,48.25,0,0
452975359,452975341,1114122,0.120639995,0.17704,-0.168,48.375,0,0
453083519,453083494,1114122,0.11808,0.18512,-0.16632,48.375,0,0
453179782,453179756,1114122,0.118879996,0.18648,-0.16511999,48.25,0,0
453286162,453286141,1114122,0.118719995,0.18536,-0.17016,48.375,0,0
453379954,453379925,1114122,0.1184,0.17167999,-0.174,48.375,0,0
453484878,453484860,1114122,0.11728,0.16504,-0.17208,48.25,0,0
453579936,453579917,1114122,0.118319996,0.16207999,-0.17688,48.25,0,0
453685050,453685031,1114122,0.11744,0.16808,-0.16488,48.25,0,0
453882644,453882625,1114122,0.11424,0.19008,-0.1664,48.0,0,0
453977648,453977630,1114122,0.116639994,0.19567999,-0.16207999,48.125,0,0
454082690,454082669,1114122,0.115679994,0.2084,-0.16576,48.25,0,0
454187779,454187760,1114122,0.11824,0.21672,-0.17072,48.25,0,0
454281590,454281565,1114122,0.11696,0.2312,-0.1572,48.0,0,0
454482994,454482976,1114122,0.1116,0.2452,-0.18496,47.875,0,0
454578153,454578128,1114122,0.1116,0.2556,-0.19783999,48.125,0,0
454683206,454683178,1114122,0.11096,0.27104,-0.17695999,48.0,0,0
454778209,454778191,1114122,0.113919996,0.2852,-0.1752,48.0,0,0
454873760,454873741,1114122,0.11071999,0.29176,-0.17688,48.125,0,0
454980731,454980712,1114122,0.10736,0.28584,-0.20592,48.125,0,0
455085950,455085932,1114122,0.11408,0.31895998,-0.182,48.0,0,0
455181450,455181429,1114122,0.11464,0.324,-0.18176,47.875,0,0
455275914,455275896,1114122,0.112239994,0.34272,-0.19399999,48.0,0,0
455380984,455380965,1114122,0.113359995,0.36512,-0.18616,47.875,0,0
455486962,455486941,1114122,0.11256,0.39319998,-0.20855999,47.875,0,0
455582564,455582540,1114122,0.111839995,0.40792,-0.23256,47.875,0,0
455687560,455687535,1114122,0.113359995,0.42431998,-0.21936,47.875,0,0
455782078,455782049,1114122,0.11864,0.42536,-0.2076,47.875,0,0
455877555,455877537,1114122,0.118319996,0.43831998,-0.17775999,47.75,0,0
455983824,455983805,1114122,0.12592,0.44992,-0.19591999,47.75,0,0
456087567,456087548,1114122,0.1244,0.45744,-0.2016,47.875,0,0
456182063,456182045,1114122,0.12911999,0.48031998,-0.19888,47.75,0,0
456277612,456277594,1114122,0.12536,0.47912,-0.20383999,47.75,0,0
456381569,456381551,1114122,0.12712,0.47647998,-0.20391999,47.625,0,0
456476656,456476631,1114122,0.1284,0.47728,-0.19328,47.625,0,0
456582148,456582120,1114122,0.13896,0.48303998,-0.20728,47.625,0,0
456688160,456688141,1114122,0.14544,0.48928,-0.19112,47.75,0,0
456782665,456782646,1114122,0.15128,0.49216,-0.1864,47.5,0,0
456877179,456877153,1114122,0.15488,0.49447998,-0.18552,47.75,0,0
456983274,456983241,1114122,0.1604,0.48951998,-0.22184,47.625,0,0
457076920,457076902,1114122,0.16239999,0.49359998,-0.20896,47.5,0,0
457182740,457182722,1114122,0.16768,0.4772,-0.20887999,47.5,0,0
457277212,457277194,1114122,0.16024,0.47439998,-0.20495999,47.625,0,0
457382208,457382187,1114122,0.15519999,0.47127998,-0.2164,47.5,0,0
457488275,457488257,1114122,0.14456,0.48104,-0.2224,47.625,0,0
457584713,457584694,1114122,0.1364,0.48928,-0.2436,47.5,0,0
457679888,457679859,1114122,0.12784,0.5064,-0.25599998,47.5,0,0
457784968,457784943,1114122,0.11496,0.50791997,-0.27416,47.5,0,0
457879964,457879945,1114122,0.10736,0.51432,-0.2776,47.375,0,0
457985101,457985072,1114122,0.10128,0.51647997,-0.29064,47.375,0,0
458090035,458090017,1114122,0.09776,0.52808,-0.30936,47.375,0,0
458185186,458185157,1114122,0.09944,0.54016,-0.32984,47.5,0,0
458280091,458280073,1114122,0.09696,0.5744,-0.36431998,47.375,0,0
458375558,458375540,1114122,0.09872,0.58584,-0.43023998,47.375,0,0
458480505,458480487,1114122,0.09456,0.60447997,-0.45663998,47.375,0,0
458585334,458585302,1114122,0.106479995,0.60807997,-0.44944,47.375,0,0
458680339,458680321,1114122,0.11456,0.61904,-0.43128,47.5,0,0
458785510,458785492,1114122,0.14552,0.63632,-0.4048,47.25,0,0
458880441,458880423,1114122,0.16,0.6608,-0.3892,47.25,0,0
459083108,459083074,1114122,0.15079999,0.65591997,-0.4368,47.125,0,0
459188066,459188048,1114122,0.14063999,0.65024,-0.44792,47.375,0,0
459283291,459283256,1114122,0.13703999,0.65808,-0.4256,47.25,0,0
459378349,459378323,1114122,0.14736,0.6696,-0.37432,47.375,0,0
459484362,459484341,1114122,0.16768,0.686,-0.30952,47.25,0,0
459580905,459580887,1114122,0.19136,0.69023997,-0.29568,47.25,0,0
459678345,459678324,1114122,0.21023999,0.69576,-0.28263998,47.0,0,0
459783414,459783393,1114122,0.21759999,0.69479996,-0.28024,47.125,0,0
459888625,459888585,1114122,0.22143999,0.70111996,-0.30816,47.125,0,0
459983698,459983673,1114122,0.22272,0.70695996,-0.32632,47.0,0,0
460078638,460078620,1114122,0.22143999,0.71287996,-0.32512,47.125,0,0
460183669,460183651,1114122,0.226,0.70647997,-0.32792,47.0,0,0
460289660,460289641,1114122,0.24248,0.71599996,-0.32072,47.125,0,0
460383795,460383777,1114122,0.26503998,0.72551996,-0.2976,47.0,0,0
460478859,460478841,1114122,0.28096,0.72775996,-0.29727998,47.0,0,0
460584709,460584691,1114122,0.29904,0.73223996,-0.28368,47.0,0,0
460680303,460680285,1114122,0.3084,0.72679996,-0.28983998,47.0,0,0
460786569,460786550,1114122,0.31647998,0.73928,-0.29031998,47.0,0,0
460881581,460881562,1114122,0.31776,0.75519997,-0.29999998,47.0,0,0
460987987,460987962,1114122,0.32544,0.75527996,-0.2924,46.75,0,0
461177966,461177947,1114122,0.33183998,0.7716,-0.27752,47.0,0,0
461282959,461282941,1114122,0.33951998,0.77184,-0.2692,46.875,0,0
461377494,461377476,1114122,0.3532,0.77199996,-0.28151998,47.0,0,0
461480402,461480365,1114122,0.36616,0.77168,-0.27848,46.875,0,0
461575927,461575908,1114122,0.3908,0.7708,-0.28272,46.875,0,0
461682026,461682007,1114122,0.40824,0.77919996,-0.2904,46.875,0,0
461777100,461777071,1114122,0.41895998,0.77191997,-0.29839998,46.75,0,0
461882505,461882487,1114122,0.41976,0.768,-0.3024,46.75,0,0
461978064,461978045,1114122,0.42047998,0.77304,-0.29255998,46.75,0,0
462084701,462084683,1114122,0.4244,0.7784,-0.29608,46.75,0,0
462178620,462178594,1114122,0.42192,0.78007996,-0.31368,46.75,0,0
462284923,462284896,1114122,0.42295998,0.77879995,-0.33991998,46.625,0,0
462379909,462379883,1114122,0.43175998,0.78168,-0.35608,46.75,0,0
462474905,462474887,1114122,0.43967998,0.77647996,-0.36304,46.75,0,0
462579950,462579932,1114122,0.45799997,0.77616,-0.37184,46.75,0,0
462683662,462683644,1114122,0.4692,0.77848,-0.36064,46.625,0,0
462778163,462778141,1114122,0.48856,0.75184,-0.38792,46.75,0,0
462883155,462883137,1114122,0.496,0.7496,-0.34616,46.5,0,0
462978709,462978691,1114122,0.50608,0.74656,-0.32064,46.75,0,0
463075309,463075291,1114122,0.5068,0.75448,-0.28952,46.5,0,0
463182952,463182927,1114122,0.51088,0.74895996,-0.26992,46.625,0,0
463279009,463278991,1114122,0.51607996,0.74351996,-0.25368,46.625,0,0
463375371,463375349,1114122,0.52128,0.72823995,-0.2368,46.5,0,0
463480437,463480418,1114122,0.53024,0.71199995,-0.22552,46.5,0,0
463575518,463575499,1114122,0.54568,0.70144,-0.20984,46.5,0,0
463681162,463681141,1114122,0.56096,0.68272,-0.19992,46.375,0,0
463776716,463776695,1114122,0.57312,0.67656,-0.19919999,46.5,0,0
463883311,463883287,1114122,0.58168,0.6752,-0.1804,46.375,0,0
463978405,463978367,1114122,0.5848,0.66832,-0.18664,46.375,0,0
464083309,464083291,1114122,0.5848,0.65488,-0.19615999,46.5,0,0
464178505,464178479,1114122,0.59112,0.66328,-0.19671999,46.5,0,0
464274418,464274393,1114122,0.59312,0.66432,-0.1876,46.5,0,0
464381007,464380964,1114122,0.59752,0.65352,-0.16752,46.5,0,0
464474987,464474969,1114122,0.60288,0.64247996,-0.16552,46.5,0,0
464579959,464579941,1114122,0.61192,0.63864,-0.18056,46.5,0,0
464674512,464674493,1114122,0.62184,0.63479996,-0.19904,46.5,0,0
464875010,464874991,1114122,0.62064,0.6468,-0.24136,46.375,0,0
464980013,464979995,1114122,0.61816,0.65503997,-0.24983999,46.5,0,0
465076323,465076305,1114122,0.61432,0.65976,-0.2436,46.25,0,0
465181475,465181443,1114122,0.61832,0.65783995,-0.25015998,46.25,0,0
465277159,465277140,1114122,0.6256,0.64463997,-0.24095999,46.25,0,0
465382159,465382141,1114122,0.63736,0.62248,-0.2312,46.375,0,0
465476484,465476466,1114122,0.64416,0.61696,-0.23008,46.25,0,0
465581557,465581536,1114122,0.65,0.6008,-0.21304,46.25,0,0
465675113,465675091,1114122,0.652,0.5904,-0.2188,46.25,0,0
465780113,465780094,1114122,0.65568,0.57912,-0.2184,46.25,0,0
465874608,465874589,1114122,0.65664,0.5884,-0.21552,46.25,0,0
465979320,465979302,1114122,0.654,0.56295997,-0.20383999,46.25,0,0
466074329,466074310,1114122,0.65768,0.54671997,-0.18376,46.125,0,0
466180158,466180140,1114122,0.66192,0.524,-0.1648,46.125,0,0
466275739,466275714,1114122,0.66216,0.50488,-0.15935999,46.125,0,0
466382026,466382008,1114122,0.658,0.48464,-0.15032,46.125,0,0
466477165,466477147,1114122,0.65184,0.48048,-0.13032,46.125,0,0
466582070,466582051,1114122,0.64192,0.46183997,-0.12,46.25,0,0
466677179,466677161,1114122,0.62808,0.46416,-0.104399994,46.0,0,0
466782859,466782840,1114122,0.61656,0.4588,-0.09184,46.25,0,0
466878432,466878399,1114122,0.60112,0.43376,-0.08976,46.0,0,0
466982359,466982341,1114122,0.58768,0.36655998,-0.07616,46.125,0,0
467077912,467077893,1114122,0.58112,0.34008,-0.0648,46.125,0,0
467182907,467182887,1114122,0.57,0.3464,-0.056959998,46.0,0,0
467277491,467277472,1114122,0.55904,0.40583998,-0.05752,46.0,0,0
467382689,467382658,1114122,0.55847996,0.51936,-0.094399996,46.125,0,0
467477616,467477597,1114122,0.55424,0.61008,-0.13256,46.0,0,0
467582621,467582601,1114122,0.5248,0.67855996,-0.16535999,45.875,0,0
467676420,467676393,1114122,0.50776,0.69464,-0.15327999,45.875,0,0
467782873,467782848,1114122,0.51344,0.66223997,-0.121599995,46.0,0,0
467877965,467877930,1114122,0.53608,0.592,-0.0876,45.875,0,0
467983005,467982987,1114122,0.56848,0.5376,-0.05504,45.875,0,0
468077969,468077950,1114122,0.58416,0.51072,-0.056479998,46.0,0,0
468183589,468183557,1114122,0.59224,0.52704,-0.07152,45.75,0,0
468279112,468279091,1114122,0.58856,0.56136,-0.09664,46.0,0,0
468376770,468376751,1114122,0.58656,0.58647996,-0.09128,45.875,0,0
468481766,468481740,1114122,0.57728,0.57936,-0.06064,45.75,0,0
468576272,468576250,1114122,0.58136,0.54679996,-0.05608,45.875,0,0
468681255,468681237,1114122,0.59088,0.50088,-0.03672,45.875,0,0
468775809,468775791,1114122,0.60495996,0.44992,-0.041279998,45.625,0,0
468881830,468881794,1114122,0.61768,0.42872,-0.02928,45.875,0,0
468977376,468977358,1114122,0.63247997,0.4296,-0.04776,45.875,0,0
469081313,469081295,1114122,0.64088,0.47287998,-0.05408,45.75,0,0
469175987,469175968,1114122,0.64831996,0.49736,-0.06808,45.75,0,0
469281911,469281886,1114122,0.65168,0.49912,-0.078,45.75,0,0
469376371,469376353,1114122,0.6592,0.47584,-0.0788,45.75,0,0
469481397,469481354,1114122,0.66424,0.42744,-0.08192,45.625,0,0
469576312,469576286,1114122,0.672,0.37344,-0.08304,45.875,0,0
469681223,469681202,1114122,0.67528,0.33672,-0.089039996,45.625,0,0
469776271,469776250,1114122,0.67495996,0.33416,-0.09248,45.5,0,0
469882501,469882483,1114122,0.66495997,0.34967998,-0.084,45.625,0,0
469978983,469978948,1114122,0.66183996,0.38288,-0.0676,45.5,0,0
470074620,470074591,1114122,0.64992,0.4048,-0.050959997,45.625,0,0
470182774,470182748,1114122,0.63695997,0.41088,-0.0416,45.625,0,0
470277260,470277241,1114122,0.62192,0.39727998,-0.025519999,45.625,0,0
470382269,470382240,1114122,0.60536,0.39664,-0.021119999,45.625,0,0
470476758,470476737,1114122,0.59336,0.41112,-0.01144,45.75,0,0
470582842,470582817,1114122,0.58312,0.42176,-0.00464,45.375,0,0
470784298,470784277,1114122,0.56896,0.44336,0.0060799997,45.5,0,0
470877904,470877886,1114122,0.56416,0.4288,0.0095999995,45.5,0,0
470982866,470982840,1114122,0.5656,0.42624,0.01136,45.5,0,0
471077363,471077344,1114122,0.56672,0.42863998,0.0035199998,45.75,0,0
471182359,471182340,1114122,0.57471997,0.47864,-0.00256,45.5,0,0
471277078,471277060,1114122,0.57488,0.54264,-0.03752,45.5,0,0
471382287,471382258,1114122,0.57136,0.63496,-0.08704,45.625,0,0
471477201,471477183,1114122,0.55704,0.6904,-0.123279996,45.375,0,0
471583510,471583490,1114122,0.54447997,0.70232,-0.13176,45.375,0,0
471677974,471677948,1114122,0.53424,0.66863996,-0.08712,45.5,0,0
471878552,471878533,1114122,0.55816,0.58904,-0.043759998,45.625,0,0
471985050,471985018,1114122,0.57416,0.56816,-0.04624,45.5,0,0
472079979,472079957,1114122,0.58568,0.55096,-0.03992,45.5,0,0
472177519,472177501,1114122,0.5936,0.55976,-0.04968,45.375,0,0
472283838,472283811,1114122,0.59664,0.58136,-0.063439995,45.25,0,0
472378319,472378300,1114122,0.59544,0.58944,-0.06752,45.375,0,0
472485194,472485172,1114122,0.59392,0.57655996,-0.055439997,45.375,0,0
472578862,472578841,1114122,0.59775996,0.55832,-0.05576,45.375,0,0
472782988,472782969,1114122,0.61112,0.51416,-0.042239998,45.375,0,0
472878075,472878041,1114122,0.61752,0.5036,-0.0488,45.25,0,0
472984168,472984150,1114122,0.62544,0.51,-0.049999997,45.5,0,0
473078201,473078172,1114122,0.624,0.50896,-0.04792,45.125,0,0
473183685,473183665,1114122,0.62224,0.50648,-0.0512,45.125,0,0
473279209,473279191,1114122,0.62,0.51176,-0.051519997,45.25,0,0
473384220,473384193,1114122,0.62096,0.49295998,-0.04656,45.25,0,0
473479761,473479743,1114122,0.62575996,0.45455998,-0.03632,45.25,0,0
473574262,473574241,1114122,0.63008,0.40432,-0.038,45.125,0,0
473679262,473679244,1114122,0.63544,0.37464,-0.038399998,45.25,0,0
473784283,473784265,1114122,0.63615996,0.34616,-0.04608,45.375,0,0
473878540,473878519,1114122,0.63695997,0.34272,-0.05064,45.25,0,0
473984813,473984795,1114122,0.644,0.36488,-0.05456,45.25,0,0
474079313,474079294,1114122,0.64816,0.4024,-0.053439997,45.125,0,0
474186089,474186068,1114122,0.65208,0.42143998,-0.057439998,45.25,0,0
474279889,474279858,1114122,0.6508,0.42032,-0.05896,45.0,0,0
474376294,474376266,1114122,0.6536,0.40015998,-0.0652,45.25,0,0
474481503,474481483,1114122,0.65432,0.38856,-0.042239998,45.25,0,0
474577016,474576991,1114122,0.65848,0.37223998,-0.05328,45.125,0,0
474777562,474777544,1114122,0.67056,0.37175998,-0.0652,45.25,0,0
474882560,474882541,1114122,0.67376,0.39744,-0.07192,45.125,0,0
474978981,474978963,1114122,0.68088,0.41432,-0.07936,45.125,0,0
475074709,475074690,1114122,0.68272,0.42143998,-0.0884,45.125,0,0
475189162,475189144,1114122,0.68215996,0.4192,-0.08232,45.125,0,0
475275259,475275241,1114122,0.67895997,0.42479998,-0.0748,45.125,0,0
475381748,475381729,1114122,0.67416,0.43695998,-0.07232,45.125,0,0
475486940,475486911,1114122,0.66448,0.45207998,-0.06096,45.125,0,0
475581919,475581901,1114122,0.64864,0.45872,-0.052559998,45.0,0,0
475687912,475687894,1114122,0.62376,0.4712,-0.02216,45.0,0,0
475783476,475783458,1114122,0.60328,0.46927997,-0.01248,45.0,0,0
475982962,475982943,1114122,0.5724,0.51376,-0.0036,45.125,0,0
476078552,476078534,1114122,0.55439997,0.52239996,0.008239999,45.0,0,0
476182160,476182141,1114122,0.54183996,0.52783996,0.0128,45.0,0,0
476278019,476278000,1114122,0.53208,0.52336,0.015999999,45.0,0,0
476384914,476384889,1114122,0.53168,0.50791997,0.0098399995,44.875,0,0
476480659,476480641,1114122,0.52624,0.48848,-0.008479999,45.0,0,0
476575156,476575138,1114122,0.52744,0.456,-0.0368,45.0,0,0
476681210,476681191,1114122,0.52599996,0.42407998,-0.03856,44.875,0,0
476787512,476787493,1114122,0.5272,0.37664,-0.0884,45.0,0,0
476880705,476880687,1114122,0.51536,0.37311998,-0.09312,44.75,0,0
476976304,476976283,1114122,0.50608,0.39328,-0.086559996,45.125,0,0
477081263,477081245,1114122,0.48255998,0.41375998,-0.08304,44.875,0,0
477187700,477187682,1114122,0.4632,0.42216,-0.12631999,44.75,0,0
477282756,477282737,1114122,0.45143998,0.44919997,-0.10448,44.875,0,0
477378423,477378391,1114122,0.43824,0.4472,-0.10752,44.875,0,0
477485354,477485336,1114122,0.43504,0.44136,-0.10064,45.0,0,0
477581108,477581087,1114122,0.43776,0.44256,-0.102,44.875,0,0
477781608,477781590,1114122,0.44744,0.45632,-0.094,44.875,0,0
477886650,477886623,1114122,0.4484,0.44248,-0.099199995,44.625,0,0
477983069,477983047,1114122,0.45703998,0.4208,-0.10008,44.875,0,0
478088161,478088137,1114122,0.4664,0.39688,-0.09008,44.875,0,0
478183293,478183261,1114122,0.47783998,0.37592,-0.09688,44.75,0,0
478280761,478280743,1114122,0.48944,0.34871998,-0.08672,44.75,0,0
478385974,478385943,1114122,0.49912,0.33368,-0.08824,44.875,0,0
478481962,478481941,1114122,0.51072,0.3552,-0.100959994,44.75,0,0
478578389,478578360,1114122,0.52088,0.38728,-0.098239996,44.875,0,0
478683451,478683432,1114122,0.52856,0.40528,-0.1024,44.75,0,0
478787529,478787510,1114122,0.53727996,0.41392,-0.11592,44.625,0,0
478882008,478881990,1114122,0.54631996,0.42839998,-0.111839995,44.875,0,0
478978640,478978621,1114122,0.55384,0.42688,-0.12687999,44.75,0,0
479084662,479084644,1114122,0.55904,0.42192,-0.13168,44.625,0,0
479180222,479180197,1114122,0.57088,0.43344,-0.13192,44.75,0,0
479276446,479276421,1114122,0.57471997,0.43736,-0.13552,44.75,0,0
479383830,479383812,1114122,0.58055997,0.42968,-0.14768,44.75,0,0
479478928,479478902,1114122,0.58312,0.41248,-0.1548,44.75,0,0
479586555,479586529,1114122,0.59639996,0.40936,-0.14688,44.75,0,0
479681471,479681452,1114122,0.60432,0.39407998,-0.15408,44.75,0,0
479776504,479776483,1114122,0.61304,0.3964,-0.16248,44.75,0,0
479881611,479881592,1114122,0.62071997,0.38856,-0.1616,44.625,0,0
479976601,479976580,1114122,0.62536,0.38215998,-0.15687999,44.5,0,0
480082158,480082137,1114122,0.62824,0.39872,-0.1692,44.5,0,0
480176865,480176840,1114122,0.63048,0.41288,-0.17176,44.75,0,0
480282712,480282693,1114122,0.6256,0.43903998,-0.16712,44.625,0,0
480378259,480378241,1114122,0.61816,0.44823998,-0.15648,44.625,0,0
480484441,480484423,1114122,0.6052,0.43488,-0.18008,44.5,0,0
480579426,480579407,1114122,0.60832,0.43432,-0.15288,44.5,0,0
480674488,480674469,1114122,0.60767996,0.41823998,-0.14936,44.5,0,0
480782051,480782033,1114122,0.60912,0.41799998,-0.15359999,44.5,0,0
480983066,480983047,1114122,0.608,0.47871998,-0.17007999,44.5,0,0
481077585,481077557,1114122,0.59888,0.51647997,-0.1836,44.625,0,0
481182564,481182545,1114122,0.58592,0.53112,-0.2008,44.625,0,0
481279935,481279895,1114122,0.57576,0.53551996,-0.17496,44.375,0,0
481384880,481384862,1114122,0.56696,0.52184,-0.16992,44.625,0,0
481478701,481478683,1114122,0.56352,0.50624,-0.15984,44.5,0,0
481574957,481574938,1114122,0.56416,0.49023998,-0.144,44.25,0,0
481679970,481679949,1114122,0.55816,0.48071998,-0.1384,44.5,0,0
481785085,481785066,1114122,0.55623996,0.48376,-0.13176,44.5,0,0
481878719,481878694,1114122,0.54016,0.49864,-0.112799995,44.375,0,0
481983706,481983687,1114122,0.5304,0.51159996,-0.12592,44.25,0,0
482078216,482078190,1114122,0.51831996,0.528,-0.12264,44.5,0,0
482173759,482173740,1114122,0.50096,0.52184,-0.1052,44.375,0,0
482282776,482282755,1114122,0.48424,0.5212,-0.09648,44.375,0,0
482376507,482376478,1114122,0.47535998,0.50984,-0.093839996,44.375,0,0
482483552,482483533,1114122,0.46392,0.50488,-0.0844,44.375,0,0
482578176,482578148,1114122,0.45567998,0.47327998,-0.07752,44.25,0,0
482684060,482684041,1114122,0.4448,0.46512,-0.060239997,44.25,0,0
482778139,482778111,1114122,0.43264,0.44112,-0.06264,44.375,0,0
482983108,482983090,1114122,0.41647997,0.4272,-0.0548,44.375,0,0
483076760,483076741,1114122,0.40416,0.43728,-0.060239997,44.375,0,0
483183329,483183304,1114122,0.3872,0.44208,-0.06192,44.375,0,0
483373421,483373403,1114122,0.38832,0.44959998,-0.073199995,44.375,0,0
483481008,483480987,1114122,0.3956,0.46488,-0.06776,44.375,0,0
483575955,483575937,1114122,0.40512,0.46855998,-0.07296,44.25,0,0
483680977,483680956,1114122,0.41847998,0.44935998,-0.05904,44.125,0,0
483775014,483774995,1114122,0.438,0.41623998,-0.06096,44.125,0,0
483881115,483881096,1114122,0.4732,0.37232,-0.06808,44.25,0,0
483976637,483976616,1114122,0.50464,0.3344,-0.071839996,44.25,0,0
484082709,484082690,1114122,0.52568,0.30944,-0.08328,44.125,0,0
484176284,484176266,1114122,0.53903997,0.28176,-0.090239994,44.25,0,0
484281321,484281303,1114122,0.54376,0.25584,-0.099199995,44.125,0,0
484481657,484481639,1114122,0.56048,0.28,-0.09312,44.125,0,0
484577240,484577221,1114122,0.57063997,0.28384,-0.096,44.25,0,0
484682259,484682218,1114122,0.57592,0.27583998,-0.106079996,44.125,0,0
484777760,484777741,1114122,0.58032,0.26432,-0.105119996,44.25,0,0
484874105,484874087,1114122,0.58544,0.26824,-0.114479996,44.125,0,0
484979171,484979153,1114122,0.58816,0.25912,-0.11536,44.25,0,0
485177852,485177831,1114122,0.59648,0.22335999,-0.1388,44.125,0,0
485274312,485274294,1114122,0.60271996,0.22423999,-0.124,44.0,0,0
485379600,485379569,1114122,0.60152,0.21239999,-0.15512,44.125,0,0
485484429,485484410,1114122,0.59528,0.21192,-0.14695999,44.0,0,0
485579657,485579628,1114122,0.59968,0.236,-0.12944,44.25,0,0
485782057,485782039,1114122,0.58792,0.21983999,-0.12888,44.25,0,0
485875005,485874987,1114122,0.57688,0.20007999,-0.13384,43.875,0,0
485979764,485979733,1114122,0.57567996,0.22048,-0.11592,44.125,0,0
486179787,486179769,1114122,0.56688,0.26231998,-0.1008,44.125,0,0
486284922,486284903,1114122,0.55976,0.27359998,-0.09376,44.125,0,0
486379991,486379967,1114122,0.5568,0.27528,-0.086399995,43.875,0,0
486475610,486475591,1114122,0.55272,0.2776,-0.09128,44.0,0,0
486582435,486582415,1114122,0.54712,0.26608,-0.082559995,43.875,0,0
486676155,486676137,1114122,0.54535997,0.27688,-0.07864,44.0,0,0
486781166,486781141,1114122,0.54183996,0.29775998,-0.0784,44.0,0,0
486877600,486877582,1114122,0.53472,0.28919998,-0.081039995,43.875,0,0
486982624,486982603,1114122,0.53152,0.29312,-0.07736,43.875,0,0
487077694,487077675,1114122,0.52456,0.29696,-0.088319995,44.0,0,0
487181247,487181228,1114122,0.52143997,0.33128,-0.087359995,43.875,0,0
487275709,487275691,1114122,0.51607996,0.3628,-0.0832,44.0,0,0
487581263,487581241,1114122,0.49888,0.36888,-0.0648,44.0,0,0
487675758,487675740,1114122,0.4964,0.36727998,-0.0676,43.75,0,0
487783041,487783022,1114122,0.49552,0.36407998,-0.074,44.0,0,0
487879534,487879505,1114122,0.49199998,0.37831998,-0.06968,43.875,0,0
487975687,487975668,1114122,0.49407998,0.39455998,-0.0764,43.875,0,0
488080832,488080806,1114122,0.49063998,0.4312,-0.0748,43.875,0,0
488176610,488176591,1114122,0.48984,0.45751998,-0.09592,43.875,0,0
488280914,488280891,1114122,0.4856,0.47584,-0.0808,43.875,0,0
488384505,488384487,1114122,0.48176,0.47151998,-0.087359995,43.75,0,0
488480964,488480936,1114122,0.47976,0.46831998,-0.08424,43.75,0,0
488576668,488576647,1114122,0.48095998,0.45152,-0.070719995,43.75,0,0
488683503,488683485,1114122,0.47599998,0.42911997,-0.077759996,43.75,0,0
488778714,488778688,1114122,0.47568,0.42784,-0.0692,43.75,0,0
488883614,488883596,1114122,0.47272,0.43816,-0.07448,43.75,0,0
488978770,488978736,1114122,0.47,0.45183998,-0.076079994,43.75,0,0
489179366,489179348,1114122,0.46008,0.45951998,-0.08368,43.625,0,0
489284360,489284342,1114122,0.45856,0.44816,-0.075679995,43.625,0,0
489379940,489379912,1114122,0.45944,0.4276,-0.06776,43.75,0,0
489476494,489476463,1114122,0.454,0.40015998,-0.08432,43.75,0,0
489584043,489584011,1114122,0.45272,0.39064,-0.07256,43.75,0,0
489679081,489679060,1114122,0.44944,0.3728,-0.07256,43.75,0,0
489784024,489784006,1114122,0.4504,0.39224,-0.05072,43.625,0,0
489877642,489877612,1114122,0.44663998,0.38079998,-0.05808,43.625,0,0
489981635,489981617,1114122,0.44616,0.37872,-0.05032,43.625,0,0
490086820,490086797,1114122,0.44103998,0.37048,-0.04704,43.625,0,0
490181702,490181681,1114122,0.43528,0.3584,-0.051999997,43.625,0,0
490275555,490275537,1114122,0.43056,0.35439998,-0.047679998,43.75,0,0
490380577,490380559,1114122,0.42264,0.33416,-0.05016,43.5,0,0
490485559,490485541,1114122,0.41368,0.30256,-0.068959996,43.75,0,0
490582072,490582043,1114122,0.41632,0.30832,-0.047679998,43.5,0,0
490677712,490677694,1114122,0.408,0.29167998,-0.037839998,43.625,0,0
490784485,490784464,1114122,0.40128,0.2796,-0.0572,43.5,0,0
490878260,490878241,1114122,0.39431998,0.26367998,-0.05712,43.375,0,0
490983266,490983244,1114122,0.39264,0.26872,-0.057359997,43.625,0,0
491173312,491173294,1114122,0.3848,0.2956,-0.0512,43.5,0,0
491279881,491279855,1114122,0.37816,0.28959998,-0.04288,43.625,0,0
491378065,491378040,1114122,0.3764,0.28272,-0.047199998,43.625,0,0
491483060,491483042,1114122,0.36815998,0.28336,-0.037359998,43.625,0,0
491577555,491577537,1114122,0.3636,0.27464,-0.05376,43.5,0,0
491875802,491875775,1114122,0.35352,0.22632,-0.0492,43.5,0,0
491983940,491983919,1114122,0.34967998,0.22216,-0.045119997,43.5,0,0
492080142,492080123,1114122,0.34416,0.21528,-0.05264,43.375,0,0
