timestamp,timestamp_sample,gyro_device_id,gyro_bias[0],gyro_bias[1],gyro_bias[2],gyro_bias_limit,gyro_bias_variance[0],gyro_bias_variance[1],gyro_bias_variance[2],accel_device_id,accel_bias[0],accel_bias[1],accel_bias[2],accel_bias_limit,accel_bias_variance[0],accel_bias_variance[1],accel_bias_variance[2],mag_device_id,mag_bias[0],mag_bias[1],mag_bias[2],mag_bias_limit,mag_bias_variance[0],mag_bias_variance[1],mag_bias_variance[2],gyro_bias_valid,accel_bias_valid,mag_bias_valid
393878841,393876452,2162698,0.0008810665,-0.0044943667,0.008959573,0.34906584,1.9328086e-09,1.900861e-09,3.2820067e-09,2162698,0.0,0.0,0.07434265,0.4,0.00039967452,0.00039967452,4.995931e-06,1114122,0.0,0.0,0.0,0.5,0.0,0.0,0.0,1,1,0
396510765,396508608,2162698,0.00085943635,-0.00447191,0.008910335,0.34906584,1.9363684e-09,1.9036157e-09,3.2807959e-09,2162698,0.0,0.0,0.075385496,0.4,0.00039967304,0.00039967304,4.9959126e-06,1114122,0.0,0.0,0.0,0.5,0.0,0.0,0.0,1,1,0
397912467,397909753,2162698,0.00084622967,-0.004466303,0.00889828,0.34906584,1.9510775e-09,1.9183732e-09,3.2785712e-09,2162698,0.0,0.0,0.07642322,0.4,0.0003996752,0.0003996752,4.9959394e-06,1114122,0.0,0.0,0.0,0.5,0.0,0.0,0.0,1,1,0
399253195,399250851,2162698,0.0008293136,-0.004458084,0.008881263,0.34906584,1.9431272e-09,1.9098427e-09,3.2802534e-09,2162698,0.0,0.0,0.07742619,0.4,0.00039964763,0.00039964763,4.9955947e-06,1114122,0.0,0.0,0.0,0.5,0.0,0.0,0.0,1,1,0
401785354,401782928,2162698,0.0008205458,-0.004447002,0.008834649,0.34906584,2.0413284e-09,2.0102624e-09,3.2822705e-09,2162698,0.0,0.0,0.07843509,0.4,0.0003996756,0.0003996756,4.9959444e-06,1114122,0.0,0.0,0.0,0.5,0.0,0.0,0.0,1,1,0
404797761,404795403,2162698,0.0008063818,-0.004424706,0.00881261,0.34906584,1.9271476e-09,1.892928e-09,3.2779377e-09,2162698,0.0,0.0,0.0794603,0.4,0.0003996746,0.0003996746,4.995932e-06,1114122,0.0,0.0,0.0,0.5,0.0,0.0,0.0,1,1,0
420180399,420177932,2162698,0.00075424137,-0.0043613403,0.008436569,0.34906584,2.0593254e-09,2.0279427e-09,3.2797915e-09,2162698,0.0,0.0,0.08149939,0.4,0.00039967458,0.00039967458,4.9959317e-06,1114122,0.0,0.0,0.0,0.5,0.0,0.0,0.0,1,1,0
423353094,423350506,2162698,0.00077149924,-0.0043506646,0.008299757,0.34906584,2.0737925e-09,2.0428699e-09,3.278884e-09,2162698,0.0,0.0,0.08250651,0.4,0.00039967132,0.00039967132,4.995891e-06,1114122,0.0,0.0,0.0,0.5,0.0,0.0,0.0,1,1,0
427656657,427653984,2162698,0.00091750594,-0.00457547,0.0074671404,0.34906584,2.136655e-09,2.1043243e-09,3.2763854e-09,2162698,0.0007694813,5.4045973e-05,0.08181332,0.4,0.00039967013,0.00039967377,4.996007e-06,1114122,0.0,0.0,0.0,0.5,0.0,0.0,0.0,1,1,0
427826660,427824118,2162698,0.00093813386,-0.004575566,0.0073425705,0.34906584,2.1530409e-09,2.1211048e-09,3.2768648e-09,2162698,0.0018877637,0.00013209725,0.08120533,0.4,0.00039964676,0.00039965613,4.9960167e-06,1114122,0.0,0.0,0.0,0.5,0.0,0.0,0.0,1,1,0
427986444,427984242,2162698,0.00095831143,-0.0045740125,0.007220851,0.34906584,2.168636e-09,2.1370552e-09,3.2784537e-09,2162698,0.0026900603,0.00024189756,0.08047801,0.4,0.00039963535,0.00039965645,4.9960213e-06,1114122,0.0,0.0,0.0,0.5,0.0,0.0,0.0,1,1,0
427996872,427994252,2162698,0.0009611731,-0.0045767524,0.0072029354,0.34906584,2.169296e-09,2.1377313e-09,3.277168e-09,2162698,0.003937878,0.0002833209,0.08048295,0.4,0.00039957586,0.0003995962,4.995821e-06,1114122,0.0,0.0,0.0,0.5,0.0,0.0,0.0,1,1,0
428146737,428144375,2162698,0.0009812951,-0.004575459,0.0070817345,0.34906584,2.1839863e-09,2.1527549e-09,3.2778982e-09,2162698,0.005045375,0.00046883893,0.079731226,0.4,0.00039957237,0.0003996131,4.996033e-06,1114122,0.0,0.0,0.0,0.5,0.0,0.0,0.0,1,1,0
428196971,428194431,2162698,0.0009874153,-0.004578953,0.0070446827,0.34906584,2.1886306e-09,2.15743e-09,3.2786407e-09,2162698,0.007824489,0.0006420146,0.079428464,0.4,0.00039947548,0.00039952397,4.9960377e-06,1114122,0.0,0.0,0.0,0.5,0.0,0.0,0.0,1,1,0
428307124,428304528,2162698,0.0010060469,-0.0045786416,0.0069310963,0.34906584,2.1992443e-09,2.1683177e-09,3.2772183e-09,2162698,0.008859754,0.0008634268,0.07888002,0.4,0.00039944326,0.00039951495,4.9959353e-06,1114122,0.0,0.0,0.0,0.5,0.0,0.0,0.0,1,1,0
428397357,428394573,2162698,0.0010194272,-0.004585013,0.006849633,0.34906584,2.2077258e-09,2.1769075e-09,3.2777936e-09,2162698,0.01314893,0.0011167736,0.07860713,0.4,0.00039926995,0.00039935322,4.995984e-06,1114122,0.0,0.0,0.0,0.5,0.0,0.0,0.0,1,1,0
428466750,428464620,2162698,0.0010301501,-0.004583001,0.0067844586,0.34906584,2.2145192e-09,2.1837845e-09,3.2785512e-09,2162698,0.015657147,0.0017409825,0.07759503,0.4,0.00039922673,0.00039934478,4.9958785e-06,1114122,0.0,0.0,0.0,0.5,0.0,0.0,0.0,1,1,0
428516908,428514660,2162698,0.0010373743,-0.0045813634,0.006741137,0.34906584,2.2194586e-09,2.1887852e-09,3.2794991e-09,2162698,0.017815191,0.0023097645,0.076793686,0.4,0.0003992143,0.000399353,4.995999e-06,1114122,0.0,0.0,0.0,0.5,0.0,0.0,0.0,1,1,0
428576785,428574706,2162698,0.0010481934,-0.004580367,0.006675802,0.34906584,2.2253235e-09,2.1947595e-09,3.279359e-09,2162698,0.020028902,0.0029365204,0.076023765,0.4,0.00039919477,0.00039935726,4.996076e-06,1114122,0.0,0.0,0.0,0.5,0.0,0.0,0.0,1,1,0
428597303,428594722,2162698,0.001051837,-0.0045885583,0.00665346,0.34906584,2.2268944e-09,2.196284e-09,3.2790306e-09,2162698,0.025731081,0.0030714066,0.0760559,0.4,0.00039892434,0.00039908302,4.9960813e-06,1114122,0.0,0.0,0.0,0.5,0.0,0.0,0.0,1,1,0
428627216,428624745,2162698,0.0010591246,-0.004586273,0.006609837,0.34906584,2.2297804e-09,2.199224e-09,3.2779048e-09,2162698,0.028343376,0.003846985,0.07521402,0.4,0.00039889518,0.00039908043,4.9960745e-06,1114122,0.0,0.0,0.0,0.5,0.0,0.0,0.0,1,1,0
428676891,428674800,2162698,0.0010663397,-0.004584079,0.0065666847,0.34906584,2.2346582e-09,2.2041518e-09,3.2787695e-09,2162698,0.030876456,0.004634876,0.074447446,0.4,0.00039886116,0.00039907603,4.9960563e-06,1114122,0.0,0.0,0.0,0.5,0.0,0.0,0.0,1,1,0
428737295,428734838,2162698,0.0010772375,-0.0045822253,0.006501293,0.34906584,2.2404998e-09,2.210091e-09,3.2785978e-09,2162698,0.03365457,0.005551551,0.07366278,0.4,0.00039882548,0.00039907426,4.9960818e-06,1114122,0.0,0.0,0.0,0.5,0.0,0.0,0.0,1,1,0
428787163,428784870,2162698,0.0010846765,-0.0045800046,0.0064567374,0.34906584,2.2453508e-09,2.2149822e-09,3.279419e-09,2162698,0.036299825,0.006450604,0.072964214,0.4,0.00039877687,0.0003990633,4.996003e-06,1114122,0.0,0.0,0.0,0.5,0.0,0.0,0.0,1,1,0
428797644,428794920,2162698,0.0010882363,-0.0045904843,0.0064344215,0.34906584,2.2458555e-09,2.215412e-09,3.2780396e-09,2162698,0.044680182,0.0065685776,0.073012665,0.4,0.00039835295,0.0003986334,4.9960527e-06,1114122,0.0,0.0,0.0,0.5,0.0,0.0,0.0,1,1,0
428846975,428844916,2162698,0.0010957256,-0.004588061,0.0063899835,0.34906584,2.250741e-09,2.2203308e-09,3.278913e-09,2162698,0.04770351,0.007647804,0.072273515,0.4,0.00039830388,0.00039862737,4.99605e-06,1114122,0.0,0.0,0.0,0.5,0.0,0.0,0.0,1,1,0
428897194,428894955,2162698,0.0011032667,-0.004585603,0.0063454276,0.34906584,2.2556446e-09,2.225261e-09,3.279808e-09,2162698,0.05100126,0.008860349,0.07151555,0.4,0.00039825216,0.00039862326,4.996086e-06,1114122,0.0,0.0,0.0,0.5,0.0,0.0,0.0,1,1,0
428947470,428945008,2162698,0.0011148952,-0.0045844773,0.0062752324,0.34906584,2.260455e-09,2.2301434e-09,3.2785794e-09,2162698,0.05418028,0.010084133,0.0708145,0.4,0.0003981871,0.0003986108,4.996033e-06,1114122,0.0,0.0,0.0,0.5,0.0,0.0,0.0,1,1,0
428997290,428995032,2162698,0.0011225884,-0.004598982,0.0062259724,0.34906584,2.2647868e-09,2.2344149e-09,3.2790217e-09,2162698,0.06596009,0.010139536,0.07086802,0.4,0.00039754595,0.00039796036,4.9960777e-06,1114122,0.0,0.0,0.0,0.5,0.0,0.0,0.0,1,1,0
429007468,429005040,2162698,0.0011266136,-0.0045960974,0.0062033064,0.34906584,2.2657474e-09,2.235338e-09,3.2779772e-09,2162698,0.069376856,0.011468285,0.07018557,0.4,0.0003974789,0.00039795297,4.9960936e-06,1114122,0.0,0.0,0.0,0.5,0.0,0.0,0.0,1,1,0
429057513,429055079,2162698,0.0011346004,-0.0045936704,0.006156334,0.34906584,2.2706037e-09,2.2402045e-09,3.2788023e-09,2162698,0.0731617,0.013003453,0.06946315,0.4,0.00039739592,0.00039793563,4.996025e-06,1114122,0.0,0.0,0.0,0.5,0.0,0.0,0.0,1,1,0
429117338,429115147,2162698,0.0011421851,-0.004591564,0.0061122812,0.34906584,2.2765243e-09,2.2461297e-09,3.280718e-09,2162698,0.076629266,0.014451671,0.06884811,0.4,0.00039731353,0.00039792733,4.996101e-06,1114122,0.0,0.0,0.0,0.5,0.0,0.0,0.0,1,1,0
429167712,429165164,2162698,0.0011529194,-0.0045892126,0.00604933,0.34906584,2.2813547e-09,2.2510183e-09,3.2795298e-09,2162698,0.08034207,0.016052367,0.06822373,0.4,0.00039721563,0.00039791068,4.996101e-06,1114122,0.0,0.0,0.0,0.5,0.0,0.0,0.0,1,1,0
429197450,429195187,2162698,0.0011556516,-0.0046051187,0.0060292995,0.34906584,2.2836035e-09,2.2531217e-09,3.2799161e-09,2162698,0.096285604,0.015889343,0.06831433,0.4,0.00039628881,0.00039696935,4.996103e-06,1114122,0.0,0.0,0.0,0.5,0.0,0.0,0.0,1,1,0
429217299,429215202,2162698,0.0011589233,-0.0046011196,0.006012602,0.34906584,2.2855442e-09,2.2550097e-09,3.2798524e-09,2162698,0.10042077,0.017654091,0.06767185,0.4,0.00039618055,0.00039695017,4.9961013e-06,1114122,0.0,0.0,0.0,0.5,0.0,0.0,0.0,1,1,0
429277812,429275249,2162698,0.0011676509,-0.0045971703,0.005963435,0.34906584,2.2913702e-09,2.2608917e-09,3.2796925e-09,2162698,0.10453166,0.019491516,0.067072295,0.4,0.00039605843,0.00039692814,4.9961072e-06,1114122,0.0,0.0,0.0,0.5,0.0,0.0,0.0,1,1,0
429327321,429325291,2162698,0.0011732907,-0.004592625,0.0059335,0.34906584,2.2962512e-09,2.2657687e-09,3.2805862e-09,2162698,0.109054394,0.02150146,0.066452675,0.4,0.0003959238,0.00039690308,4.996112e-06,1114122,0.0,0.0,0.0,0.5,0.0,0.0,0.0,1,1,0
429387653,429385342,2162698,0.0011786285,-0.004587916,0.0059058,0.34906584,2.302127e-09,2.2716353e-09,3.2824812e-09,2162698,0.11373064,0.023598058,0.06585387,0.4,0.00039577132,0.0003968736,4.9961104e-06,1114122,0.0,0.0,0.0,0.5,0.0,0.0,0.0,1,1,0
429402392,429395344,2162698,0.0011775128,-0.0046069873,0.0059061893,0.34906584,2.30225e-09,2.2715134e-09,3.2827556e-09,2162698,0.13461702,0.02305046,0.06597419,0.4,0.0003944768,0.00039555624,4.996035e-06,1114122,0.0,0.0,0.0,0.5,0.0,0.0,0.0,1,1,0
429442290,429435404,2162698,0.0011779914,-0.0046025957,0.005907584,0.34906584,2.3062734e-09,2.2754054e-09,3.2867804e-09,2162698,0.13961172,0.025252275,0.065368265,0.4,0.00039431488,0.00039552865,4.996096e-06,1114122,0.0,0.0,0.0,0.5,0.0,0.0,0.0,1,1,0
429491990,429485411,2162698,0.0011784728,-0.00459831,0.0059088976,0.34906584,2.3112767e-09,2.2802733e-09,3.2917769e-09,2162698,0.14458169,0.02745201,0.06479543,0.4,0.0003941338,0.0003954944,4.996115e-06,1114122,0.0,0.0,0.0,0.5,0.0,0.0,0.0,1,1,0
429552466,429545457,2162698,0.0011789624,-0.0045937095,0.0059100646,0.34906584,2.3171975e-09,2.286054e-09,3.2976564e-09,2162698,0.14990374,0.029812155,0.06421548,0.4,0.00039391674,0.00039544186,4.995959e-06,1114122,0.0,0.0,0.0,0.5,0.0,0.0,0.0,1,1,0
429598127,429595495,2162698,0.0011776851,-0.004613327,0.0059117978,0.34906584,2.3212685e-09,2.2896782e-09,3.3019312e-09,2162698,0.18078661,0.030504808,0.06392891,0.4,0.00039197135,0.00039363984,4.9961222e-06,1114122,0.0,0.0,0.0,0.5,0.0,0.0,0.0,1,1,0
429652376,429645533,2162698,0.0011781866,-0.0046092044,0.005912968,0.34906584,2.326235e-09,2.2944946e-09,3.3068743e-09,2162698,0.18590729,0.03275652,0.06342288,0.4,0.00039172432,0.00039358842,4.9960636e-06,1114122,0.0,0.0,0.0,0.5,0.0,0.0,0.0,1,1,0
429708318,429705579,2162698,0.0011787442,-0.004605187,0.005914302,0.34906584,2.3322593e-09,2.300362e-09,3.3128997e-09,2162698,0.19122463,0.03507781,0.06292812,0.4,0.00039145947,0.0003935423,4.996132e-06,1114122,0.0,0.0,0.0,0.5,0.0,0.0,0.0,1,1,0
429762335,429755677,2162698,0.0011792941,-0.004601199,0.0059155403,0.34906584,2.3372537e-09,2.3051963e-09,3.3178824e-09,2162698,0.19657312,0.0373956,0.062451515,0.4,0.0003911665,0.0003934875,4.996135e-06,1114122,0.0,0.0,0.0,0.5,0.0,0.0,0.0,1,1,0
429802604,429795648,2162698,0.0011768113,-0.0046281004,0.00591599,0.34906584,2.340089e-09,2.3076723e-09,3.3209175e-09,2162698,0.22960876,0.035270613,0.06263943,0.4,0.00038889542,0.00039115906,4.9961345e-06,1114122,0.0,0.0,0.0,0.5,0.0,0.0,0.0,1,1,0
429807977,429805681,2162698,0.0011773262,-0.004624386,0.005917128,0.34906584,2.3410842e-09,2.3085023e-09,3.3219e-09,2162698,0.23469068,0.03744378,0.06220457,0.4,0.0003885796,0.0003911012,4.996133e-06,1114122,0.0,0.0,0.0,0.5,0.0,0.0,0.0,1,1,0
429868091,429865705,2162698,0.001177783,-0.0046204627,0.0059179105,0.34906584,2.3469386e-09,2.3141875e-09,3.3276841e-09,2162698,0.2398456,0.039622813,0.061780795,0.4,0.00038820718,0.00039101604,4.9958403e-06,1114122,0.0,0.0,0.0,0.5,0.0,0.0,0.0,1,1,0
429972672,429965778,2162698,0.0011789643,-0.0046132584,0.0059205457,0.34906584,2.3570474e-09,2.3239426e-09,3.3378182e-09,2162698,0.25085923,0.04417447,0.06094457,0.4,0.00038744346,0.0003909027,4.9961063e-06,1114122,0.0,0.0,0.0,0.5,0.0,0.0,0.0,1,1,0
429998001,429995801,2162698,0.0011756598,-0.0046441876,0.0059209415,0.34906584,2.3587319e-09,2.3252003e-09,3.3397232e-09,2162698,0.29082194,0.04079193,0.06117575,0.4,0.00038455115,0.00038791905,4.9961327e-06,1114122,0.0,0.0,0.0,0.5,0.0,0.0,0.0,1,1,0
430032933,430025824,2162698,0.0011762442,-0.0046403813,0.0059221378,0.34906584,2.3617324e-09,2.3280156e-09,3.3427134e-09,2162698,0.29666653,0.04313898,0.060756132,0.4,0.00038410854,0.00038784868,4.996148e-06,1114122,0.0,0.0,0.0,0.5,0.0,0.0,0.0,1,1,0
430082986,430075904,2162698,0.0011768284,-0.004636633,0.0059233033,0.34906584,2.3667257e-09,2.3328202e-09,3.3476937e-09,2162698,0.3025609,0.045467906,0.0603484,0.4,0.0003836322,0.00038777458,4.996152e-06,1114122,0.0,0.0,0.0,0.5,0.0,0.0,0.0,1,1,0
430142848,430135908,2162698,0.0011774328,-0.0046328483,0.0059244833,0.34906584,2.3727167e-09,2.338618e-09,3.3536713e-09,2162698,0.3087046,0.047845583,0.059941586,0.4,0.0003831099,0.00038769652,4.9961536e-06,1114122,0.0,0.0,0.0,0.5,0.0,0.0,0.0,1,1,0
430188856,430185952,2162698,0.0011778359,-0.0046298797,0.0059251054,0.34906584,2.3776092e-09,2.3433158e-09,3.3585086e-09,2162698,0.31331927,0.049602315,0.059643283,0.4,0.00038253513,0.00038759978,4.995947e-06,1114122,0.0,0.0,0.0,0.5,0.0,0.0,0.0,1,1,0
430202956,430195960,2162698,0.0011736951,-0.0046649156,0.005925592,0.34906584,2.3772206e-09,2.3424243e-09,3.3583925e-09,2162698,0.36052585,0.044644803,0.059926882,0.4,0.00037895323,0.0003838733,4.9961573e-06,1114122,0.0,0.0,0.0,0.5,0.0,0.0,0.0,1,1,0
430242766,430235990,2162698,0.0011742619,-0.004661336,0.0059266635,0.34906584,2.3812046e-09,2.3462063e-09,3.3623593e-09,2162698,0.36653417,0.046874445,0.059552796,0.4,0.00037836234,0.0003837909,4.996141e-06,1114122,0.0,0.0,0.0,0.5,0.0,0.0,0.0,1,1,0
430298094,430296030,2162698,0.0011748763,-0.004657556,0.00592781,0.34906584,2.3871898e-09,2.3519846e-09,3.368328e-09,2162698,0.3730908,0.049250845,0.059160545,0.4,0.0003777192,0.00038370583,4.996132e-06,1114122,0.0,0.0,0.0,0.5,0.0,0.0,0.0,1,1,0
430352816,430346068,2162698,0.0011755242,-0.0046536676,0.005929013,0.34906584,2.3921816e-09,2.3567674e-09,3.3733059e-09,2162698,0.38003445,0.05171655,0.058758397,0.4,0.0003770355,0.00038361992,4.996135e-06,1114122,0.0,0.0,0.0,0.5,0.0,0.0,0.0,1,1,0
430398371,430396113,2162698,0.0011704477,-0.004692255,0.005929119,0.34906584,2.3955418e-09,2.3595466e-09,3.3769134e-09,2162698,0.43460646,0.044906374,0.059093762,0.4,0.0003726574,0.000379025,4.996148e-06,1114122,0.0,0.0,0.0,0.5,0.0,0.0,0.0,1,1,0
430412961,430406113,2162698,0.0011710174,-0.0046887943,0.0059301835,0.34906584,2.396544e-09,2.3603302e-09,3.377905e-09,2162698,0.40627614,0.047066435,0.05874041,0.4,0.00037192885,0.00037893993,4.9961673e-06,1114122,0.0,0.0,0.0,0.5,0.0,0.0,0.0,1,1,0
430417902,430416122,2162698,0.001171017,-0.0046887924,0.005930181,0.34906584,2.3975424e-09,2.3613287e-09,3.378903e-09,2162698,0.39999986,0.047066417,0.05874039,0.4,0.00037192873,0.0003789398,4.9961745e-06,1114122,0.0,0.0,0.0,0.5,0.0,0.0,0.0,1,1,0
430462692,430456152,2162698,0.0011716832,-0.0046847607,0.0059313965,0.34906584,2.4015343e-09,2.3651003e-09,3.382881e-09,2162698,0.40746015,0.049579393,0.05833233,0.4,0.0003711545,0.00037885216,4.9961677e-06,1114122,0.0,0.0,0.0,0.5,0.0,0.0,0.0,1,1,0
430468112,430466165,2162698,0.001171684,-0.004684764,0.0059314,0.34906584,2.402535e-09,2.3661013e-09,3.383883e-09,2162698,0.40000024,0.049579427,0.058332372,0.4,0.0003711548,0.00037885242,4.99618e-06,1114122,0.0,0.0,0.0,0.5,0.0,0.0,0.0,1,1,0
430508969,430506196,2162698,0.0011722508,-0.0046812915,0.005932391,0.34906584,2.4065079e-09,2.369852e-09,3.3878336e-09,2162698,0.4065139,0.051725768,0.05798559,0.4,0.00037033146,0.00037876057,4.996134e-06,1114122,0.0,0.0,0.0,0.5,0.0,0.0,0.0,1,1,0
430522770,430516208,2162698,0.0011722598,-0.004681328,0.005932437,0.34906584,2.4075255e-09,2.3708697e-09,3.388859e-09,2162698,0.4000031,0.051726166,0.057986036,0.4,0.00037033434,0.0003787635,4.9961814e-06,1114122,0.0,0.0,0.0,0.5,0.0,0.0,0.0,1,1,0
430568896,430566247,2162698,0.0011728308,-0.004677967,0.0059334473,0.34906584,2.4125135e-09,2.3756324e-09,3.3938323e-09,2162698,0.40655652,0.05382747,0.057648994,0.4,0.00036944853,0.00037867238,4.9961695e-06,1114122,0.0,0.0,0.0,0.5,0.0,0.0,0.0,1,1,0
430603061,430596258,2162698,0.001166827,-0.0047199726,0.0059333127,0.34906584,2.4137299e-09,2.3761737e-09,3.3953074e-09,2162698,0.4616161,0.04480065,0.058048725,0.4,0.00036425202,0.00037314364,4.9961754e-06,1114122,0.0,0.0,0.0,0.5,0.0,0.0,0.0,1,1,0
430608463,430606274,2162698,0.0011668266,-0.0047199707,0.0059333104,0.34906584,2.4147282e-09,2.377172e-09,3.3963052e-09,2162698,0.3999999,0.04480063,0.058048703,0.4,0.0003642519,0.0003731435,4.9961823e-06,1114122,0.0,0.0,0.0,0.5,0.0,0.0,0.0,1,1,0
430622952,430616273,2162698,0.0011674425,-0.0047161453,0.005934377,0.34906584,2.4157056e-09,2.3779154e-09,3.3972625e-09,2162698,0.40739983,0.04710258,0.057673417,0.4,0.00036333397,0.00037305258,4.996142e-06,1114122,0.0,0.0,0.0,0.5,0.0,0.0,0.0,1,1,0
430628459,430626287,2162698,0.0011674375,-0.0047161253,0.005934352,0.34906584,2.4166946e-09,2.3789046e-09,3.3982475e-09,2162698,0.39999828,0.04710238,0.05767317,0.4,0.00036333245,0.000373051,4.9961295e-06,1114122,0.0,0.0,0.0,0.5,0.0,0.0,0.0,1,1,0
430678651,430676324,2162698,0.0011681103,-0.004712085,0.0059355265,0.34906584,2.4216829e-09,2.3836553e-09,3.403221e-09,2162698,0.40809798,0.049550947,0.0572753,0.4,0.00036234802,0.000372961,4.996118e-06,1114122,0.0,0.0,0.0,0.5,0.0,0.0,0.0,1,1,0
430692865,430686326,2162698,0.0011681239,-0.0047121397,0.005935596,0.34906584,2.4227105e-09,2.3846822e-09,3.4042598e-09,2162698,0.40000468,0.049551524,0.05727597,0.4,0.00036235224,0.00037296535,4.996186e-06,1114122,0.0,0.0,0.0,0.5,0.0,0.0,0.0,1,1,0
430733110,430726358,2162698,0.0011686397,-0.00470909,0.005936491,0.34906584,2.4267022e-09,2.3884354e-09,3.4082386e-09,2162698,0.40627155,0.051400498,0.056975685,0.4,0.00036131652,0.00037287563,4.99618e-06,1114122,0.0,0.0,0.0,0.5,0.0,0.0,0.0,1,1,0
430738205,430736367,2162698,0.0011686324,-0.0047090603,0.005936453,0.34906584,2.427686e-09,2.3894193e-09,3.4092162e-09,2162698,0.3999975,0.051400173,0.056975324,0.4,0.00036131422,0.00037287327,4.9961573e-06,1114122,0.0,0.0,0.0,0.5,0.0,0.0,0.0,1,1,0
430778559,430776398,2162698,0.0011691934,-0.004705861,0.005937444,0.34906584,2.4316944e-09,2.3931883e-09,3.413218e-09,2162698,0.40680277,0.05335551,0.05665781,0.4,0.00036022795,0.0003727862,4.9961864e-06,1114122,0.0,0.0,0.0,0.5,0.0,0.0,0.0,1,1,0
430808283,430806418,2162698,0.0011622851,-0.0047508776,0.005937005,0.34906584,2.4327749e-09,2.393489e-09,3.4145644e-09,2162698,0.3999987,0.04184967,0.057129648,0.4,0.00035419903,0.0003662588,4.996176e-06,1114122,0.0,0.0,0.0,0.5,0.0,0.0,0.0,1,1,0
430843124,430836439,2162698,0.0011626997,-0.0047483635,0.0059377197,0.34906584,2.4357705e-09,2.396232e-09,3.4175485e-09,2162698,0.4052798,0.043309037,0.056886032,0.4,0.00035306532,0.0003661729,4.9961764e-06,1114122,0.0,0.0,0.0,0.5,0.0,0.0,0.0,1,1,0
430848582,430846462,2162698,0.001162698,-0.004748357,0.005937712,0.34906584,2.4367661e-09,2.3972282e-09,3.418543e-09,2162698,0.39999944,0.043308977,0.056885954,0.4,0.00035306485,0.0003661724,4.996178e-06,1114122,0.0,0.0,0.0,0.5,0.0,0.0,0.0,1,1,0
430888763,430886485,2162698,0.0011631085,-0.0047458694,0.005938405,0.34906584,2.440756e-09,2.4009654e-09,3.4225198e-09,2162698,0.4053208,0.04473947,0.056645755,0.4,0.00035187634,0.00036608652,4.996169e-06,1114122,0.0,0.0,0.0,0.5,0.0,0.0,0.0,1,1,0
430902987,430896487,2162698,0.001163108,-0.0047458676,0.005938403,0.34906584,2.4417541e-09,2.4019637e-09,3.4235177e-09,2162698,0.3999999,0.044739455,0.056645732,0.4,0.00035187622,0.0003660864,4.9961764e-06,1114122,0.0,0.0,0.0,0.5,0.0,0.0,0.0,1,1,0
430943625,430936515,2162698,0.0011635611,-0.0047431546,0.0059391633,0.34906584,2.445745e-09,2.4057019e-09,3.4274958e-09,2162698,0.40593496,0.04628994,0.056383446,0.4,0.00035063282,0.00036600186,4.9961695e-06,1114122,0.0,0.0,0.0,0.5,0.0,0.0,0.0,1,1,0
430948653,430946528,2162698,0.0011635665,-0.004743177,0.0059391907,0.34906584,2.4467557e-09,2.4067124e-09,3.428511e-09,2162698,0.40000188,0.046290156,0.056383707,0.4,0.00035063448,0.00036600357,4.9962014e-06,1114122,0.0,0.0,0.0,0.5,0.0,0.0,0.0,1,1,0
430999299,430996564,2162698,0.0011564197,-0.0047877342,0.005939358,0.34906584,2.4497189e-09,2.4085225e-09,3.4317333e-09,2162698,0.48075813,0.034010448,0.056640793,0.4,0.00034247586,0.00035835564,4.996154e-06,1114122,0.0,0.0,0.0,0.5,0.0,0.0,0.0,1,1,0
431013120,431006568,2162698,0.0011564263,-0.0047877613,0.0059393914,0.34906584,2.4507318e-09,2.4095355e-09,3.4327519e-09,2162698,0.40000227,0.034010638,0.056641113,0.4,0.0003424778,0.00035835768,4.9961914e-06,1114122,0.0,0.0,0.0,0.5,0.0,0.0,0.0,1,1,0
431053363,431046608,2162698,0.0011568227,-0.0047853035,0.005940057,0.34906584,2.4547282e-09,2.4132636e-09,3.4367382e-09,2162698,0.40544596,0.035325054,0.05640691,0.4,0.00034114195,0.00035828078,4.996195e-06,1114122,0.0,0.0,0.0,0.5,0.0,0.0,0.0,1,1,0
431058454,431056617,2162698,0.0011568164,-0.0047852774,0.0059400247,0.34906584,2.455714e-09,2.41425e-09,3.4377192e-09,2162698,0.39999783,0.03532486,0.056406606,0.4,0.0003411401,0.00035827886,4.9961773e-06,1114122,0.0,0.0,0.0,0.5,0.0,0.0,0.0,1,1,0
431099197,431096639,2162698,0.0011571484,-0.004783205,0.0059405672,0.34906584,2.4597029e-09,2.4179712e-09,3.4416954e-09,2162698,0.4046596,0.036410652,0.056209855,0.4,0.00033974752,0.0003582032,4.9961654e-06,1114122,0.0,0.0,0.0,0.5,0.0,0.0,0.0,1,1,0
431113434,431106654,2162698,0.0011571515,-0.0047832183,0.0059405835,0.34906584,2.4607087e-09,2.418977e-09,3.442704e-09,2162698,0.40000108,0.036410753,0.056210008,0.4,0.00033974848,0.0003582042,4.996188e-06,1114122,0.0,0.0,0.0,0.5,0.0,0.0,0.0,1,1,0
431158737,431156680,2162698,0.0011575259,-0.0047808373,0.0059411665,0.34906584,2.465683e-09,2.4236824e-09,3.4476606e-09,2162698,0.40542656,0.037619054,0.055985603,0.4,0.00033827272,0.00035812912,4.9961495e-06,1114122,0.0,0.0,0.0,0.5,0.0,0.0,0.0,1,1,0
431173496,431166711,2162698,0.0011575243,-0.004780831,0.0059411586,0.34906584,2.4666789e-09,2.424678e-09,3.4486551e-09,2162698,0.39999947,0.037619002,0.055985525,0.4,0.00033827225,0.00035812863,4.9961513e-06,1114122,0.0,0.0,0.0,0.5,0.0,0.0,0.0,1,1,0
431223272,431216723,2162698,0.0011497925,-0.0048278165,0.0059411116,0.34906584,2.4695945e-09,2.426295e-09,3.4518477e-09,2162698,0.3999971,0.022680871,0.056364883,0.4,0.0003291685,0.00034945316,4.9961595e-06,1114122,0.0,0.0,0.0,0.5,0.0,0.0,0.0,1,1,0
431269309,431266783,2162698,0.0011502204,-0.004825181,0.005941846,0.34906584,2.474614e-09,2.4310274e-09,3.4568681e-09,2162698,0.40620396,0.02392845,0.056113612,0.4,0.00032761757,0.0003493946,4.996212e-06,1114122,0.0,0.0,0.0,0.5,0.0,0.0,0.0,1,1,0
431283454,431276784,2162698,0.0011501934,-0.0048250677,0.0059417067,0.34906584,2.4755553e-09,2.4319695e-09,3.4577863e-09,2162698,0.39999062,0.02392789,0.056112297,0.4,0.00032760992,0.00034938645,4.9961036e-06,1114122,0.0,0.0,0.0,0.5,0.0,0.0,0.0,1,1,0
431323866,431316827,2162698,0.0011506134,-0.004822557,0.005942441,0.34906584,2.4795863e-09,2.4357147e-09,3.4618233e-09,2162698,0.40607902,0.025096439,0.05587028,0.4,0.00032600563,0.0003493329,4.9961777e-06,1114122,0.0,0.0,0.0,0.5,0.0,0.0,0.0,1,1,0
431328657,431326823,2162698,0.0011506246,-0.0048226034,0.005942499,0.34906584,2.4806097e-09,2.4367375e-09,3.462856e-09,2162698,0.4000039,0.025096683,0.05587082,0.4,0.0003260088,0.0003493363,4.9962355e-06,1114122,0.0,0.0,0.0,0.5,0.0,0.0,0.0,1,1,0
431373587,431366863,2162698,0.0011508942,-0.004820523,0.0059428043,0.34906584,2.4845284e-09,2.4403741e-09,3.4667362e-09,2162698,0.40463543,0.025946967,0.05568647,0.4,0.00032433498,0.00034927053,4.996083e-06,1114122,0.0,0.0,0.0,0.5,0.0,0.0,0.0,1,1,0
431378656,431376853,2162698,0.001150902,-0.004820556,0.005942845,0.34906584,2.4855447e-09,2.4413898e-09,3.4677594e-09,2162698,0.40000272,0.025947144,0.055686846,0.4,0.00032433722,0.00034927294,4.996126e-06,1114122,0.0,0.0,0.0,0.5,0.0,0.0,0.0,1,1,0
431399119,431396897,2162698,0.0011424402,-0.004871685,0.005942088,0.34906584,2.4854427e-09,2.4401323e-09,3.467955e-09,2162698,0.4823197,0.0076614246,0.056410287,0.4,0.00031605587,0.0003396443,4.99615e-06,1114122,0.0,0.0,0.0,0.5,0.0,0.0,0.0,1,1,0
431413393,431406875,2162698,0.0011424205,-0.0048716003,0.005941985,0.34906584,2.4863989e-09,2.4410893e-09,3.468894e-09,2162698,0.3999931,0.0076612914,0.05640931,0.4,0.0003160504,0.0003396384,4.996072e-06,1114122,0.0,0.0,0.0,0.5,0.0,0.0,0.0,1,1,0
431433695,431426890,2162698,0.0011426605,-0.004870028,0.0059423824,0.34906584,2.4884053e-09,2.4427906e-09,3.470897e-09,2162698,0.40370724,0.008294445,0.05626244,0.4,0.00031437908,0.00033959173,4.9960922e-06,1114122,0.0,0.0,0.0,0.5,0.0,0.0,0.0,1,1,0
431438839,431436898,2162698,0.0011426739,-0.004870085,0.0059424522,0.34906584,2.4894335e-09,2.4438187e-09,3.4719367e-09,2162698,0.40000474,0.008294543,0.056263104,0.4,0.00031438278,0.00033959572,4.99616e-06,1114122,0.0,0.0,0.0,0.5,0.0,0.0,0.0,1,1,0
431479000,431476920,2162698,0.0011428673,-0.004868664,0.005942716,0.34906584,2.4934035e-09,2.447486e-09,3.4758894e-09,2162698,0.40325788,0.008822246,0.056135174,0.4,0.0003126555,0.00033954778,4.99611e-06,1114122,0.0,0.0,0.0,0.5,0.0,0.0,0.0,1,1,0
431493666,431486932,2162698,0.0011428876,-0.0048687505,0.0059428215,0.34906584,2.4944469e-09,2.448529e-09,3.4769503e-09,2162698,0.4000071,0.008822404,0.056136176,0.4,0.00031266105,0.00033955384,4.9962077e-06,1114122,0.0,0.0,0.0,0.5,0.0,0.0,0.0,1,1,0
431539045,431536972,2162698,0.001143206,-0.004866621,0.0059433146,0.34906584,2.4994407e-09,2.4532194e-09,3.4819365e-09,2162698,0.40515846,0.009603765,0.055937994,0.4,0.0003108578,0.0003395131,4.9962073e-06,1114122,0.0,0.0,0.0,0.5,0.0,0.0,0.0,1,1,0
431548806,431546973,2162698,0.0011432056,-0.004866619,0.0059433123,0.34906584,2.5004392e-09,2.4542177e-09,3.4829346e-09,2162698,0.39999983,0.009603762,0.055937972,0.4,0.0003108577,0.00033951295,4.9962146e-06,1114122,0.0,0.0,0.0,0.5,0.0,0.0,0.0,1,1,0
431589980,431587008,2162698,0.0011434586,-0.0048650256,0.0059437305,0.34906584,2.5044504e-09,2.457928e-09,3.4869452e-09,2162698,0.4040139,0.010177391,0.055786192,0.4,0.00030900672,0.000339478,4.9962478e-06,1114122,0.0,0.0,0.0,0.5,0.0,0.0,0.0,1,1,0
431603893,431597031,2162698,0.0011348823,-0.0049169743,0.0059429253,0.34906584,2.5033158e-09,2.4554843e-09,3.4861007e-09,2162698,0.48430416,-0.009798224,0.056605812,0.4,0.00030020528,0.00032888207,4.996225e-06,1114122,0.0,0.0,0.0,0.5,0.0,0.0,0.0,1,1,0
431609395,431607017,2162698,0.0011348625,-0.0049168887,0.005942822,0.34906584,2.5042717e-09,2.4564406e-09,3.4870393e-09,2162698,0.39999303,-0.009798054,0.056604825,0.4,0.00030020007,0.00032887637,4.996147e-06,1114122,0.0,0.0,0.0,0.5,0.0,0.0,0.0,1,1,0
431643901,431637046,2162698,0.0011350135,-0.0049159937,0.0059431093,0.34906584,2.5073e-09,2.459146e-09,3.4900745e-09,2162698,0.40226877,-0.009496664,0.056517866,0.4,0.000298393,0.0003288493,4.996212e-06,1114122,0.0,0.0,0.0,0.5,0.0,0.0,0.0,1,1,0
431649167,431647058,2162698,0.0011350142,-0.0049159965,0.0059431125,0.34906584,2.5083002e-09,2.4601468e-09,3.4910757e-09,2162698,0.4000002,-0.009496668,0.0565179,0.4,0.00029839313,0.00032884948,4.996223e-06,1114122,0.0,0.0,0.0,0.5,0.0,0.0,0.0,1,1,0
431703917,431697100,2162698,0.0011352524,-0.0049143215,0.005943472,0.34906584,2.5132953e-09,2.4648192e-09,3.496065e-09,2162698,0.40403336,-0.0090016555,0.056364246,0.4,0.00029650846,0.00032882183,4.9962246e-06,1114122,0.0,0.0,0.0,0.5,0.0,0.0,0.0,1,1,0
431709521,431707095,2162698,0.0011352348,-0.004914246,0.0059433803,0.34906584,2.514256e-09,2.4657805e-09,3.4970107e-09,2162698,0.39999384,-0.009001517,0.056363378,0.4,0.00029650392,0.0003288168,4.9961563e-06,1114122,0.0,0.0,0.0,0.5,0.0,0.0,0.0,1,1,0
431754009,431747122,2162698,0.0011353844,-0.00491338,0.0059436634,0.34906584,2.5182842e-09,2.4694893e-09,3.5010466e-09,2162698,0.40228546,-0.008740078,0.05627803,0.4,0.0002945793,0.00032879657,4.996223e-06,1114122,0.0,0.0,0.0,0.5,0.0,0.0,0.0,1,1,0
431759107,431757129,2162698,0.0011353794,-0.0049133585,0.005943637,0.34906584,2.5192726e-09,2.4704774e-09,3.5020302e-09,2162698,0.39999822,-0.008740039,0.05627778,0.4,0.00029457803,0.0003287951,4.99621e-06,1114122,0.0,0.0,0.0,0.5,0.0,0.0,0.0,1,1,0
431799549,431797159,2162698,0.0011270714,-0.0049650646,0.005943206,0.34906584,2.521198e-09,2.4706126e-09,3.5042529e-09,2162698,0.48668876,-0.029711485,0.057134543,0.4,0.00028345155,0.00031731153,4.996257e-06,1114122,0.0,0.0,0.0,0.5,0.0,0.0,0.0,1,1,0
431813856,431807166,2162698,0.001127054,-0.0049649877,0.0059431144,0.34906584,2.5221583e-09,2.4715734e-09,3.5051981e-09,2162698,0.39999384,-0.029711023,0.057133656,0.4,0.00028344718,0.0003173066,4.9961886e-06,1114122,0.0,0.0,0.0,0.5,0.0,0.0,0.0,1,1,0
431859241,431857204,2162698,0.0011272184,-0.004963953,0.005943414,0.34906584,2.5271876e-09,2.4762592e-09,3.5102368e-09,2162698,0.40261552,-0.029463286,0.057034716,0.4,0.00028151824,0.0003172942,4.9962573e-06,1114122,0.0,0.0,0.0,0.5,0.0,0.0,0.0,1,1,0
431873878,431867215,2162698,0.0011272188,-0.0049639554,0.005943416,0.34906584,2.528188e-09,2.4772595e-09,3.5112375e-09,2162698,0.40000018,-0.029463299,0.057034742,0.4,0.00028151835,0.00031729435,4.9962687e-06,1114122,0.0,0.0,0.0,0.5,0.0,0.0,0.0,1,1,0
431914214,431907241,2162698,0.0011273394,-0.0049630464,0.0059435843,0.34906584,2.5321787e-09,2.4809106e-09,3.5152223e-09,2162698,0.4021688,-0.02927471,0.056952734,0.4,0.00027954817,0.00031727945,4.9962587e-06,1114122,0.0,0.0,0.0,0.5,0.0,0.0,0.0,1,1,0
431919127,431917249,2162698,0.0011273399,-0.0049630487,0.005943587,0.34906584,2.5331792e-09,2.481911e-09,3.516223e-09,2162698,0.40000018,-0.029274723,0.05695276,0.4,0.00027954832,0.0003172796,4.9962696e-06,1114122,0.0,0.0,0.0,0.5,0.0,0.0,0.0,1,1,0
431969755,431967285,2162698,0.0011274861,-0.0049619502,0.0059437864,0.34906584,2.538168e-09,2.4865618e-09,3.5212058e-09,2162698,0.40266404,-0.029067993,0.056853075,0.4,0.00027751445,0.00031726723,4.9962587e-06,1114122,0.0,0.0,0.0,0.5,0.0,0.0,0.0,1,1,0
431984063,431977293,2162698,0.0011274822,-0.004961933,0.005943766,0.34906584,2.5391582e-09,2.4875524e-09,3.522193e-09,2162698,0.39999858,-0.029067893,0.056852873,0.4,0.0002775135,0.00031726612,4.99625e-06,1114122,0.0,0.0,0.0,0.5,0.0,0.0,0.0,1,1,0
432004271,431997312,2162698,0.0011194691,-0.0050138966,0.005943425,0.34906584,2.5391351e-09,2.4859137e-09,3.5224628e-09,2162698,0.4847433,-0.050815854,0.057852317,0.4,0.0002680501,0.00030505538,4.9962614e-06,1114122,0.0,0.0,0.0,0.5,0.0,0.0,0.0,1,1,0
432009869,432007315,2162698,0.0011194674,-0.005013889,0.0059434166,0.34906584,2.5401306e-09,2.4869096e-09,3.523457e-09,2162698,0.39999944,-0.05081578,0.057852235,0.4,0.0002680497,0.00030505494,4.9962628e-06,1114122,0.0,0.0,0.0,0.5,0.0,0.0,0.0,1,1,0
432180251,432177448,2162698,0.0011193276,-0.0050149416,0.0059432173,0.34906584,2.557085e-09,2.502423e-09,3.5403909e-09,2162698,0.39747208,-0.050947323,0.05794797,0.4,0.00026004305,0.00030502747,4.9962355e-06,1114122,0.0,0.0,0.0,0.5,0.0,0.0,0.0,1,1,0
432214196,432207464,2162698,0.0011118645,-0.0050663254,0.005943162,0.34906584,2.55813e-09,2.5016804e-09,3.5417131e-09,2162698,0.39999577,-0.07280294,0.05904403,0.4,0.00025054725,0.0002922186,4.9962214e-06,1114122,0.0,0.0,0.0,0.5,0.0,0.0,0.0,1,1,0
432234313,432227479,2162698,0.0011118017,-0.0050669713,0.0059431214,0.34906584,2.560144e-09,2.5033093e-09,3.543732e-09,2162698,0.3986501,-0.0728542,0.059097417,0.4,0.00024860233,0.00029221832,4.9962537e-06,1114122,0.0,0.0,0.0,0.5,0.0,0.0,0.0,1,1,0
432289780,432287530,2162698,0.0011116668,-0.0050680568,0.0059429426,0.34906584,2.5661264e-09,2.5089095e-09,3.549709e-09,2162698,0.39615566,-0.07292743,0.05919436,0.4,0.00024660863,0.0002922158,4.996239e-06,1114122,0.0,0.0,0.0,0.5,0.0,0.0,0.0,1,1,0
432344461,432337567,2162698,0.0011115989,-0.005068721,0.005942892,0.34906584,2.571135e-09,2.5135414e-09,3.5547216e-09,2162698,0.39471558,-0.07296091,0.059250686,0.4,0.0002446001,0.00029221684,4.9962737e-06,1114122,0.0,0.0,0.0,0.5,0.0,0.0,0.0,1,1,0
432389636,432387607,2162698,0.0011115097,-0.005069379,0.0059427586,0.34906584,2.5761113e-09,2.518148e-09,3.5596899e-09,2162698,0.39311916,-0.07298664,0.059311848,0.4,0.00024257299,0.0002922147,4.996246e-06,1114122,0.0,0.0,0.0,0.5,0.0,0.0,0.0,1,1,0
432404564,432397604,2162698,0.001104773,-0.0051198476,0.005943141,0.34906584,2.5752838e-09,2.5153608e-09,3.5591354e-09,2162698,0.47339374,-0.09439346,0.060500134,0.4,0.00023320407,0.00027897948,4.9962437e-06,1114122,0.0,0.0,0.0,0.5,0.0,0.0,0.0,1,1,0
432409643,432407612,2162698,0.0011047814,-0.0051198862,0.005943186,0.34906584,2.5763025e-09,2.516379e-09,3.5601615e-09,2162698,0.40000305,-0.09439418,0.06050059,0.4,0.00023320584,0.00027898158,4.9962905e-06,1114122,0.0,0.0,0.0,0.5,0.0,0.0,0.0,1,1,0
432449672,432447641,2162698,0.0011045178,-0.0051221014,0.005942852,0.34906584,2.5802758e-09,2.5199465e-09,3.5641259e-09,2162698,0.39512444,-0.09443424,0.06069644,0.4,0.00023127742,0.00027897948,4.9962455e-06,1114122,0.0,0.0,0.0,0.5,0.0,0.0,0.0,1,1,0
432504658,432497678,2162698,0.0011043306,-0.0051237014,0.005942628,0.34906584,2.5852596e-09,2.5245313e-09,3.569106e-09,2162698,0.3915917,-0.09444249,0.060838014,0.4,0.00022933957,0.00027897878,4.996232e-06,1114122,0.0,0.0,0.0,0.5,0.0,0.0,0.0,1,1,0
432564728,432557726,2162698,0.0011042131,-0.0051248865,0.005942548,0.34906584,2.591278e-09,2.5301534e-09,3.5751333e-09,2162698,0.389092,-0.094432354,0.060938776,0.4,0.00022737215,0.0002789818,4.996286e-06,1114122,0.0,0.0,0.0,0.5,0.0,0.0,0.0,1,1,0
432604847,432597752,2162698,0.0010982888,-0.0051738266,0.005943384,0.34906584,2.5935774e-09,2.5303684e-09,3.577692e-09,2162698,0.46641934,-0.115025654,0.062188346,0.4,0.00021812481,0.00026549405,4.996275e-06,1114122,0.0,0.0,0.0,0.5,0.0,0.0,0.0,1,1,0
432610096,432607759,2162698,0.0010980259,-0.0051762923,0.0059431205,0.34906584,2.5945779e-09,2.5309383e-09,3.578694e-09,2162698,0.3949635,-0.11497455,0.062400036,0.4,0.0002162896,0.00026549448,4.996287e-06,1114122,0.0,0.0,0.0,0.5,0.0,0.0,0.0,1,1,0
432660056,432657810,2162698,0.001097789,-0.0051784758,0.0059428774,0.34906584,2.59957e-09,2.5355078e-09,3.583686e-09,2162698,0.39043665,-0.11490497,0.06258971,0.4,0.00021444946,0.0002654942,4.996288e-06,1114122,0.0,0.0,0.0,0.5,0.0,0.0,0.0,1,1,0
432720044,432717846,2162698,0.0010976106,-0.005180121,0.005942699,0.34906584,2.6055624e-09,2.541082e-09,3.5896788e-09,2162698,0.3869921,-0.114831544,0.06273373,0.4,0.00021258468,0.0002654936,4.9962923e-06,1114122,0.0,0.0,0.0,0.5,0.0,0.0,0.0,1,1,0
432774889,432767877,2162698,0.0010974584,-0.0051812977,0.005942479,0.34906584,2.6105174e-09,2.5456282e-09,3.5946202e-09,2162698,0.38433933,-0.11476086,0.06284333,0.4,0.00021071664,0.0002654887,4.9962227e-06,1114122,0.0,0.0,0.0,0.5,0.0,0.0,0.0,1,1,0
432800167,432797903,2162698,0.001092363,-0.005228852,0.005943846,0.34906584,2.612008e-09,2.5448794e-09,3.5963732e-09,2162698,0.45765868,-0.13425997,0.064170465,0.4,0.00020184105,0.0002519269,4.996295e-06,1114122,0.0,0.0,0.0,0.5,0.0,0.0,0.0,1,1,0
432814624,432807907,2162698,0.0010923625,-0.005228849,0.0059438427,0.34906584,2.6130058e-09,2.5458773e-09,3.5973704e-09,2162698,0.3999998,-0.1342599,0.064170435,0.4,0.00020184093,0.00025192674,4.996301e-06,1114122,0.0,0.0,0.0,0.5,0.0,0.0,0.0,1,1,0
432835028,432827957,2162698,0.0010920686,-0.0052315975,0.005943543,0.34906584,2.6149858e-09,2.5474083e-09,3.599346e-09,2162698,0.39455518,-0.13408802,0.06440977,0.4,0.00020009367,0.00025192372,4.996266e-06,1114122,0.0,0.0,0.0,0.5,0.0,0.0,0.0,1,1,0
432884758,432877958,2162698,0.0010918188,-0.005234095,0.0059433435,0.34906584,2.6199931e-09,2.5519749e-09,3.60436e-09,2162698,0.38968033,-0.13391457,0.06462479,0.4,0.0001983517,0.00025192308,4.9962964e-06,1114122,0.0,0.0,0.0,0.5,0.0,0.0,0.0,1,1,0
432930225,432927994,2162698,0.0010915501,-0.0052366722,0.0059430995,0.34906584,2.6249847e-09,2.5565348e-09,3.6093524e-09,2162698,0.384535,-0.13370946,0.06485112,0.4,0.00019661286,0.00025192034,4.9962964e-06,1114122,0.0,0.0,0.0,0.5,0.0,0.0,0.0,1,1,0
432990172,432988039,2162698,0.0010912468,-0.0052395896,0.0059428327,0.34906584,2.6309779e-09,2.5621016e-09,3.6153474e-09,2162698,0.37865815,-0.13344723,0.06510969,0.4,0.00019486048,0.0002519171,4.9963005e-06,1114122,0.0,0.0,0.0,0.5,0.0,0.0,0.0,1,1,0
433005000,432998047,2162698,0.0010869575,-0.005285468,0.0059445295,0.34906584,2.630577e-09,2.5593245e-09,3.6151764e-09,2162698,0.44773683,-0.15159264,0.066505544,0.4,0.00018643083,0.00023843523,4.9962823e-06,1114122,0.0,0.0,0.0,0.5,0.0,0.0,0.0,1,1,0
433010131,433008060,2162698,0.0010869614,-0.005285486,0.00594455,0.34906584,2.6315856e-09,2.5603326e-09,3.6161878e-09,2162698,0.4000014,-0.15159316,0.06650577,0.4,0.00018643147,0.00023843604,4.9963087e-06,1114122,0.0,0.0,0.0,0.5,0.0,0.0,0.0,1,1,0
433044725,433038075,2162698,0.0010866612,-0.005288537,0.0059443107,0.34906584,2.6345823e-09,2.5628666e-09,3.6191872e-09,2162698,0.3943452,-0.15132204,0.066769525,0.4,0.00018481984,0.00023843267,4.996306e-06,1114122,0.0,0.0,0.0,0.5,0.0,0.0,0.0,1,1,0
433094864,433088118,2162698,0.0010863441,-0.005291605,0.005944014,0.34906584,2.6395528e-09,2.5673845e-09,3.6241516e-09,2162698,0.3885164,-0.15102051,0.06704079,0.4,0.00018321426,0.00023842651,4.9962655e-06,1114122,0.0,0.0,0.0,0.5,0.0,0.0,0.0,1,1,0
433154985,433148163,2162698,0.001086011,-0.0052951025,0.0059437933,0.34906584,2.6455662e-09,2.572951e-09,3.6301748e-09,2162698,0.3819908,-0.15065861,0.06734637,0.4,0.00018160342,0.0002384236,4.996308e-06,1114122,0.0,0.0,0.0,0.5,0.0,0.0,0.0,1,1,0
433200783,433198198,2162698,0.0010822159,-0.005342325,0.005945649,0.34906584,2.6493086e-09,2.5737623e-09,3.6341303e-09,2162698,0.4408836,-0.16696395,0.06907554,0.4,0.00017207082,0.00022516577,4.9962773e-06,1114122,0.0,0.0,0.0,0.5,0.0,0.0,0.0,1,1,0
433214766,433208210,2162698,0.0010822185,-0.005342338,0.005945663,0.34906584,2.650314e-09,2.5747677e-09,3.635138e-09,2162698,0.40000096,-0.16696434,0.069075696,0.4,0.00017207125,0.0002251663,4.996298e-06,1114122,0.0,0.0,0.0,0.5,0.0,0.0,0.0,1,1,0
433265133,433258237,2162698,0.0010819833,-0.0053447816,0.0059454823,0.34906584,2.6552975e-09,2.5792752e-09,3.6401209e-09,2162698,0.39567778,-0.16669768,0.06929047,0.4,0.00017058937,0.00022516001,4.9962737e-06,1114122,0.0,0.0,0.0,0.5,0.0,0.0,0.0,1,1,0
433310570,433308273,2162698,0.0010816557,-0.005348294,0.005945268,0.34906584,2.6602949e-09,2.5838065e-09,3.6451222e-09,2162698,0.38948718,-0.16629967,0.06959942,0.4,0.0001691205,0.0002251544,4.996283e-06,1114122,0.0,0.0,0.0,0.5,0.0,0.0,0.0,1,1,0
433365447,433358309,2162698,0.0010813528,-0.0053516114,0.005945096,0.34906584,2.6653029e-09,2.5883589e-09,3.6501386e-09,2162698,0.3836403,-0.16590957,0.06989227,0.4,0.00016766522,0.00022514928,4.9963132e-06,1114122,0.0,0.0,0.0,0.5,0.0,0.0,0.0,1,1,0
433405153,433398345,2162698,0.0010786188,-0.005393488,0.005947553,0.34906584,2.6682139e-09,2.5887272e-09,3.6532464e-09,2162698,0.44416022,-0.18106797,0.07136628,0.4,0.0001601443,0.00021225064,4.996301e-06,1114122,0.0,0.0,0.0,0.5,0.0,0.0,0.0,1,1,0
433410552,433408352,2162698,0.0010786224,-0.005393506,0.005947573,0.34906584,2.669222e-09,2.5897353e-09,3.654258e-09,2162698,0.40000138,-0.18106858,0.07136652,0.4,0.00016014485,0.00021225135,4.9963264e-06,1114122,0.0,0.0,0.0,0.5,0.0,0.0,0.0,1,1,0
433425051,433418353,2162698,0.0010782348,-0.005397821,0.005947341,0.34906584,2.6702154e-09,2.5902338e-09,3.6552534e-09,2162698,0.3929189,-0.18058336,0.071744084,0.4,0.00015880297,0.00021224491,4.996314e-06,1114122,0.0,0.0,0.0,0.5,0.0,0.0,0.0,1,1,0
433475175,433468404,2162698,0.0010778559,-0.0054020747,0.005947131,0.34906584,2.6752112e-09,2.5947455e-09,3.660253e-09,2162698,0.38591072,-0.18008986,0.072119065,0.4,0.00015747489,0.00021223864,4.996321e-06,1114122,0.0,0.0,0.0,0.5,0.0,0.0,0.0,1,1,0
433520693,433518429,2162698,0.0010774988,-0.00540597,0.0059469007,0.34906584,2.6801876e-09,2.5992497e-09,3.6652263e-09,2162698,0.3793853,-0.1796182,0.07246868,0.4,0.0001561597,0.00021223057,4.9962905e-06,1114122,0.0,0.0,0.0,0.5,0.0,0.0,0.0,1,1,0
433581364,433578479,2162698,0.0010772126,-0.0054090666,0.005946709,0.34906584,2.68616e-09,2.6047573e-09,3.6711942e-09,2162698,0.3741368,-0.17922953,0.07275086,0.4,0.00015484625,0.00021222194,4.9962546e-06,1114122,0.0,0.0,0.0,0.5,0.0,0.0,0.0,1,1,0
433600911,433598489,2162698,0.0010751558,-0.0054492215,0.0059495666,0.34906584,2.687261e-09,2.6032456e-09,3.672489e-09,2162698,0.4304515,-0.1929188,0.074267276,0.4,0.00014786836,0.0001997797,4.9963196e-06,1114122,0.0,0.0,0.0,0.5,0.0,0.0,0.0,1,1,0
433615131,433608491,2162698,0.0010751582,-0.0054492336,0.00594958,0.34906584,2.6882665e-09,2.6042508e-09,3.6734964e-09,2162698,0.40000096,-0.19291925,0.07426744,0.4,0.0001478687,0.00019978017,4.9963405e-06,1114122,0.0,0.0,0.0,0.5,0.0,0.0,0.0,1,1,0
433630493,433628506,2162698,0.0010748516,-0.005452824,0.005949423,0.34906584,2.6902525e-09,2.605737e-09,3.6754821e-09,2162698,0.39444366,-0.19250965,0.07458688,0.4,0.00014667529,0.00019977304,4.996314e-06,1114122,0.0,0.0,0.0,0.5,0.0,0.0,0.0,1,1,0
433685321,433678535,2162698,0.0010745242,-0.0054568164,0.0059493002,0.34906584,2.6952545e-09,2.6102502e-09,3.6804904e-09,2162698,0.38829318,-0.19205198,0.07494269,0.4,0.00014549741,0.00019976722,4.996331e-06,1114122,0.0,0.0,0.0,0.5,0.0,0.0,0.0,1,1,0
433745557,433738586,2162698,0.0010742419,-0.0054602725,0.005949192,0.34906584,2.7012501e-09,2.6157656e-09,3.6864893e-09,2162698,0.3829184,-0.19164771,0.07525506,0.4,0.00014432316,0.00019976085,4.9963373e-06,1114122,0.0,0.0,0.0,0.5,0.0,0.0,0.0,1,1,0
433790918,433788628,2162698,0.0010739324,-0.005464229,0.0059491172,0.34906584,2.7062648e-09,2.6203109e-09,3.6915149e-09,2162698,0.37678984,-0.19118537,0.075613484,0.4,0.00014316595,0.00019975584,4.996377e-06,1114122,0.0,0.0,0.0,0.5,0.0,0.0,0.0,1,1,0
433805438,433798634,2162698,0.0010724552,-0.005502346,0.005952093,0.34906584,2.7064382e-09,2.6178306e-09,3.691841e-09,2162698,0.4289549,-0.20337565,0.077156134,0.4,0.00013671526,0.00018783845,4.996323e-06,1114122,0.0,0.0,0.0,0.5,0.0,0.0,0.0,1,1,0
433810502,433808672,2162698,0.0010724535,-0.0055023367,0.0059520826,0.34906584,2.707433e-09,2.6188254e-09,3.6928343e-09,2162698,0.39999932,-0.20337531,0.07715601,0.4,0.00013671503,0.00018783814,4.9963232e-06,1114122,0.0,0.0,0.0,0.5,0.0,0.0,0.0,1,1,0
433851002,433848669,2162698,0.0010721702,-0.0055061523,0.005952032,0.34906584,2.7114415e-09,2.6223284e-09,3.6968506e-09,2162698,0.39453015,-0.20297015,0.07749809,0.4,0.00013565517,0.00018783334,4.996341e-06,1114122,0.0,0.0,0.0,0.5,0.0,0.0,0.0,1,1,0
433900929,433898720,2162698,0.0010718064,-0.0055108718,0.005951907,0.34906584,2.7164206e-09,2.6268148e-09,3.7018266e-09,2162698,0.3876325,-0.20245776,0.07793054,0.4,0.00013460933,0.00018782663,4.996314e-06,1114122,0.0,0.0,0.0,0.5,0.0,0.0,0.0,1,1,0
433955654,433948748,2162698,0.0010715857,-0.005513941,0.0059518865,0.34906584,2.7214289e-09,2.6313416e-09,3.706843e-09,2162698,0.38319963,-0.20213147,0.078210786,0.4,0.00013358062,0.00018782206,4.996341e-06,1114122,0.0,0.0,0.0,0.5,0.0,0.0,0.0,1,1,0
434001082,433998799,2162698,0.0010706427,-0.0055498383,0.005955125,0.34906584,2.7257598e-09,2.6330433e-09,3.7113224e-09,2162698,0.4315858,-0.21298805,0.079744205,0.4,0.00012755931,0.0001764889,4.9963546e-06,1114122,0.0,0.0,0.0,0.5,0.0,0.0,0.0,1,1,0
434015712,434008788,2162698,0.00107032,-0.0055540623,0.005954977,0.34906584,2.7267055e-09,2.6334752e-09,3.7122525e-09,2162698,0.39415997,-0.2125673,0.08013681,0.4,0.00012661579,0.0001764808,4.9962614e-06,1114122,0.0,0.0,0.0,0.5,0.0,0.0,0.0,1,1,0
434065606,434058837,2162698,0.0010700092,-0.0055587417,0.005955001,0.34906584,2.7317237e-09,2.6379894e-09,3.7172814e-09,2162698,0.387895,-0.21212669,0.080563396,0.4,0.00012569067,0.00017647778,4.9963055e-06,1114122,0.0,0.0,0.0,0.5,0.0,0.0,0.0,1,1,0
434125697,434118868,2162698,0.0010696995,-0.00556337,0.0059550116,0.34906584,2.7377287e-09,2.6434999e-09,3.723293e-09,2162698,0.38162968,-0.21169366,0.08099241,0.4,0.00012477195,0.00017647419,4.996327e-06,1114122,0.0,0.0,0.0,0.5,0.0,0.0,0.0,1,1,0
434170840,434168897,2162698,0.0010693595,-0.00556817,0.0059549403,0.34906584,2.7426914e-09,2.6479823e-09,3.7282466e-09,2162698,0.3749766,-0.21124014,0.08144894,0.4,0.00012386694,0.00017646806,4.9962696e-06,1114122,0.0,0.0,0.0,0.5,0.0,0.0,0.0,1,1,0
434205804,434198918,2162698,0.0010687974,-0.005602279,0.005958246,0.34906584,2.7450933e-09,2.64776e-09,3.7307637e-09,2162698,0.41988915,-0.22098388,0.08299774,0.4,0.00011833293,0.00016574687,4.9962077e-06,1114122,0.0,0.0,0.0,0.5,0.0,0.0,0.0,1,1,0
434210897,434208929,2162698,0.0010687949,-0.0056022652,0.0059582316,0.34906584,2.7460856e-09,2.6487528e-09,3.731754e-09,2162698,0.39999905,-0.22098333,0.08299754,0.4,0.00011833265,0.00016574647,4.996205e-06,1114122,0.0,0.0,0.0,0.5,0.0,0.0,0.0,1,1,0
434225704,434218933,2162698,0.0010685597,-0.005606548,0.005958407,0.34906584,2.7471505e-09,2.6493054e-09,3.732845e-09,2162698,0.39476848,-0.2206506,0.08338525,0.4,0.00011751769,0.00016574716,4.9963187e-06,1114122,0.0,0.0,0.0,0.5,0.0,0.0,0.0,1,1,0
434281323,434278983,2162698,0.001068233,-0.005612128,0.0059585418,0.34906584,2.7531797e-09,2.6548335e-09,3.738889e-09,2162698,0.38777643,-0.22021763,0.083905116,0.4,0.00011670859,0.00016574621,4.9963833e-06,1114122,0.0,0.0,0.0,0.5,0.0,0.0,0.0,1,1,0
434335691,434329014,2162698,0.0010679303,-0.005617126,0.005958609,0.34906584,2.7581748e-09,2.659341e-09,3.743886e-09,2162698,0.38140196,-0.21983394,0.08438075,0.4,0.000115912626,0.0001657434,4.996384e-06,1114122,0.0,0.0,0.0,0.5,0.0,0.0,0.0,1,1,0
434395935,434389055,2162698,0.0010675972,-0.00561947,0.0059589627,0.34906584,2.7638267e-09,2.6645208e-09,3.749781e-09,2162698,0.37622005,-0.21950167,0.08478164,0.4,0.000115111434,0.00016572831,4.9963514e-06,1114122,0.0,0.0,0.0,0.5,0.0,0.0,0.0,1,1,0
434401272,434399063,2162698,0.0010673554,-0.005651968,0.005962524,0.34906584,2.76438e-09,2.6624816e-09,3.750449e-09,2162698,0.41794965,-0.22820236,0.0863411,0.4,0.000110031266,0.00015564011,4.9963824e-06,1114122,0.0,0.0,0.0,0.5,0.0,0.0,0.0,1,1,0
434415826,434409070,2162698,0.0010670793,-0.005650144,0.005962938,0.34906584,2.765047e-09,2.6631575e-09,3.7513512e-09,2162698,0.40005198,-0.2281336,0.086353436,0.4,0.00011001664,0.000155628,4.996354e-06,1114122,0.0,0.0,0.0,0.5,0.0,0.0,0.0,1,1,0
434441286,434439092,2162698,0.00106653,-0.00565326,0.005963593,0.34906584,2.7677425e-09,2.6653606e-09,3.754291e-09,2162698,0.3939263,-0.22773892,0.086857244,0.4,0.00010929127,0.00015561581,4.996378e-06,1114122,0.0,0.0,0.0,0.5,0.0,0.0,0.0,1,1,0
434491701,434489127,2162698,0.0010660269,-0.005653871,0.005964625,0.34906584,2.7720988e-09,2.6692653e-09,3.7591343e-09,2162698,0.38860163,-0.2273378,0.087325215,0.4,0.00010856737,0.00015559283,4.9963783e-06,1114122,0.0,0.0,0.0,0.5,0.0,0.0,0.0,1,1,0
434551601,434549222,2162698,0.0010640196,-0.005652676,0.005966884,0.34906584,2.7771394e-09,2.6739053e-09,3.7649026e-09,2162698,0.38264564,-0.22656454,0.08789857,0.4,0.000107842,0.00015556098,4.996385e-06,1114122,0.0,0.0,0.0,0.5,0.0,0.0,0.0,1,1,0
434606264,434599206,2162698,0.0010595727,-0.00568194,0.0059737624,0.34906584,2.780804e-09,2.6747065e-09,3.769375e-09,2162698,0.41696048,-0.23302764,0.08998398,0.4,0.0001024511,0.00014607348,4.9963905e-06,1114122,0.0,0.0,0.0,0.5,0.0,0.0,0.0,1,1,0
434611312,434609226,2162698,0.0010595729,-0.0056819413,0.0059737638,0.34906584,2.781804e-09,2.6757063e-09,3.770375e-09,2162698,0.4000001,-0.23302768,0.08998399,0.4,0.00010245113,0.00014607352,4.9964005e-06,1114122,0.0,0.0,0.0,0.5,0.0,0.0,0.0,1,1,0
434651375,434649242,2162698,0.0010566134,-0.005682378,0.0059758555,0.34906584,2.7851383e-09,2.6786258e-09,3.774171e-09,2162698,0.3952326,-0.23222035,0.09044311,0.4,0.000101814054,0.00014605145,4.996337e-06,1114122,0.0,0.0,0.0,0.5,0.0,0.0,0.0,1,1,0
434716172,434709295,2162698,0.0010518667,-0.0056805406,0.005979259,0.34906584,2.79021e-09,2.6833333e-09,3.779968e-09,2162698,0.3921245,-0.23104051,0.090876125,0.4,0.00010117633,0.00014602342,4.996396e-06,1114122,0.0,0.0,0.0,0.5,0.0,0.0,0.0,1,1,0
434756054,434749313,2162698,0.0010485908,-0.0056771575,0.0059813983,0.34906584,2.7935758e-09,2.6867741e-09,3.7838053e-09,2162698,0.39283118,-0.23032267,0.090919256,0.4,0.000101153695,0.0001460046,4.9964124e-06,1114122,0.0,0.0,0.0,0.5,0.0,0.0,0.0,1,1,0
434762016,434759324,2162698,0.0010483714,-0.005681571,0.0059816292,0.34906584,2.7945717e-09,2.6873128e-09,3.7848e-09,2162698,0.38781416,-0.23014179,0.091368064,0.4,0.00010056287,0.00014600373,4.9963974e-06,1114122,0.0,0.0,0.0,0.5,0.0,0.0,0.0,1,1,0
434802214,434799352,2162698,0.0010451429,-0.0057070903,0.005987587,0.34906584,2.7976337e-09,2.6880917e-09,3.788393e-09,2162698,0.4250454,-0.23599453,0.09296214,0.4,9.61826e-05,0.00013715733,4.9963965e-06,1114122,0.0,0.0,0.0,0.5,0.0,0.0,0.0,1,1,0
434816300,434809363,2162698,0.0010435316,-0.005709367,0.0059888125,0.34906584,2.7983067e-09,2.6883276e-09,3.7892858e-09,2162698,0.39601874,-0.23550777,0.09340246,0.4,9.563533e-05,0.00013714697,4.9963674e-06,1114122,0.0,0.0,0.0,0.5,0.0,0.0,0.0,1,1,0
434866368,434859414,2162698,0.0010403268,-0.0057058544,0.005991021,0.34906584,2.802722e-09,2.6928013e-09,3.7941428e-09,2162698,0.39683264,-0.23475586,0.09345496,0.4,9.561179e-05,0.0001371304,4.9964196e-06,1114122,0.0,0.0,0.0,0.5,0.0,0.0,0.0,1,1,0
434871537,434869399,2162698,0.001040179,-0.005708896,0.005991199,0.34906584,2.8037095e-09,2.6933265e-09,3.7951255e-09,2162698,0.3935672,-0.23465893,0.09376941,0.4,9.508459e-05,0.00013712942,4.996384e-06,1114122,0.0,0.0,0.0,0.5,0.0,0.0,0.0,1,1,0
434905983,434899421,2162698,0.0010369929,-0.0057052863,0.005993298,0.34906584,2.8061362e-09,2.6957838e-09,3.7979517e-09,2162698,0.39433768,-0.23394074,0.09381888,0.4,9.506081e-05,0.00013711242,4.9963824e-06,1114122,0.0,0.0,0.0,0.5,0.0,0.0,0.0,1,1,0
434926341,434919445,2162698,0.0010351206,-0.005707464,0.005994655,0.34906584,2.8078582e-09,2.6970635e-09,3.799859e-09,2162698,0.39052686,-0.23346834,0.094251044,0.4,9.453411e-05,0.00013710377,4.9963696e-06,1114122,0.0,0.0,0.0,0.5,0.0,0.0,0.0,1,1,0
434971587,434969474,2162698,0.001032399,-0.005708324,0.0059966464,0.34906584,2.8122926e-09,2.701063e-09,3.804633e-09,2162698,0.3861561,-0.23276497,0.09478376,0.4,9.400725e-05,0.00013708604,4.9962973e-06,1114122,0.0,0.0,0.0,0.5,0.0,0.0,0.0,1,1,0
435006558,434999494,2162698,0.0010294736,-0.005731121,0.0060028345,0.34906584,2.8146037e-09,2.7011025e-09,3.8073424e-09,2162698,0.4211241,-0.23788555,0.09638441,0.4,8.9968504e-05,0.0001288632,4.996386e-06,1114122,0.0,0.0,0.0,0.5,0.0,0.0,0.0,1,1,0
435011441,435009499,2162698,0.0010294779,-0.0057311454,0.0060028597,0.34906584,2.8156146e-09,2.702113e-09,3.8083576e-09,2162698,0.40000167,-0.23788655,0.09638482,0.4,8.996889e-05,0.00012886374,4.996416e-06,1114122,0.0,0.0,0.0,0.5,0.0,0.0,0.0,1,1,0
435031679,435029513,2162698,0.0010282954,-0.005733431,0.006004011,0.34906584,2.8173504e-09,2.7033864e-09,3.8102352e-09,2162698,0.39532048,-0.23754278,0.0968977,0.4,8.949789e-05,0.00012885581,4.9963587e-06,1114122,0.0,0.0,0.0,0.5,0.0,0.0,0.0,1,1,0
435081930,435079552,2162698,0.0010257885,-0.005733409,0.006006321,0.34906584,2.8219096e-09,2.70748e-09,3.8150945e-09,2162698,0.3914948,-0.2369044,0.097430855,0.4,8.9029134e-05,0.00012884433,4.9963965e-06,1114122,0.0,0.0,0.0,0.5,0.0,0.0,0.0,1,1,0
435136484,435129584,2162698,0.0010223589,-0.0057253325,0.0060092905,0.34906584,2.8262572e-09,2.7117726e-09,3.819862e-09,2162698,0.392692,-0.23601311,0.09751628,0.4,8.899947e-05,0.00012882745,4.996422e-06,1114122,0.0,0.0,0.0,0.5,0.0,0.0,0.0,1,1,0
435141911,435139596,2162698,0.0010221439,-0.0057298355,0.0060096937,0.34906584,2.827256e-09,2.7123452e-09,3.8208587e-09,2162698,0.38811848,-0.23594059,0.09800516,0.4,8.8558874e-05,0.00012882736,4.9964165e-06,1114122,0.0,0.0,0.0,0.5,0.0,0.0,0.0,1,1,0
435191861,435189631,2162698,0.0010207919,-0.0057279775,0.0060113887,0.34906584,2.831816e-09,2.71645e-09,3.8256758e-09,2162698,0.3845581,-0.23541747,0.09851479,0.4,8.810959e-05,0.00012881581,4.9964015e-06,1114122,0.0,0.0,0.0,0.5,0.0,0.0,0.0,1,1,0
435206684,435199634,2162698,0.0010197336,-0.005750143,0.006016417,0.34906584,2.832402e-09,2.7148765e-09,3.8264347e-09,2162698,0.41711774,-0.24014568,0.10009199,0.4,8.439063e-05,0.000121195735,4.996397e-06,1114122,0.0,0.0,0.0,0.5,0.0,0.0,0.0,1,1,0
435211573,435209641,2162698,0.0010197359,-0.005750156,0.00601643,0.34906584,2.8334075e-09,2.7158817e-09,3.8274424e-09,2162698,0.4000009,-0.2401462,0.1000922,0.4,8.4390835e-05,0.000121196004,4.996417e-06,1114122,0.0,0.0,0.0,0.5,0.0,0.0,0.0,1,1,0
435246579,435239662,2162698,0.0010176315,-0.0057481984,0.006018784,0.34906584,2.8360034e-09,2.7179972e-09,3.8302788e-09,2162698,0.39651182,-0.23951885,0.10061229,0.4,8.3981315e-05,0.00012118653,4.996423e-06,1114122,0.0,0.0,0.0,0.5,0.0,0.0,0.0,1,1,0
435286543,435279721,2162698,0.0010160159,-0.005742105,0.0060205087,0.34906584,2.8395843e-09,2.7215108e-09,3.83409e-09,2162698,0.3973742,-0.23898807,0.1006734,0.4,8.396065e-05,0.00012117641,4.9964033e-06,1114122,0.0,0.0,0.0,0.5,0.0,0.0,0.0,1,1,0
435306678,435299705,2162698,0.0010151328,-0.005744058,0.00602182,0.34906584,2.8413805e-09,2.72286e-09,3.836e-09,2162698,0.39276314,-0.23867902,0.101292916,0.4,8.3568724e-05,0.00012117165,4.9964033e-06,1114122,0.0,0.0,0.0,0.5,0.0,0.0,0.0,1,1,0
435356824,435349744,2162698,0.001012262,-0.0057425774,0.006024711,0.34906584,2.8459748e-09,2.7269922e-09,3.8408356e-09,2162698,0.38959876,-0.23792128,0.10187061,0.4,8.317734e-05,0.00012116263,4.996428e-06,1114122,0.0,0.0,0.0,0.5,0.0,0.0,0.0,1,1,0
435396456,435389772,2162698,0.0010099089,-0.0057359017,0.006026722,0.34906584,2.849456e-09,2.7304194e-09,3.844538e-09,2162698,0.39077947,-0.23716818,0.10194302,0.4,8.315553e-05,0.00012114922,4.9962787e-06,1114122,0.0,0.0,0.0,0.5,0.0,0.0,0.0,1,1,0
435402232,435399790,2162698,0.0010093945,-0.005760023,0.006031235,0.34906584,2.8503713e-09,2.7293463e-09,3.84552e-09,2162698,0.4210475,-0.24148647,0.103457645,0.4,7.970485e-05,0.00011410925,4.9964133e-06,1114122,0.0,0.0,0.0,0.5,0.0,0.0,0.0,1,1,0
435416677,435409788,2162698,0.0010079392,-0.0057620527,0.00603303,0.34906584,2.8511629e-09,2.7297014e-09,3.8464356e-09,2162698,0.39584377,-0.241083,0.10410668,0.4,7.9355304e-05,0.00011410517,4.996429e-06,1114122,0.0,0.0,0.0,0.5,0.0,0.0,0.0,1,1,0
435456508,435449846,2162698,0.0010052512,-0.0057550464,0.006035489,0.34906584,2.8547302e-09,2.7332037e-09,3.850254e-09,2162698,0.39736262,-0.24022943,0.104198866,0.4,7.933413e-05,0.00011409638,4.9964324e-06,1114122,0.0,0.0,0.0,0.5,0.0,0.0,0.0,1,1,0
435462205,435459823,2162698,0.001005027,-0.005759769,0.0060360343,0.34906584,2.8557172e-09,2.733796e-09,3.851232e-09,2162698,0.39302826,-0.24021612,0.10474678,0.4,7.90038e-05,0.000114095936,4.9964124e-06,1114122,0.0,0.0,0.0,0.5,0.0,0.0,0.0,1,1,0
435496405,435489845,2162698,0.0010020596,-0.0057532447,0.0060385833,0.34906584,2.8582798e-09,2.7362808e-09,3.854036e-09,2162698,0.39452252,-0.23937142,0.104832105,0.4,7.8982426e-05,0.00011408677,4.9964005e-06,1114122,0.0,0.0,0.0,0.5,0.0,0.0,0.0,1,1,0
435512072,435509854,2162698,0.0010018582,-0.0057573714,0.0060390537,0.34906584,2.8602556e-09,2.7378755e-09,3.855999e-09,2162698,0.39069948,-0.23936483,0.10531998,0.4,7.866077e-05,0.000114085924,4.9963623e-06,1114122,0.0,0.0,0.0,0.5,0.0,0.0,0.0,1,1,0
435546440,435539874,2162698,0.0009997571,-0.005750175,0.0060409214,0.34906584,2.8628093e-09,2.740329e-09,3.8587764e-09,2162698,0.3920599,-0.23860334,0.10540556,0.4,7.863918e-05,0.00011407622,4.9963205e-06,1114122,0.0,0.0,0.0,0.5,0.0,0.0,0.0,1,1,0
435572036,435569896,2162698,0.0009984242,-0.0057514166,0.006042645,0.34906584,2.865657e-09,2.7427423e-09,3.8617465e-09,2162698,0.3882541,-0.23820664,0.10604036,0.4,7.831609e-05,0.00011407414,4.996415e-06,1114122,0.0,0.0,0.0,0.5,0.0,0.0,0.0,1,1,0
435606902,435599988,2162698,0.0009953934,-0.0057666427,0.0060490146,0.34906584,2.868126e-09,2.7432074e-09,3.86445e-09,2162698,0.41830525,-0.24113177,0.10763609,0.4,7.510282e-05,0.000107566455,4.996412e-06,1114122,0.0,0.0,0.0,0.5,0.0,0.0,0.0,1,1,0
435626699,435619931,2162698,0.0009941327,-0.0057671946,0.0060505937,0.34906584,2.8699476e-09,2.744569e-09,3.8663672e-09,2162698,0.3969795,-0.24077626,0.108199924,0.4,7.480779e-05,0.0001075635,4.996439e-06,1114122,0.0,0.0,0.0,0.5,0.0,0.0,0.0,1,1,0
435666572,435659959,2162698,0.000991706,-0.0057597803,0.0060526943,0.34906584,2.8735743e-09,2.7480063e-09,3.870173e-09,2162698,0.39847007,-0.2400335,0.10829193,0.4,7.4786076e-05,0.000107556705,4.996441e-06,1114122,0.0,0.0,0.0,0.5,0.0,0.0,0.0,1,1,0
435686903,435679973,2162698,0.0009903595,-0.0057600867,0.0060542286,0.34906584,2.8753928e-09,2.7493534e-09,3.8720693e-09,2162698,0.3956282,-0.2396736,0.108837344,0.4,7.449746e-05,0.000107553424,4.996442e-06,1114122,0.0,0.0,0.0,0.5,0.0,0.0,0.0,1,1,0
435736817,435730008,2162698,0.0009880315,-0.005757199,0.006056739,0.34906584,2.8800373e-09,2.7534128e-09,3.8768686e-09,2162698,0.39280325,-0.23897962,0.109530434,0.4,7.420692e-05,0.000107547115,4.9964483e-06,1114122,0.0,0.0,0.0,0.5,0.0,0.0,0.0,1,1,0
435776662,435770047,2162698,0.0009860222,-0.005749635,0.0060584587,0.34906584,2.8836822e-09,2.7567997e-09,3.8806722e-09,2162698,0.39423952,-0.23827259,0.109622866,0.4,7.418685e-05,0.000107540916,4.9964506e-06,1114122,0.0,0.0,0.0,0.5,0.0,0.0,0.0,1,1,0
435782495,435780043,2162698,0.0009858197,-0.005753693,0.0060589924,0.34906584,2.8846494e-09,2.7574274e-09,3.8816226e-09,2162698,0.39062834,-0.23828194,0.11013799,0.4,7.392431e-05,0.000107539745,4.9963965e-06,1114122,0.0,0.0,0.0,0.5,0.0,0.0,0.0,1,1,0
435802651,435800064,2162698,0.0009839507,-0.005771431,0.006064331,0.34906584,2.8863918e-09,2.7573057e-09,3.883479e-09,2162698,0.4183734,-0.24108118,0.111672506,0.4,7.096025e-05,0.00010155062,4.9964474e-06,1114122,0.0,0.0,0.0,0.5,0.0,0.0,0.0,1,1,0
435816608,435810065,2162698,0.0009830545,-0.0057675154,0.0060651186,0.34906584,2.8872194e-09,2.7579914e-09,3.8843844e-09,2162698,0.40079102,-0.24074261,0.11172345,0.4,7.094973e-05,0.00010154813,4.996453e-06,1114122,0.0,0.0,0.0,0.5,0.0,0.0,0.0,1,1,0
435842316,435840092,2162698,0.0009819625,-0.0057674004,0.0060665244,0.34906584,2.8900438e-09,2.7603213e-09,3.887279e-09,2162698,0.396629,-0.24039568,0.112291224,0.4,7.070106e-05,0.00010154563,4.9964547e-06,1114122,0.0,0.0,0.0,0.5,0.0,0.0,0.0,1,1,0
435876853,435870107,2162698,0.0009803652,-0.005758638,0.0060678627,0.34906584,2.892683e-09,2.7626423e-09,3.89006e-09,2162698,0.39831063,-0.23968285,0.11240105,0.4,7.068022e-05,0.00010154006,4.996427e-06,1114122,0.0,0.0,0.0,0.5,0.0,0.0,0.0,1,1,0
435896924,435890121,2162698,0.0009792647,-0.0057587875,0.0060693263,0.34906584,2.8945313e-09,2.7639848e-09,3.891978e-09,2162698,0.3954846,-0.23932058,0.113030694,0.4,7.0439804e-05,0.00010153828,4.9964583e-06,1114122,0.0,0.0,0.0,0.5,0.0,0.0,0.0,1,1,0
435946984,435940161,2162698,0.000977029,-0.0057551633,0.006071753,0.34906584,2.8991918e-09,2.7679563e-09,3.89677e-09,2162698,0.39320454,-0.23855639,0.11378879,0.4,7.0196635e-05,0.0001015335,4.996457e-06,1114122,0.0,0.0,0.0,0.5,0.0,0.0,0.0,1,1,0
435966694,435960175,2162698,0.000976163,-0.0057506436,0.0060724076,0.34906584,2.9010025e-09,2.7695717e-09,3.898644e-09,2162698,0.39413238,-0.23816696,0.1138474,0.4,7.018656e-05,0.00010153046,4.996423e-06,1114122,0.0,0.0,0.0,0.5,0.0,0.0,0.0,1,1,0
436007401,436000209,2162698,0.00097391836,-0.0057658073,0.0060783955,0.34906584,2.9045932e-09,2.770838e-09,3.902393e-09,2162698,0.41777086,-0.24009593,0.11602701,0.4,6.721197e-05,9.6019554e-05,4.9964606e-06,1114122,0.0,0.0,0.0,0.5,0.0,0.0,0.0,1,1,0
