timestamp,indicated_airspeed_m_s,true_airspeed_m_s,air_temperature_celsius,confidence
394709954,2.853321,2.974355,33.048363,1.0
394742253,2.9266832,3.050829,33.048363,1.0
394753227,3.1311622,3.2639816,33.048363,1.0
394764011,3.2383828,3.375712,33.048363,1.0
394774766,3.2536573,3.3916342,33.048363,1.0
394785828,3.177428,3.3121722,33.048363,1.0
394796615,3.0442123,3.1743197,33.24377,1.0
394807346,2.9498804,3.075956,33.24377,1.0
394818274,2.8897586,3.0133333,33.24377,1.0
394829030,2.821048,2.9416845,33.24377,1.0
394839797,2.7515314,2.869195,33.24377,1.0
394850805,2.686616,2.8015037,33.24377,1.0
394861639,2.700879,2.816341,33.24377,1.0
394872392,2.8623564,2.9847214,33.24377,1.0
394883323,3.08968,3.2217631,33.24377,1.0
394894080,3.302968,3.444169,33.24377,1.0
394904854,3.5132217,3.662827,33.14607,1.0
394915973,3.725302,3.8839383,33.14607,1.0
394926736,3.9185648,4.085369,33.14607,1.0
394937482,4.083702,4.257536,33.14607,1.0
394948431,4.1728325,4.3504605,33.14607,1.0
394959236,4.142682,4.3190265,33.14607,1.0
394969977,4.015714,4.1867065,33.14607,1.0
394980896,3.8029976,3.9649324,33.14607,1.0
394991796,3.5105405,3.6600223,33.14607,1.0
395002537,3.1704464,3.3054466,33.14607,1.0
395013472,2.8065302,2.9260347,33.14607,1.0
395024270,2.479008,2.584576,33.14607,1.0
395035017,2.2461364,2.3417876,33.14607,1.0
395045967,2.1471455,2.2385812,33.14607,1.0
395056718,2.1930676,2.2864587,33.14607,1.0
395067494,2.286288,2.383649,33.14607,1.0
395078531,2.361909,2.4624903,33.14607,1.0
395089276,2.456014,2.5605805,33.14607,1.0
395100023,2.6256063,2.7373934,33.14607,1.0
395111007,2.8253849,2.9456778,33.14607,1.0
395121809,2.9581304,3.084075,33.14607,1.0
395132629,2.9726431,3.0992367,33.14607,1.0
395143589,2.9117937,3.035796,33.14607,1.0
395154362,2.8410232,2.9620116,33.14607,1.0
395165136,2.731027,2.847331,33.14607,1.0
395176088,2.6005542,2.711302,33.14607,1.0
395186838,2.505405,2.612097,33.14607,1.0
395197597,2.3995483,2.5017326,33.14607,1.0
395208648,2.247647,2.3433626,33.14607,1.0
395219406,2.118955,2.2091901,33.14607,1.0
395241105,2.0214825,2.107591,33.14607,1.0
395251840,1.9309068,2.0131571,33.14607,1.0
395262649,1.9153099,1.9968958,33.14607,1.0
395273714,2.095431,2.1846895,33.14607,1.0
395284443,2.3204544,2.419298,33.14607,1.0
395295216,2.5030673,2.6096666,33.14607,1.0
395306219,2.7486439,2.865702,33.14607,1.0
395316942,3.0005574,3.1283438,33.14607,1.0
395327707,3.1440487,3.277946,33.14607,1.0
395338797,3.187483,3.32323,33.14607,1.0
395349550,3.1331863,3.2665467,33.14607,1.0
395360290,2.9829125,3.1098766,33.14607,1.0
395371208,2.8089392,2.9284983,33.14607,1.0
395381939,2.667147,2.780671,33.14607,1.0
395392676,2.5588746,2.6673648,33.048363,1.0
395447227,2.7273073,2.8430138,33.048363,1.0
395457974,2.8436701,2.9642644,33.048363,1.0
395468778,2.9846616,3.1112351,33.048363,1.0
395479523,3.0312898,3.1598408,33.048363,1.0
395490238,2.9878213,3.1150258,33.14607,1.0
395500985,2.9233084,3.0477662,33.14607,1.0
395511807,2.8126993,2.9324627,33.14607,1.0
395522564,2.6768363,2.7908146,33.14607,1.0
395533330,2.5719817,2.6814954,33.14607,1.0
395544059,2.4550629,2.5595982,33.14607,1.0
395554781,2.2925558,2.3901718,33.14607,1.0
395565561,2.1529968,2.2446678,33.14607,1.0
395576481,2.048473,2.1356936,33.14607,1.0
395587205,1.9329056,2.0152054,33.14607,1.0
395597932,1.8633379,1.9426757,33.14607,1.0
395608887,1.8781164,1.9580834,33.14607,1.0
395619609,1.997509,2.0825698,33.14607,1.0
395630348,2.2099454,2.3040526,33.14607,1.0
395641071,2.4808989,2.586544,33.14607,1.0
395651993,2.7817528,2.9002094,33.14607,1.0
395662722,3.036783,3.1660998,33.14607,1.0
395673458,3.2172198,3.3542202,33.14607,1.0
395684221,3.3407078,3.4829667,33.14607,1.0
395694944,3.4206378,3.565732,33.048363,1.0
395705707,3.4377353,3.5835547,33.048363,1.0
395716624,3.3526812,3.4948928,33.048363,1.0
395727370,3.17123,3.3057284,33.048363,1.0
395738106,2.9290357,3.053262,33.048363,1.0
395749030,2.6518147,2.7642837,33.048363,1.0
395759812,2.4024122,2.5043035,33.048363,1.0
395770575,2.2367585,2.331624,33.048363,1.0
395781532,2.1475341,2.238638,33.048363,1.0
395792267,2.1199365,2.2098696,33.048363,1.0
395802987,2.0866685,2.1751902,33.048363,1.0
395813712,2.0010695,2.08596,33.048363,1.0
395824702,1.8835669,1.9635022,33.048363,1.0
395835485,1.7492012,1.8234342,33.048363,1.0
395846215,1.6094973,1.6778016,33.048363,1.0
395857141,1.5420941,1.6075379,33.048363,1.0
395867869,1.5982478,1.6660746,33.048363,1.0
395878645,1.6609977,1.7314876,33.048363,1.0
395889682,1.7219394,1.7952794,33.14607,1.0
395900412,1.8337668,1.9118696,33.14607,1.0
395911156,1.962449,2.0460324,33.14607,1.0
395922181,2.1767457,2.2694564,33.14607,1.0
395932931,2.4458268,2.549998,33.14607,1.0
395943696,2.6410904,2.7535644,33.14607,1.0
395954671,2.7861533,2.904805,33.14607,1.0
395965407,2.926017,3.050625,33.14607,1.0
395976127,3.0160887,3.1445324,33.14607,1.0
395986866,3.035273,3.1645339,33.14607,1.0
395997627,3.0084655,3.136608,33.14607,1.0
396008349,2.9183016,3.0426035,33.14607,1.0
396019243,2.7530408,2.8703036,33.14607,1.0
396029963,2.5414345,2.6496842,33.14607,1.0
396040684,2.3045914,2.402753,33.14607,1.0
396051413,2.0586421,2.146309,33.14607,1.0
396062350,1.8724107,1.9521469,33.14607,1.0
396073073,1.8615456,1.940819,33.14607,1.0
396083796,2.0195403,2.1052065,33.048363,1.0
396094786,2.2498379,2.3452728,33.048363,1.0
396105549,2.448743,2.5526154,33.048363,1.0
396116327,2.531923,2.6393237,33.048363,1.0
396127387,2.5001993,2.6062543,33.048363,1.0
396138134,2.4378407,2.5412505,33.048363,1.0
396148859,2.4024484,2.5043569,33.048363,1.0
396159865,2.3441112,2.4435174,33.048363,1.0
396170642,2.2283366,2.3228333,33.048363,1.0
396181401,2.1670675,2.259326,33.14607,1.0
396192517,2.2807431,2.3778412,33.14607,1.0
396203235,2.4896348,2.5956259,33.14607,1.0
396213975,2.6938875,2.8085887,33.14607,1.0
396225148,2.875878,2.9983282,33.14607,1.0
396235930,2.9944904,3.121991,33.14607,1.0
396246648,2.9983025,3.125965,33.14607,1.0
396257548,2.9289784,3.0536895,33.14607,1.0
396268269,2.8873546,3.0102742,33.14607,1.0
396279016,2.8674762,2.9890726,33.048363,1.0
396289960,2.7901852,2.908504,33.048363,1.0
396300685,2.6787875,2.7923825,33.048363,1.0
396311435,2.5908175,2.7007468,33.048363,1.0
396322163,2.484436,2.5898516,33.048363,1.0
396332903,2.3721125,2.472762,33.048363,1.0
396343619,2.308388,2.406334,33.048363,1.0
396354640,2.2831776,2.3800538,33.048363,1.0
396365357,2.3303428,2.4292202,33.048363,1.0
396376089,2.4175198,2.5200198,33.048363,1.0
396387065,2.5132604,2.6198196,33.048363,1.0
396397784,2.7092228,2.8240907,33.048363,1.0
396408579,3.0023606,3.129657,33.048363,1.0
396419299,3.3123093,3.4527473,33.048363,1.0
396430340,3.5749614,3.7266486,33.048363,1.0
396441107,3.7421827,3.900965,33.048363,1.0
396506155,3.1073961,3.2397118,33.14607,1.0
396516891,2.9651918,3.0914521,33.14607,1.0
396528056,2.8347487,2.9554548,33.14607,1.0
396538772,2.790723,2.9095473,33.14607,1.0
396549659,2.9049475,3.0286353,33.14607,1.0
396560459,3.100504,3.2325182,33.14607,1.0
396571208,3.2686625,3.4078367,33.14607,1.0
396582195,3.3808804,3.5248902,33.14607,1.0
396592972,3.4207144,3.566421,33.14607,1.0
396603736,3.3513675,3.4941204,33.14607,1.0
396614715,3.2132237,3.3500922,33.14607,1.0
396625543,3.0687742,3.1994898,33.14607,1.0
396636300,2.8940444,3.0172827,33.14607,1.0
396647259,2.7075925,2.8228912,33.14607,1.0
396657979,2.5643523,2.6735513,33.14607,1.0
396668699,2.420733,2.523816,33.14607,1.0
396679418,2.240456,2.3358624,33.14607,1.0
396690274,2.0413492,2.1282768,33.14607,1.0
396701015,1.7896197,1.8658515,33.14607,1.0
396711734,1.5095005,1.5738002,33.14607,1.0
396722449,1.4286238,1.4894785,33.14607,1.0
396733171,1.5605137,1.6269865,33.14607,1.0
396743947,1.7800376,1.8558614,33.14607,1.0
396754977,2.0574043,2.1449833,33.14607,1.0
396765749,2.2460227,2.3416307,33.14607,1.0
396776485,2.2911997,2.3887308,33.14607,1.0
396787420,2.2925885,2.3901787,33.14607,1.0
396798148,2.3111546,2.4096081,33.14607,1.0
396808901,2.338967,2.4386055,33.14607,1.0
396819870,2.3702004,2.4711692,33.14607,1.0
396830586,2.400934,2.5032122,33.14607,1.0
396841356,2.5057034,2.6124446,33.14607,1.0
396852492,2.7831495,2.9017098,33.14607,1.0
396863215,3.175893,3.3111253,33.14607,1.0
396873960,3.5775077,3.729841,33.14607,1.0
396885100,3.9409966,4.1088076,33.14607,1.0
396895835,4.204586,4.3836207,33.14607,1.0
396906745,4.327298,4.511621,33.14607,1.0
396917611,4.3370814,4.521821,33.14607,1.0
396928340,4.274473,4.456546,33.14607,1.0
396939108,4.168351,4.345904,33.14607,1.0
396950099,4.014388,4.1853824,33.14607,1.0
396960865,3.7827692,3.9438877,33.14607,1.0
396971627,3.4772387,3.6253438,33.14607,1.0
396982562,3.1284,3.2616472,33.14607,1.0
396993277,2.759063,2.876579,33.14607,1.0
397004099,2.4295955,2.5330787,33.14607,1.0
397015034,2.19908,2.2927449,33.14607,1.0
397025779,2.0656128,2.1535602,33.14607,1.0
397036506,2.066288,2.1542642,33.14607,1.0
397047236,2.20135,2.2950766,33.14607,1.0
397058158,2.4323676,2.5359302,33.14607,1.0
397068887,2.7184966,2.8338256,33.048363,1.0
397079640,2.9718468,3.097924,33.048363,1.0
397090659,3.1566713,3.2905893,33.048363,1.0
397101395,3.2875721,3.4270437,33.048363,1.0
397112140,3.3761666,3.5193965,33.048363,1.0
397123220,3.3763218,3.519554,33.048363,1.0
397133975,3.2304957,3.3675416,33.048363,1.0
397144749,2.9827788,3.1093159,33.048363,1.0
397155679,2.6990266,2.8135262,33.048363,1.0
397166405,2.3989954,2.5011656,33.14607,1.0
397177179,2.0979707,2.187293,33.14607,1.0
397188287,1.808132,1.8851143,33.14607,1.0
397199009,1.5395557,1.6051031,33.14607,1.0
397209740,1.3010827,1.3564771,33.14607,1.0
397220763,1.261536,1.3152467,33.14607,1.0
397231491,1.4990754,1.5629113,33.14607,1.0
397242246,1.7194166,1.7926353,33.14607,1.0
397253221,1.806478,1.8834041,33.14607,1.0
397264017,1.8132021,1.8904146,33.14607,1.0
397274833,1.7688518,1.8441756,33.14607,1.0
397285812,1.6926981,1.7647946,33.14607,1.0
397296528,1.6621147,1.7329086,33.14607,1.0
397307295,1.725834,1.7993418,33.14607,1.0
397318021,1.7816604,1.8575461,33.14607,1.0
397328751,1.827984,1.9058427,33.14607,1.0
397339510,1.9193637,2.0011146,33.14607,1.0
397350355,1.9317743,2.0140333,33.14607,1.0
397361139,1.790886,1.8671458,33.14607,1.0
397371866,1.5907248,1.6584613,33.14607,1.0
397382923,1.4080646,1.4680231,33.14607,1.0
397393674,1.249686,1.3029054,33.14607,1.0
397663225,2.7279375,2.8440988,33.14607,1.0
397674026,2.4783394,2.5838726,33.14607,1.0
397684751,2.2987874,2.3966746,33.14607,1.0
397695658,2.3532677,2.4534748,33.14607,1.0
397706396,2.586624,2.6967678,33.14607,1.0
397728118,3.1423209,3.2761157,33.14607,1.0
397738871,3.4338145,3.5800207,33.14607,1.0
397749588,3.6987624,3.8562496,33.14607,1.0
397760322,3.9244568,4.0915537,33.14607,1.0
397771178,4.1079345,4.2828484,33.14607,1.0
397781930,4.2511463,4.432158,33.14607,1.0
397792705,4.3584137,4.543993,33.14607,1.0
397803683,4.4350467,4.623889,33.14607,1.0
397814417,4.467298,4.6575136,33.14607,1.0
397825294,4.4497504,4.6392484,33.14607,1.0
397836254,4.377772,4.5642047,33.14607,1.0
397846976,4.2055817,4.384681,33.14607,1.0
397857772,3.9515564,4.119838,33.14607,1.0
397868767,3.7070274,3.8648956,33.14607,1.0
397879485,3.4853427,3.6337337,33.14607,1.0
397890303,3.2319932,3.3695977,33.14607,1.0
397901316,2.9333937,3.058285,33.14607,1.0
397912037,2.6836472,2.7979054,33.14607,1.0
397922819,2.6366203,2.7488763,33.14607,1.0
397933819,2.8000696,2.9193175,33.14607,1.0
397944538,3.063987,3.1944747,33.14607,1.0
397955344,3.3517132,3.4944544,33.14607,1.0
397966368,3.6225638,3.7768397,33.14607,1.0
397977116,3.836056,3.9994242,33.14607,1.0
397987892,3.9290628,4.096309,33.14607,1.0
397998917,3.8941233,4.059882,33.14607,1.0
398009649,3.8054304,3.967414,33.14607,1.0
398020392,3.7145097,3.8726232,33.14607,1.0
398031428,3.652501,3.807975,33.14607,1.0
398042169,3.6384954,3.7934542,33.14607,1.0
398052935,3.6568043,3.812543,33.14607,1.0
398064074,3.7173522,3.8756695,33.14607,1.0
398074949,3.7713456,3.9319623,33.14607,1.0
398085940,3.7667468,3.9271677,33.14607,1.0
398096663,3.7755048,3.9362392,33.14607,1.0
398107462,3.841775,4.0053306,33.14607,1.0
398118181,3.915663,4.0823646,33.14607,1.0
398129210,3.9444134,4.112339,33.14607,1.0
398139996,3.8941073,4.059891,33.14607,1.0
398150998,3.74027,3.8995092,33.14607,1.0
398161716,3.522665,3.67264,33.14607,1.0
398172433,3.333059,3.4749618,33.14607,1.0
398183161,3.2362359,3.3740163,33.14607,1.0
398194034,3.2382884,3.3761563,33.14607,1.0
398204775,3.2776055,3.4171386,33.14607,1.0
398215573,3.336779,3.4788313,33.14607,1.0
398226538,3.4283018,3.5742502,33.14607,1.0
398237262,3.5066016,3.6558836,33.14607,1.0
398247993,3.5702634,3.722293,33.14607,1.0
398269444,3.774995,3.9357426,33.14607,1.0
398280165,3.8355432,3.998869,33.14607,1.0
398291091,3.8620183,4.0264716,33.14607,1.0
398301904,3.8604796,4.024867,33.14607,1.0
398312634,3.8140554,3.9765365,33.14607,1.0
398323361,3.7690196,3.929582,33.14607,1.0
398334478,3.7560453,3.9160552,33.14607,1.0
398345219,3.7649045,3.9252918,33.14607,1.0
398356163,3.7641234,3.9251034,33.24377,1.0
398366962,3.7572224,3.917818,33.24377,1.0
398377690,3.7926843,3.9547958,33.24377,1.0
398388670,3.824746,3.9882278,33.24377,1.0
398399452,3.7797139,3.941271,33.24377,1.0
398410214,3.7151098,3.8738618,33.24377,1.0
398421211,3.7172284,3.8760707,33.24377,1.0
398431937,3.7620382,3.9227953,33.24377,1.0
398442654,3.8070307,3.9697104,33.24377,1.0
398453391,3.821408,3.9840667,33.14607,1.0
398464230,3.7651675,3.9254322,33.14607,1.0
398474953,3.6707757,3.8270805,33.14607,1.0
398485686,3.586021,3.7387168,33.14607,1.0
398496429,3.5142057,3.6638436,33.14607,1.0
398507173,3.4265301,3.5724347,33.14607,1.0
398517934,3.303215,3.4439034,33.14607,1.0
398528794,3.1957881,3.331901,33.14607,1.0
398539559,3.10732,3.239665,33.14607,1.0
398550329,3.0042913,3.1327477,33.24377,1.0
398561045,2.898356,3.0222828,33.24377,1.0
398572037,2.7606564,2.8786628,33.24377,1.0
398582765,2.6087987,2.720314,33.24377,1.0
398593492,2.5727904,2.6827664,33.24377,1.0
398604344,2.6501725,2.7634563,33.24377,1.0
398615101,2.6809583,2.795558,33.24377,1.0
398625932,2.608646,2.7201548,33.24377,1.0
398637067,2.5119047,2.6192715,33.24377,1.0
398647820,2.4891095,2.595088,33.14607,1.0
398658535,2.557818,2.6667218,33.14607,1.0
398669423,2.6362565,2.7485,33.14607,1.0
398680146,2.7072036,2.822468,33.14607,1.0
398690941,2.835296,2.9560251,33.14607,1.0
398701949,3.018444,3.146972,33.14607,1.0
398712700,3.2406416,3.3786309,33.14607,1.0
398723458,3.4867792,3.6352491,33.14607,1.0
398734421,3.698382,3.855901,33.14607,1.0
398745137,3.8492734,4.0132194,33.14607,1.0
398755882,3.9521646,4.1204925,33.14607,1.0
398766620,3.996215,4.166419,33.14607,1.0
398777337,3.9785638,4.148016,33.14607,1.0
398788104,3.9442601,4.1122513,33.14607,1.0
398799003,3.945651,4.113624,33.14607,1.0
398809731,3.9915059,4.161431,33.14607,1.0
398820448,4.039893,4.2118783,33.14607,1.0
398831179,4.064658,4.2376976,33.14607,1.0
398842087,4.0936565,4.267984,33.14607,1.0
398907193,4.1286345,4.304463,33.14607,1.0
398917948,4.188845,4.3672376,33.14607,1.0
398928710,4.250367,4.43138,33.14607,1.0
398939767,4.2874694,4.4700623,33.14607,1.0
398950482,4.2416883,4.4223313,33.14607,1.0
398961220,4.073422,4.2468343,33.14607,1.0
398972273,3.8287187,3.9917135,33.14607,1.0
398982990,3.598876,3.7520862,33.14607,1.0
398993721,3.450596,3.5974936,33.14607,1.0
399004690,3.3667936,3.5101726,33.14607,1.0
399015413,3.2445984,3.3827736,33.14607,1.0
399026129,3.0757418,3.2067258,33.14607,1.0
399036858,2.9187946,3.043095,33.14607,1.0
399047578,2.781222,2.899664,33.14607,1.0
399058345,2.7375119,2.8540666,33.14607,1.0
399069251,2.8587227,2.9804382,33.14607,1.0
399079976,3.0636413,3.1940818,33.14607,1.0
399090766,3.2083218,3.3449223,33.14607,1.0
399101493,3.248389,3.3866954,33.14607,1.0
399112554,3.2208495,3.357996,33.14607,1.0
399123309,3.1181524,3.250926,33.14607,1.0
399134271,2.9349475,3.05992,33.14607,1.0
399145030,2.701912,2.8174112,33.24377,1.0
399155839,2.4835536,2.5897188,33.24377,1.0
399166859,2.378429,2.4800751,33.24377,1.0
399177626,2.4067168,2.5095718,33.24377,1.0
399188417,2.4747484,2.5805109,33.24377,1.0
399199403,2.51972,2.6274045,33.24377,1.0
399210129,2.5872018,2.69777,33.24377,1.0
399220878,2.7008352,2.8162775,33.24377,1.0
399231846,2.7936563,2.9130661,33.24377,1.0
399242568,2.7930722,2.9119925,33.14607,1.0
399253282,2.7329648,2.849326,33.14607,1.0
399263997,2.675754,2.7896793,33.14607,1.0
399296467,2.605887,2.7168171,33.14607,1.0
399318293,2.9396229,3.0647597,33.14607,1.0
399329053,3.0909355,3.2224934,33.14607,1.0
399339992,3.234455,3.3721216,33.14607,1.0
399350715,3.3036506,3.4442623,33.14607,1.0
399361497,3.2910635,3.4311395,33.14607,1.0
399372557,3.2266684,3.3640034,33.14607,1.0
399383279,3.1320033,3.265359,33.14607,1.0
399394045,3.057115,3.1872818,33.14607,1.0
399405019,3.0639808,3.1944401,33.14607,1.0
399415744,3.1501322,3.2842596,33.14607,1.0
399426463,3.2759843,3.4154704,33.14607,1.0
399437186,3.4385579,3.5855374,33.24377,1.0
399447916,3.5779915,3.730931,33.24377,1.0
399458645,3.6162367,3.770811,33.24377,1.0
399469567,3.5646472,3.7170162,33.24377,1.0
399480288,3.4820178,3.6308548,33.24377,1.0
399491012,3.4945798,3.6439128,33.24377,1.0
399501728,3.624403,3.7792835,33.24377,1.0
399512599,3.788179,3.950058,33.24377,1.0
399523331,4.004014,4.1751165,33.24377,1.0
399534049,4.2729826,4.4548683,33.14607,1.0
399544765,4.54477,4.7382126,33.14607,1.0
399555494,4.7925153,4.996503,33.14607,1.0
399566398,4.9834957,5.1956124,33.14607,1.0
399577159,5.067505,5.283197,33.14607,1.0
399587911,5.0419025,5.256505,33.14607,1.0
399598691,4.985449,5.197681,33.14607,1.0
399609654,4.9722714,5.183943,33.14607,1.0
399620376,4.9881587,5.200506,33.14607,1.0
399631215,5.0005927,5.2134695,33.14607,1.0
399642180,5.030436,5.24542,33.24377,1.0
399652940,5.06882,5.285471,33.24377,1.0
399663784,5.089114,5.3066325,33.24377,1.0
399674766,5.116567,5.335259,33.24377,1.0
399685503,5.129514,5.348759,33.24377,1.0
399696301,5.0577016,5.273877,33.24377,1.0
399707270,4.8751197,5.083504,33.24377,1.0
399717990,4.6041293,4.8009305,33.24377,1.0
399728805,4.3278985,4.5128922,33.24377,1.0
399739781,4.132633,4.3092804,33.24377,1.0
399750517,4.0317097,4.2040434,33.24377,1.0
399761233,4.003496,4.174545,33.24377,1.0
399771995,4.025241,4.197219,33.24377,1.0
399782843,4.0768228,4.251004,33.24377,1.0
399793558,4.0965095,4.271532,33.24377,1.0
399804344,4.0478497,4.2207932,33.24377,1.0
399815520,4.0053377,4.1764913,33.24377,1.0
399826239,4.0177007,4.1893826,33.24377,1.0
399836965,4.064031,4.237017,33.14607,1.0
399847863,4.081391,4.2551155,33.14607,1.0
399858615,4.010781,4.1815,33.14607,1.0
399869392,3.9128945,4.0794163,33.14607,1.0
399880126,3.8753545,4.040279,33.14607,1.0
399890866,3.9028125,4.0689054,33.14607,1.0
399901582,3.9689844,4.137893,33.14607,1.0
399912455,4.053268,4.225764,33.14607,1.0
399923177,4.1662183,4.3435645,33.14607,1.0
400193156,5.046044,5.261861,33.24377,1.0
400203914,4.9835467,5.1966906,33.24377,1.0
400214679,4.886067,5.0950418,33.24377,1.0
400225657,4.7902327,4.9951086,33.24377,1.0
400236418,4.702741,4.9038754,33.24377,1.0
400247223,4.6275287,4.825251,33.24377,1.0
400258201,4.5473876,4.741686,33.24377,1.0
400269016,4.450681,4.6408477,33.24377,1.0
400279774,4.326056,4.5108976,33.24377,1.0
400322938,3.1317787,3.2656205,33.24377,1.0
400333739,2.9760416,3.1032276,33.24377,1.0
400344462,3.023707,3.1529462,33.24377,1.0
400355420,3.166513,3.301856,33.24377,1.0
400366243,3.2982376,3.439211,33.24377,1.0
400376959,3.4118469,3.557676,33.24377,1.0
400387802,3.5538068,3.7057037,33.24377,1.0
400398603,3.7224622,3.8815677,33.24377,1.0
400409351,3.890781,4.057116,33.24377,1.0
400420374,4.043698,4.2165704,33.24377,1.0
400431148,4.1741624,4.351918,33.14607,1.0
400441878,4.2800837,4.46235,33.14607,1.0
400453025,4.362263,4.5480294,33.14607,1.0
400463887,4.3799825,4.5664515,33.14607,1.0
400474622,4.291684,4.474394,33.14607,1.0
400485457,4.1422763,4.3186255,33.14607,1.0
400496177,4.0077376,4.178359,33.14607,1.0
400506978,3.9374454,4.1051416,33.14607,1.0
400517983,3.915981,4.082763,33.14607,1.0
400528718,3.883938,4.0500016,33.24377,1.0
400539481,3.8474576,4.0119615,33.24377,1.0
400550446,3.855895,4.0207596,33.24377,1.0
400561170,3.9144332,4.0818005,33.24377,1.0
400572002,3.9988902,4.169805,33.24377,1.0
400582963,4.045147,4.218039,33.24377,1.0
400593692,3.995428,4.166195,33.24377,1.0
400604407,3.9125125,4.0797358,33.24377,1.0
400615142,3.8626487,4.0277405,33.24377,1.0
400626172,3.8161385,3.9785829,33.14607,1.0
400636942,3.7754552,3.9361677,33.14607,1.0
400647661,3.7647655,3.925023,33.14607,1.0
400658556,3.7514346,3.9111247,33.14607,1.0
400669278,3.737448,3.8965182,33.14607,1.0
400680045,3.770181,3.9306443,33.14607,1.0
400690775,3.8294995,3.9924874,33.14607,1.0
400701499,3.877973,4.043024,33.14607,1.0
400712227,3.9376686,4.1052604,33.14607,1.0
400723157,4.02075,4.191878,33.14607,1.0
400733942,4.110882,4.285932,33.14607,1.0
400744711,4.176947,4.3548107,33.14607,1.0
400755636,4.2022676,4.3812094,33.14607,1.0
400766368,4.220378,4.4000907,33.14607,1.0
400777153,4.2527757,4.433868,33.14607,1.0
400788128,4.291481,4.4741373,33.14607,1.0
400798881,4.330932,4.5152674,33.14607,1.0
400809675,4.3478036,4.532857,33.14607,1.0
400820662,4.2850704,4.468166,33.24377,1.0
401069815,4.349342,4.5344434,33.14607,1.0
401080531,4.44464,4.6337976,33.14607,1.0
401091501,4.5526767,4.746432,33.14607,1.0
401102245,4.659052,4.857316,33.14607,1.0
401112975,4.777023,4.980307,33.14607,1.0
401123937,4.9128623,5.1227436,33.24377,1.0
401134662,5.026925,5.241679,33.24377,1.0
401145438,5.0979033,5.3156896,33.24377,1.0
401156457,5.136467,5.355847,33.24377,1.0
401167209,5.1314225,5.3505874,33.24377,1.0
401178018,5.07844,5.295342,33.24377,1.0
401189148,4.9806457,5.1933703,33.24377,1.0
401199880,4.8027277,5.0078535,33.24377,1.0
401210606,4.5387745,4.7326217,33.24377,1.0
401221558,4.227031,4.4068604,33.14607,1.0
401232274,3.8965888,4.0623603,33.14607,1.0
401243027,3.622863,3.7769895,33.14607,1.0
401254021,3.4908066,3.639315,33.14607,1.0
401264744,3.4945495,3.6432724,33.14607,1.0
401275478,3.585413,3.738003,33.14607,1.0
401286222,3.7482789,3.9078002,33.14607,1.0
401297002,3.9633973,4.132074,33.14607,1.0
401318669,4.3101807,4.4936666,33.14607,1.0
401329406,4.415443,4.60341,33.14607,1.0
401340151,4.5092726,4.701234,33.14607,1.0
401351102,4.6331053,4.830338,33.14607,1.0
401361824,4.7640185,4.9668245,33.14607,1.0
401372689,4.845222,5.0514846,33.14607,1.0
401383685,4.8680844,5.075333,33.14607,1.0
401394413,4.8522644,5.05884,33.14607,1.0
401405166,4.794737,4.998863,33.14607,1.0
401416245,4.6772676,4.876393,33.14607,1.0
401426987,4.527236,4.7199984,33.14607,1.0
401437706,4.4044003,4.5919323,33.14607,1.0
401448707,4.3094983,4.4929895,33.14607,1.0
401459422,4.2204328,4.4001317,33.14607,1.0
401470244,4.1628075,4.340053,33.14607,1.0
401480977,4.1514573,4.328159,33.14607,1.0
401492089,4.170983,4.3485155,33.14607,1.0
401502813,4.208483,4.3876123,33.14607,1.0
401513732,4.254127,4.435199,33.14607,1.0
401524453,4.3010516,4.484121,33.14607,1.0
401535171,4.3448806,4.5298095,33.14607,1.0
401545933,4.383155,4.5697126,33.14607,1.0
401556947,4.4148026,4.6027074,33.14607,1.0
401567666,4.439692,4.6286564,33.14607,1.0
401578421,4.415523,4.603459,33.14607,1.0
401589432,4.3176303,4.5013766,33.14607,1.0
401600158,4.2013855,4.3801847,33.14607,1.0
401610908,4.1062236,4.281656,33.24377,1.0
401621819,4.03263,4.2049184,33.24377,1.0
401632548,3.9574814,4.126559,33.24377,1.0
401643270,3.8378384,4.001824,33.24377,1.0
401653994,3.6675913,3.8243027,33.24377,1.0
401664748,3.5016763,3.6512983,33.24377,1.0
401675577,3.436699,3.5835445,33.24377,1.0
401686561,3.524484,3.6750803,33.24377,1.0
401697334,3.6919584,3.8497114,33.24377,1.0
401708071,3.8891172,4.054648,33.14607,1.0
401718899,4.0887427,4.2627697,33.14607,1.0
401729637,4.2267923,4.406695,33.14607,1.0
401740370,4.336919,4.5215087,33.14607,1.0
401751155,4.486785,4.6778126,33.14607,1.0
401761978,4.605559,4.8016434,33.14607,1.0
401772698,4.6103587,4.8066473,33.14607,1.0
401783467,4.5193863,4.711802,33.14607,1.0
401794506,4.3505716,4.5357256,33.14607,1.0
401805221,4.1628985,4.340758,33.24377,1.0
401815989,4.021867,4.1937003,33.24377,1.0
401826988,3.92406,4.091715,33.24377,1.0
401837729,3.8364587,4.000371,33.24377,1.0
401848514,3.683629,3.8410115,33.24377,1.0
401859547,3.4944353,3.643785,33.24377,1.0
401870277,3.4039996,3.549484,33.24377,1.0
401881091,3.444387,3.5915976,33.24377,1.0
401892142,3.5631022,3.7153866,33.24377,1.0
401902865,3.7171075,3.875356,33.14607,1.0
401913595,3.8773162,4.0424104,33.14607,1.0
401924702,4.0051556,4.175693,33.14607,1.0
401935430,4.081847,4.2556505,33.14607,1.0
401946164,4.121085,4.296559,33.14607,1.0
401957109,4.1128483,4.2879715,33.14607,1.0
401967834,4.0747046,4.248177,33.14607,1.0
401978635,4.0625353,4.2354894,33.14607,1.0
401989745,4.0893044,4.263398,33.14607,1.0
402000477,4.0923176,4.2665396,33.14607,1.0
402011218,3.9858065,4.155494,33.14607,1.0
402022181,3.811522,3.9737148,33.14607,1.0
402033002,3.7036674,3.8612707,33.14607,1.0
402043725,3.7017431,3.8592646,33.14607,1.0
402054673,3.7957225,3.957243,33.14607,1.0
402065481,3.9913075,4.161151,33.14607,1.0
402076221,4.2256474,4.4055686,33.14607,1.0
402087189,4.4360056,4.624883,33.14607,1.0
402097938,4.6362066,4.8336086,33.14607,1.0
402108653,4.834053,5.039879,33.14607,1.0
402119389,5.012785,5.226221,33.14607,1.0
402130171,5.1646533,5.3845143,33.14607,1.0
402140909,5.2874994,5.51259,33.14607,1.0
402151757,5.3470783,5.574705,33.14607,1.0
402162499,5.327036,5.5538096,33.14607,1.0
402173294,5.2734714,5.497965,33.14607,1.0
402184016,5.1986384,5.4199533,33.14607,1.0
402195012,5.0781126,5.2942963,33.14607,1.0
402205820,4.917706,5.127061,33.14607,1.0
402216791,4.740811,4.942635,33.14607,1.0
402227551,4.5647087,4.759036,33.14607,1.0
402238352,4.421173,4.6093316,33.14607,1.0
402249071,4.3309164,4.515234,33.14607,1.0
402260066,4.2636237,4.4450774,33.14607,1.0
402270788,4.1964016,4.3749943,33.14607,1.0
402281556,4.155173,4.3320546,33.14607,1.0
402292501,4.1551414,4.3320217,33.14607,1.0
402303222,4.18158,4.3602815,33.24377,1.0
402313941,4.2225394,4.4029913,33.24377,1.0
402325069,4.248924,4.430503,33.24377,1.0
402335799,4.2437005,4.4250565,33.24377,1.0
402346517,4.2185774,4.398804,33.24377,1.0
402357473,4.1368446,4.31358,33.24377,1.0
402368208,3.949346,4.118071,33.24377,1.0
402378990,3.6971052,3.8550537,33.24377,1.0
402390088,3.470467,3.618765,33.24377,1.0
402400814,3.309431,3.4502974,33.14607,1.0
402411556,3.2077823,3.344322,33.14607,1.0
402422472,3.1223361,3.2552388,33.14607,1.0
402433196,3.0487733,3.1785448,33.14607,1.0
402444003,3.017575,3.1460104,33.14607,1.0
402455189,2.98814,3.1153228,33.14607,1.0
402465933,2.96798,3.0943046,33.14607,1.0
402476648,3.0189948,3.1474907,33.14607,1.0
402487513,3.1369708,3.270488,33.14607,1.0
402498258,3.2830508,3.4233315,33.24377,1.0
402509043,3.4567473,3.6044273,33.24377,1.0
402519779,3.6534302,3.8095129,33.24377,1.0
402530502,3.8444471,4.0086904,33.24377,1.0
402541221,4.0147943,4.186315,33.24377,1.0
402552069,4.1373205,4.314076,33.24377,1.0
402562792,4.180074,4.3586173,33.24377,1.0
402573621,4.1698303,4.347936,33.24377,1.0
402584615,4.1678433,4.3458643,33.24377,1.0
402595370,4.1919394,4.3709893,33.24377,1.0
402606146,4.2305408,4.411329,33.24377,1.0
402616870,4.275018,4.457707,33.24377,1.0
402627872,4.319469,4.5040574,33.24377,1.0
402638608,4.360221,4.5465508,33.24377,1.0
402649666,4.375636,4.5626245,33.24377,1.0
402660463,4.31017,4.494361,33.24377,1.0
402671200,4.1709204,4.3491116,33.24377,1.0
402682219,4.058286,4.231665,33.24377,1.0
402693019,4.019915,4.1916547,33.24377,1.0
402703741,4.0122075,4.183618,33.24377,1.0
402714864,4.0292034,4.2013397,33.24377,1.0
402725591,4.132068,4.3086157,33.24377,1.0
402736313,4.297595,4.4812145,33.24377,1.0
402747225,4.437912,4.6275268,33.24377,1.0
402757957,4.528419,4.721901,33.24377,1.0
402768675,4.5811815,4.7769537,33.24377,1.0
402779414,4.606199,4.80304,33.24377,1.0
402790407,4.6116796,4.8087554,33.24377,1.0
402801134,4.5854726,4.780666,33.14607,1.0
402811947,4.5216584,4.714135,33.14607,1.0
402822801,4.4142733,4.602179,33.14607,1.0
402833545,4.260704,4.44205,33.14607,1.0
402844375,4.131456,4.307301,33.14607,1.0
402855362,4.0754905,4.2489533,33.14607,1.0
402866078,4.0728745,4.2462263,33.14607,1.0
402876861,4.104825,4.2795315,33.14607,1.0
402887833,4.1558566,4.332735,33.14607,1.0
402898570,4.214453,4.393826,33.14607,1.0
402909363,4.272806,4.4546623,33.14607,1.0
402920094,4.349992,4.535133,33.14607,1.0
402930812,4.4554124,4.6450047,33.14607,1.0
402941545,4.545978,4.739424,33.14607,1.0
402952434,4.597407,4.7930417,33.14607,1.0
402963150,4.601614,4.7974277,33.14607,1.0
402973874,4.556444,4.7503357,33.14607,1.0
402984596,4.501459,4.6930113,33.14607,1.0
402995563,4.4442058,4.6333094,33.14607,1.0
403006293,4.350393,4.5355043,33.14607,1.0
403017013,4.2182894,4.39778,33.14607,1.0
403027995,4.068923,4.242058,33.14607,1.0
403038720,3.939838,4.1075583,33.14607,1.0
403049499,3.8567977,4.0209827,33.14607,1.0
403060500,3.8114665,3.973722,33.14607,1.0
403071260,3.817377,3.9798841,33.14607,1.0
403082057,3.8779106,4.0429945,33.14607,1.0
403093031,3.9669173,4.1357384,33.14607,1.0
403103757,4.065419,4.2384324,33.14607,1.0
403114549,4.161118,4.338204,33.14607,1.0
403125268,4.246928,4.4276657,33.14607,1.0
403135996,4.2994514,4.4824243,33.14607,1.0
403146764,4.286987,4.46939,33.14607,1.0
403157576,4.167894,4.3452296,33.14607,1.0
403168311,3.8870556,4.0524426,33.14607,1.0
403179182,3.4665203,3.614014,33.14607,1.0
403190094,2.968624,3.0949333,33.14607,1.0
403201000,2.4497957,2.5540266,33.14607,1.0
403211720,2.0118468,2.0974443,33.14607,1.0
403222651,1.6630738,1.7338321,33.14607,1.0
403233412,1.4206411,1.4810847,33.14607,1.0
403244177,1.503241,1.567199,33.14607,1.0
403255227,1.8696711,1.9492146,33.14607,1.0
403265947,2.257785,2.3538406,33.14607,1.0
403276727,2.5754783,2.6850498,33.14607,1.0
403287682,2.8592107,2.9808533,33.14607,1.0
403298417,3.1256816,3.258661,33.14607,1.0
403309154,3.300146,3.440548,33.14607,1.0
403319947,3.3780406,3.5218005,33.14607,1.0
403330943,3.4472716,3.593978,33.14607,1.0
403341779,3.4558191,3.6028893,33.14607,1.0
403352744,3.3125162,3.4534879,33.14607,1.0
403363467,3.0637188,3.1940777,33.14607,1.0
403374182,2.744458,2.8612325,33.14607,1.0
403384934,2.341445,2.4410717,33.14607,1.0
403395786,1.8633347,1.9426181,33.14607,1.0
403406503,1.2839042,1.3385334,33.14607,1.0
403417229,0.5133807,0.53521734,33.14607,1.0
403428020,-0.85360134,-0.8899092,33.14607,1.0
403438786,-1.0873423,-1.1335924,33.14607,1.0
403449539,-0.5680902,-0.59225386,33.14607,1.0
403460324,1.3645724,1.4226145,33.14607,1.0
403471047,2.1728423,2.2653239,33.14607,1.0
403481781,2.7898526,2.9085956,33.14607,1.0
403492842,3.2491424,3.387434,33.14607,1.0
403503679,3.5465212,3.69747,33.14607,1.0
403514411,3.735448,3.8944378,33.14607,1.0
403525370,3.8700845,4.03483,33.14607,1.0
403536146,3.961522,4.1301603,33.14607,1.0
403546969,3.9934683,4.1634665,33.14607,1.0
403557908,3.9113598,4.0778627,33.14607,1.0
403568666,3.734981,3.8939757,33.14607,1.0
403579456,3.5310178,3.6812558,33.14607,1.0
403590428,3.288256,3.428165,33.14607,1.0
403601214,2.995314,3.1227586,33.14607,1.0
403611996,2.675866,2.7897189,33.14607,1.0
403622958,2.3479314,2.4478314,33.14607,1.0
403633681,2.076037,2.16436,33.14607,1.0
403644497,1.9755598,2.0596082,33.14607,1.0
403655492,2.060538,2.148202,33.14607,1.0
403666215,2.2835922,2.3807456,33.14607,1.0
403676953,2.6177073,2.7290754,33.14607,1.0
403687735,2.9643285,3.0904782,33.14607,1.0
403698896,3.226815,3.364135,33.14607,1.0
403709618,3.3964293,3.5409675,33.14607,1.0
403720589,3.5241446,3.6741178,33.14607,1.0
403731314,3.6116958,3.7653422,33.14607,1.0
403742086,3.6394694,3.7942975,33.14607,1.0
403753186,3.627591,3.7819135,33.14607,1.0
403763965,3.5669336,3.7186759,33.14607,1.0
403774684,3.483053,3.6312268,33.14607,1.0
403785876,3.3894558,3.5342116,33.24377,1.0
403796619,3.290755,3.4313521,33.24377,1.0
403807347,3.2225564,3.3602395,33.24377,1.0
403818110,3.1530688,3.2877831,33.24377,1.0
403828833,3.0598438,3.1905751,33.24377,1.0
403839566,2.9215884,3.046413,33.24377,1.0
403850290,2.7219927,2.838261,33.24377,1.0
403861164,2.4862077,2.5924046,33.24377,1.0
403871944,2.2330997,2.328485,33.24377,1.0
403882684,2.0289552,2.1156209,33.24377,1.0
403893781,2.0275674,2.1141737,33.24377,1.0
403904511,2.2449353,2.340838,33.24377,1.0
403915226,2.5140781,2.6214786,33.24377,1.0
403926402,2.7480707,2.8654673,33.24377,1.0
403937140,2.90612,3.0302684,33.24377,1.0
403948321,3.0027156,3.1309905,33.24377,1.0
403959046,3.144221,3.2785244,33.24377,1.0
403969809,3.3293946,3.4716074,33.24377,1.0
403980750,3.471784,3.6195018,33.14607,1.0
403991471,3.523733,3.673661,33.14607,1.0
404002186,3.5111809,3.660575,33.14607,1.0
404012956,3.5368707,3.6874504,33.14607,1.0
404023848,3.5845115,3.7371194,33.14607,1.0
404034583,3.5359917,3.686534,33.14607,1.0
404045323,3.3714797,3.515018,33.14607,1.0
404056543,3.1328187,3.2661552,33.14607,1.0
404077991,2.7230268,2.8393748,33.24377,1.0
404088839,2.6742663,2.788531,33.24377,1.0
404099569,2.7383375,2.8553398,33.24377,1.0
404110364,2.9246502,3.049613,33.24377,1.0
404121374,3.1860116,3.3220913,33.24377,1.0
404132100,3.459346,3.6071002,33.24377,1.0
404142882,3.7119048,3.8704462,33.24377,1.0
404153618,3.9074311,4.0743237,33.24377,1.0
404164334,4.010866,4.1821766,33.24377,1.0
404175048,4.029591,4.2010636,33.14607,1.0
404185965,3.9934106,4.1633434,33.14607,1.0
404196693,3.945902,4.1138134,33.14607,1.0
404207472,3.9166317,4.0832973,33.14607,1.0
404218487,3.9016218,4.0676894,33.14607,1.0
404229203,3.8480647,4.0118527,33.14607,1.0
404239982,3.6709657,3.827216,33.14607,1.0
404250951,3.3591747,3.5021539,33.14607,1.0
404261740,2.9229994,3.0474133,33.14607,1.0
404272505,2.381666,2.4830387,33.14607,1.0
404283225,1.7662443,1.8414131,33.14607,1.0
404294239,0.8966507,0.9348108,33.14607,1.0
404304971,-1.1602044,-1.209581,33.14607,1.0
404316137,-1.7936555,-1.869991,33.14607,1.0
404326873,-2.0511377,-2.138412,33.14607,1.0
404337588,-1.85702,-1.9360348,33.14607,1.0
404348563,-1.0379645,-1.0821291,33.14607,1.0
404359319,1.5311588,1.5963085,33.14607,1.0
404370089,2.524328,2.6317363,33.14607,1.0
404380814,3.175787,3.3109186,33.14607,1.0
404391603,3.5943806,3.7473235,33.14607,1.0
404402366,3.8680499,4.0326376,33.14607,1.0
404413129,4.041319,4.2132792,33.14607,1.0
404424125,4.142673,4.318946,33.14607,1.0
404434902,4.192568,4.370964,33.14607,1.0
404445636,4.206525,4.3854437,33.14607,1.0
404456621,4.1965604,4.3750553,33.14607,1.0
404467338,4.171958,4.3494067,33.14607,1.0
404478058,4.1397495,4.3158283,33.14607,1.0
404488784,4.1260376,4.3015327,33.14607,1.0
404499518,4.146257,4.3226557,33.14607,1.0
404510233,4.186312,4.364415,33.14607,1.0
404521203,4.215028,4.3943524,33.14607,1.0
404532047,4.193333,4.3717346,33.14607,1.0
404542766,4.094516,4.268654,33.14607,1.0
404553714,3.945771,4.113583,33.14607,1.0
404564447,3.8444035,4.0079045,33.14607,1.0
404575188,3.8106117,3.973309,33.24377,1.0
404586264,3.8014383,3.9637442,33.24377,1.0
404596987,3.8089147,3.9715397,33.24377,1.0
404607716,3.8038065,3.9662733,33.24377,1.0
404618804,3.7910073,3.9529274,33.24377,1.0
404629550,3.7696755,3.9306843,33.24377,1.0
404640310,3.716724,3.875471,33.24377,1.0
404651025,3.698397,3.8563614,33.24377,1.0
404662040,3.7319214,3.8913085,33.24377,1.0
404672826,3.7494335,3.9089446,33.14607,1.0
404683604,3.70453,3.8621306,33.14607,1.0
404694625,3.593053,3.7459114,33.14607,1.0
404705363,3.4730074,3.620809,33.14607,1.0
404716088,3.3862038,3.5303113,33.14607,1.0
404737812,3.321701,3.4630635,33.14607,1.0
404748527,3.3733635,3.5169246,33.14607,1.0
404759409,3.4318135,3.577862,33.14607,1.0
404770147,3.4646676,3.6120093,33.14607,1.0
404780937,3.503572,3.6525683,33.14607,1.0
404792003,3.5913575,3.744087,33.14607,1.0
404802718,3.7008429,3.8582284,33.14607,1.0
404813450,3.7908578,3.952191,33.14607,1.0
404824555,3.8837779,4.0490656,33.14607,1.0
404835284,3.9704435,4.13942,33.14607,1.0
404845999,4.003081,4.173446,33.14607,1.0
404857099,3.999289,4.169493,33.14607,1.0
404867818,3.9680693,4.1375318,33.24377,1.0
404878553,3.894835,4.0611696,33.24377,1.0
404889556,3.8483593,4.012709,33.24377,1.0
404900273,3.8725812,4.037966,33.24377,1.0
404911050,3.9394982,4.1077404,33.24377,1.0
404921990,4.0268745,4.198901,33.24377,1.0
404932747,4.1191063,4.295073,33.24377,1.0
404943472,4.185802,4.364618,33.24377,1.0
404954199,4.1655426,4.343493,33.24377,1.0
404964932,4.0651484,4.238134,33.14607,1.0
404975661,3.9652872,4.133987,33.14607,1.0
404986711,3.8508654,4.014697,33.14607,1.0
404997565,3.6834633,3.840173,33.14607,1.0
405008283,3.5428984,3.6936278,33.14607,1.0
405019116,3.4863844,3.6347096,33.14607,1.0
405029893,3.4660835,3.6134536,33.14607,1.0
405040632,3.4710486,3.61863,33.14607,1.0
405051351,3.5408304,3.6913786,33.14607,1.0
405062270,3.615546,3.769271,33.14607,1.0
405073014,3.5824676,3.734786,33.14607,1.0
405083781,3.4263682,3.5720499,33.14607,1.0
405094854,3.191369,3.327206,33.14607,1.0
405105692,2.9437852,3.069084,33.14607,1.0
405116798,2.8068852,2.926357,33.14607,1.0
405127583,2.8290198,2.9494336,33.14607,1.0
405138320,2.9500833,3.0755646,33.14607,1.0
405149258,3.1169097,3.249487,33.14607,1.0
405160004,3.2933848,3.4334683,33.14607,1.0
405170751,3.4587789,3.6064725,33.24377,1.0
405181787,3.6029043,3.7567525,33.24377,1.0
405192524,3.694112,3.8519135,33.24377,1.0
405203302,3.6950157,3.8528557,33.24377,1.0
405214455,3.590506,3.7438817,33.24377,1.0
405225190,3.3950555,3.540082,33.24377,1.0
405235943,3.1437893,3.2780824,33.24377,1.0
405246832,2.8625765,2.984857,33.24377,1.0
405257595,2.6045911,2.7158582,33.24377,1.0
405268322,2.3729632,2.4739406,33.14607,1.0
405279320,2.1761875,2.2687914,33.14607,1.0
405290149,2.1193957,2.209583,33.14607,1.0
405300879,2.1645167,2.2565727,33.14607,1.0
405311885,2.2602746,2.356403,33.14607,1.0
405322650,2.4547431,2.5591424,33.14607,1.0
405333374,2.7188838,2.8345168,33.14607,1.0
405344393,3.0182767,3.1466427,33.14607,1.0
405355223,3.3297668,3.4714153,33.14607,1.0
405365954,3.5916402,3.7444289,33.14607,1.0
405376891,3.7800336,3.9408364,33.14607,1.0
405387615,3.9327528,4.1000524,33.14607,1.0
405398348,4.072722,4.245976,33.14607,1.0
405409074,4.1723237,4.3497653,33.14607,1.0
405419940,4.2188945,4.398317,33.14607,1.0
405430664,4.2287607,4.4086027,33.14607,1.0
405441450,4.2144856,4.3937206,33.14607,1.0
405452442,4.185723,4.3637342,33.14607,1.0
405463164,4.1289167,4.3045883,33.14607,1.0
405473984,4.036471,4.208209,33.14607,1.0
405485000,3.9484391,4.1164317,33.14607,1.0
405495737,3.914333,4.080875,33.14607,1.0
405506542,3.9184453,4.085162,33.14607,1.0
405517614,3.902755,4.0688095,33.14607,1.0
405528329,3.8531513,4.0170956,33.14607,1.0
405550041,3.709053,3.866866,33.14607,1.0
405560785,3.6575687,3.8137994,33.24377,1.0
405571602,3.6499937,3.805915,33.24377,1.0
405582630,3.671417,3.8282537,33.24377,1.0
405593361,3.7325757,3.892025,33.24377,1.0
405604113,3.8354747,3.9993196,33.24377,1.0
405615202,3.9542506,4.1231694,33.24377,1.0
405625992,4.071971,4.2458706,33.24377,1.0
405636748,4.178812,4.3572745,33.24377,1.0
405647662,4.26996,4.452315,33.24377,1.0
405658400,4.299983,4.48362,33.24377,1.0
405669153,4.244775,4.4260926,33.24377,1.0
405680323,4.162173,4.3399625,33.24377,1.0
405691056,4.0714526,4.245367,33.24377,1.0
405701808,3.9819686,4.1520605,33.24377,1.0
405712681,3.8956025,4.062005,33.24377,1.0
405723428,3.7678032,3.928747,33.24377,1.0
405734227,3.6246881,3.7794855,33.24377,1.0
405745447,3.5347517,3.685708,33.24377,1.0
405756223,3.5373497,3.6878288,33.14607,1.0
405766941,3.5992324,3.7523441,33.14607,1.0
405777941,3.6451514,3.8002164,33.14607,1.0
405788656,3.6773849,3.8338504,33.14607,1.0
405799374,3.7447612,3.9040935,33.14607,1.0
405810235,3.8503234,4.0141473,33.14607,1.0
405820973,3.9212656,4.088108,33.14607,1.0
405831694,3.8683107,4.0329,33.14607,1.0
405842413,3.6860292,3.8428674,33.14607,1.0
405853136,3.4509156,3.59775,33.14607,1.0
405863944,3.2536976,3.3921404,33.14607,1.0
405874995,3.0981708,3.229996,33.14607,1.0
405885744,2.9138677,3.0378509,33.14607,1.0
405896546,2.7508183,2.8678346,33.14607,1.0
405907320,2.755874,2.8731053,33.14607,1.0
405918046,2.9343042,3.059126,33.14607,1.0
405928761,3.1901667,3.3258724,33.14607,1.0
405939487,3.435064,3.5811875,33.14607,1.0
405950439,3.626973,3.7819347,33.24377,1.0
405961192,3.795053,3.957196,33.24377,1.0
405971955,3.9563937,4.12543,33.24377,1.0
405982951,4.09942,4.274567,33.24377,1.0
405993700,4.2192106,4.399381,33.24377,1.0
406004438,4.3148956,4.499152,33.24377,1.0
406015547,4.344472,4.5299916,33.24377,1.0
406026262,4.2659764,4.448144,33.24377,1.0
406036978,4.099602,4.2746654,33.24377,1.0
406048017,3.8816957,4.0474534,33.24377,1.0
406058748,3.6677408,3.8243434,33.24377,1.0
406069465,3.4707794,3.6189723,33.24377,1.0
406080562,3.2680964,3.4076355,33.24377,1.0
406091282,3.1075826,3.240268,33.24377,1.0
406102035,3.0520504,3.1823647,33.24377,1.0
406113014,3.066415,3.1973827,33.24377,1.0
406123736,3.0907118,3.222717,33.24377,1.0
406134555,3.1794856,3.3152823,33.24377,1.0
406145654,3.298802,3.4396946,33.24377,1.0
406156390,3.3693085,3.5132039,33.24377,1.0
406167151,3.4597511,3.6075091,33.24377,1.0
406178182,3.583222,3.736253,33.24377,1.0
406188924,3.6916564,3.8493185,33.24377,1.0
406199646,3.8316455,3.9952862,33.24377,1.0
406210605,4.024808,4.196698,33.24377,1.0
406221338,4.205426,4.385063,33.24377,1.0
406232095,4.3626575,4.5490108,33.24377,1.0
406243072,4.5154586,4.7083387,33.24377,1.0
406253799,4.6299033,4.8269024,33.14607,1.0
406264515,4.689648,4.889091,33.14607,1.0
406275243,4.710699,4.911037,33.14607,1.0
406285959,4.7055826,4.905703,33.14607,1.0
406296686,4.665607,4.864027,33.14607,1.0
406307666,4.5871024,4.782184,33.14607,1.0
406318404,4.5078125,4.699581,33.14607,1.0
406329181,4.4534283,4.6428833,33.14607,1.0
406340167,4.4198146,4.6078396,33.14607,1.0
406350976,4.402468,4.5904875,33.24377,1.0
406361760,4.377401,4.5643497,33.24377,1.0
406383470,4.2901106,4.4733768,33.24377,1.0
406394296,4.3039308,4.4877872,33.24377,1.0
406405260,4.37418,4.5610375,33.24377,1.0
406416078,4.4499335,4.640027,33.24377,1.0
406426846,4.4997144,4.6919346,33.24377,1.0
406437748,4.529258,4.7226324,33.24377,1.0
406448481,4.5436597,4.7368937,33.14607,1.0
406459204,4.5472755,4.7406635,33.14607,1.0
406469932,4.5437045,4.7369404,33.14607,1.0
406480929,4.5357985,4.728752,33.14607,1.0
406491657,4.525732,4.7182574,33.14607,1.0
406502376,4.495931,4.687189,33.14607,1.0
406513353,4.4361854,4.624902,33.14607,1.0
406524068,4.3808184,4.567179,33.14607,1.0
406534866,4.352508,4.5376644,33.14607,1.0
406545986,4.3441277,4.528847,33.14607,1.0
406556748,4.3294063,4.5135,33.14607,1.0
406567469,4.2917,4.47419,33.14607,1.0
406578567,4.2621155,4.443348,33.14607,1.0
406589397,4.2846894,4.466972,33.14607,1.0
406600113,4.3858895,4.572477,33.14607,1.0
406610931,4.548515,4.742021,33.14607,1.0
406621650,4.710345,4.9107356,33.14607,1.0
406632418,4.814611,5.0194373,33.14607,1.0
406643409,4.8754287,5.0836663,33.24377,1.0
406654134,4.94639,5.1576586,33.24377,1.0
406664957,5.017649,5.2319613,33.24377,1.0
406675954,5.042238,5.2576003,33.24377,1.0
406686676,4.976795,5.189362,33.24377,1.0
406697404,4.817346,5.0231028,33.24377,1.0
406708158,4.6442494,4.842601,33.24377,1.0
406718885,4.5159163,4.7087865,33.24377,1.0
406729648,4.4281855,4.6173086,33.24377,1.0
406740543,4.354927,4.5401974,33.14607,1.0
406751275,4.256672,4.437723,33.14607,1.0
406762041,4.1486254,4.325081,33.14607,1.0
406773150,4.1095076,4.2842994,33.14607,1.0
406783946,4.1648207,4.341965,33.14607,1.0
406794669,4.2294054,4.409297,33.14607,1.0
406805555,4.2295,4.409451,33.14607,1.0
406816351,4.1883426,4.3665423,33.14607,1.0
406827165,4.164834,4.342034,33.14607,1.0
406838153,4.1754065,4.353056,33.14607,1.0
406848887,4.1615024,4.3392525,33.24377,1.0
406859619,4.0867023,4.2612414,33.24377,1.0
406870604,4.002421,4.1733603,33.24377,1.0
406881326,3.944336,4.1127944,33.24377,1.0
406892044,3.930269,4.098127,33.24377,1.0
406902762,3.9676943,4.1371503,33.24377,1.0
406913682,4.012802,4.184132,33.24377,1.0
406924505,4.037631,4.210021,33.24377,1.0
406935226,4.022015,4.1937385,33.24377,1.0
406946172,3.907106,4.0732737,33.14607,1.0
406956937,3.6802766,3.8367972,33.14607,1.0
406967704,3.3826318,3.5265512,33.14607,1.0
406978796,3.0437417,3.1732426,33.14607,1.0
406989565,2.7554445,2.8726795,33.14607,1.0
407000287,2.671771,2.785446,33.14607,1.0
407011215,2.8073468,2.92679,33.14607,1.0
407021947,3.0548406,3.1848137,33.14607,1.0
407032663,3.2773433,3.4167702,33.14607,1.0
407043406,3.3542283,3.496926,33.14607,1.0
407054131,3.3381357,3.480149,33.14607,1.0
407064873,3.3517911,3.4943855,33.14607,1.0
407075930,3.4136755,3.558925,33.14607,1.0
407086789,3.4997318,3.6486428,33.14607,1.0
407097563,3.5928175,3.7456892,33.14607,1.0
407108357,3.6820328,3.8387005,33.14607,1.0
407119093,3.7382596,3.8973198,33.14607,1.0
407129862,3.7695665,3.9299192,33.14607,1.0
407140833,3.7781546,3.9388726,33.14607,1.0
407151555,3.7209442,3.8792286,33.14607,1.0
407162271,3.6288579,3.783225,33.14607,1.0
407173010,3.548837,3.6998,33.14607,1.0
407184025,3.4532213,3.6001124,33.14607,1.0
407194793,3.2915082,3.4315205,33.14607,1.0
407205551,3.1198199,3.2525291,33.14607,1.0
407216532,3.0497496,3.1794782,33.14607,1.0
407227247,3.060495,3.1906805,33.14607,1.0
407237968,3.0941658,3.22578,33.14607,1.0
407248985,3.1393106,3.272845,33.14607,1.0
407259721,3.1877313,3.3233254,33.14607,1.0
407270480,3.2606556,3.3993518,33.14607,1.0
407281445,3.3677812,3.511034,33.14607,1.0
407292219,3.430641,3.5765357,33.14607,1.0
407302987,3.406103,3.550954,33.14607,1.0
407314012,3.357461,3.5002437,33.14607,1.0
407324807,3.3535168,3.4961317,33.14607,1.0
407335559,3.4293897,3.5758016,33.24377,1.0
407346663,3.5469797,3.69844,33.24377,1.0
407357403,3.6313353,3.7863977,33.24377,1.0
407368123,3.6367867,3.792082,33.24377,1.0
407379223,3.5335197,3.6844053,33.24377,1.0
407411559,3.1615527,3.2965877,33.24377,1.0
407422278,3.224985,3.3627293,33.24377,1.0
407433008,3.3811843,3.525038,33.14607,1.0
407443737,3.5511754,3.7022612,33.14607,1.0
407454451,3.638225,3.7930193,33.14607,1.0
407465249,3.6401675,3.7950444,33.14607,1.0
407476333,3.6401932,3.7950711,33.14607,1.0
407487170,3.6152067,3.7690215,33.14607,1.0
407497939,3.492872,3.6414819,33.14607,1.0
407508679,3.310438,3.4512296,33.14607,1.0
407519408,3.1282966,3.2613418,33.14607,1.0
407530173,2.9582987,3.084606,33.24377,1.0
407541159,2.8086464,2.928564,33.24377,1.0
407551938,2.6453576,2.7583034,33.24377,1.0
407562692,2.4401238,2.5443454,33.24377,1.0
407573656,2.2127197,2.3072286,33.24377,1.0
407584413,1.9783385,2.0628364,33.24377,1.0
407595151,1.8072226,1.884412,33.24377,1.0
407606198,1.7583634,1.8334659,33.24377,1.0
407616974,1.7402127,1.8145448,33.24377,1.0
407627748,1.6834449,1.7553521,33.24377,1.0
407638732,1.603527,1.6717539,33.14607,1.0
407649460,1.5119205,1.5762497,33.14607,1.0
407714316,2.4939914,2.6000764,33.14607,1.0
407725056,2.6816852,2.795754,33.14607,1.0
407735849,2.775948,2.8944879,33.24377,1.0
407746958,2.7397835,2.8567789,33.24377,1.0
407757675,2.6915746,2.8065114,33.24377,1.0
407768409,2.778982,2.8976512,33.24377,1.0
407779528,3.0027611,3.1309311,33.24377,1.0
407790253,3.275606,3.4154222,33.24377,1.0
407801008,3.5459628,3.697319,33.24377,1.0
407811947,3.7886837,3.9504,33.24377,1.0
407822716,3.9937878,4.164259,33.24377,1.0
407833432,4.159362,4.336274,33.14607,1.0
407844400,4.2876363,4.4700046,33.14607,1.0
407855155,4.3631396,4.5487194,33.14607,1.0
407865948,4.3608108,4.5462914,33.14607,1.0
407877061,4.3088336,4.4921036,33.14607,1.0
407887807,4.248309,4.429033,33.14607,1.0
407898535,4.141157,4.3173227,33.14607,1.0
407909461,3.935938,4.1033735,33.14607,1.0
407920188,3.6950157,3.8522024,33.14607,1.0
407930981,3.5260208,3.6765072,33.24377,1.0
407942049,3.4265828,3.5728254,33.24377,1.0
407952779,3.3574445,3.5007362,33.24377,1.0
407963516,3.2827833,3.4228885,33.24377,1.0
407974718,3.1447756,3.278991,33.24377,1.0
407985624,2.9992247,3.127228,33.24377,1.0
407996346,2.9878485,3.1154096,33.24377,1.0
408007334,3.098627,3.2309177,33.24377,1.0
408018066,3.2175567,3.3549247,33.24377,1.0
408028784,3.3305933,3.4722333,33.14607,1.0
408039714,3.4801588,3.6281502,33.14607,1.0
408050439,3.6605203,3.8161814,33.14607,1.0
408061168,3.818907,3.9813035,33.14607,1.0
408072228,3.9287171,4.095783,33.14607,1.0
408082959,4.0218883,4.1929164,33.14607,1.0
408093681,4.1181054,4.2931767,33.14607,1.0
408104663,4.2078853,4.386773,33.14607,1.0
408115407,4.286124,4.468338,33.14607,1.0
408126152,4.350728,4.5364122,33.24377,1.0
408137313,4.4015484,4.5894012,33.24377,1.0
408148040,4.4201374,4.6087837,33.24377,1.0
408158765,4.3972535,4.5850153,33.24377,1.0
408169645,4.3492174,4.5349283,33.24377,1.0
408180361,4.268109,4.4503565,33.24377,1.0
408191089,4.1250067,4.3011436,33.24377,1.0
408201815,3.921996,4.0894237,33.24377,1.0
408212537,3.6881204,3.8455637,33.24377,1.0
408223310,3.4153535,3.5605848,33.14607,1.0
408234202,3.1550019,3.2891622,33.14607,1.0
408244980,2.9842715,3.1111717,33.14607,1.0
408255756,2.826185,2.9462888,33.14607,1.0
408266751,2.6165247,2.7277186,33.14607,1.0
408277492,2.4209464,2.5238287,33.14607,1.0
408288283,2.3751562,2.4760928,33.14607,1.0
408299004,2.5460546,2.6542537,33.14607,1.0
408309962,2.7801292,2.8982759,33.14607,1.0
408320690,2.929829,3.0544333,33.14607,1.0
408331413,3.0537903,3.1836667,33.14607,1.0
408342493,3.2116592,3.3482497,33.14607,1.0
408353212,3.317168,3.4582458,33.14607,1.0
408363954,3.326417,3.467888,33.14607,1.0
408374835,3.3314648,3.473133,33.14607,1.0
408385567,3.415213,3.5604427,33.14607,1.0
408396411,3.5632334,3.7147574,33.14607,1.0
408407374,3.7345307,3.8933392,33.14607,1.0
408418109,3.9032848,4.0692186,33.14607,1.0
408428897,4.0082955,4.178694,33.14607,1.0
408439877,4.0196004,4.190479,33.14607,1.0
408450615,3.9966266,4.1665287,33.14607,1.0
408461425,3.931264,4.0983872,33.14607,1.0
408472513,3.8153696,3.977566,33.14607,1.0
408483306,3.7469876,3.9063454,33.14607,1.0
408494026,3.7940633,3.9554234,33.14607,1.0
408504937,3.9616573,4.130145,33.14607,1.0
408515759,4.1828327,4.360727,33.14607,1.0
408526476,4.3894634,4.5761456,33.14607,1.0
408537631,4.5502357,4.7437553,33.14607,1.0
408548376,4.6108828,4.8069816,33.14607,1.0
408559145,4.582439,4.777328,33.14607,1.0
408570000,4.5173783,4.7095003,33.14607,1.0
408580790,4.389847,4.5765452,33.14607,1.0
408591525,4.2035985,4.3823757,33.14607,1.0
408602543,4.009091,4.179596,33.14607,1.0
408613281,3.7991078,3.9606822,33.14607,1.0
408624043,3.6201236,3.774086,33.14607,1.0
408635010,3.500915,3.6497433,33.14607,1.0
408645738,3.3461173,3.4883647,33.14607,1.0
408656477,3.148633,3.2824852,33.14607,1.0
408667203,3.0009124,3.128485,33.14607,1.0
408677962,2.9647088,3.090742,33.14607,1.0
408688688,3.0343804,3.1634233,33.14607,1.0
408699614,3.1346352,3.2679417,33.14607,1.0
408710345,3.2439687,3.3819249,33.14607,1.0
408721128,3.3745818,3.5186536,33.24377,1.0
408732175,3.4511592,3.5985005,33.24377,1.0
408742941,3.4590526,3.6066718,33.24377,1.0
408753663,3.4478135,3.594953,33.24377,1.0
408764631,3.3998199,3.5449114,33.24377,1.0
408775352,3.3050058,3.446051,33.24377,1.0
408786111,3.1845665,3.3204718,33.24377,1.0
408796853,3.1158607,3.2489119,33.24377,1.0
408807746,3.115545,3.2485826,33.24377,1.0
408818515,3.0986593,3.2304606,33.14607,1.0
408829240,3.1058242,3.2379303,33.14607,1.0
408840187,3.2147815,3.351522,33.14607,1.0
408850933,3.3990924,3.5436053,33.14607,1.0
408861750,3.607634,3.7610133,33.14607,1.0
408872852,3.7870426,3.9480493,33.14607,1.0
408883577,3.863097,4.027337,33.14607,1.0
408894351,3.821183,3.9836411,33.14607,1.0
408905271,3.7326257,3.8912406,33.14607,1.0
408916007,3.647167,3.8021502,33.14607,1.0
408926830,3.541096,3.691572,33.14607,1.0
408937957,3.3980353,3.542432,33.14607,1.0
408948681,3.2700112,3.4089677,33.14607,1.0
408959411,3.221267,3.3581522,33.14607,1.0
408970344,3.2242258,3.3613422,33.14607,1.0
408981059,3.1415536,3.2751544,33.14607,1.0
408991825,2.9126704,3.0365374,33.14607,1.0
409002546,2.6528363,2.7656534,33.14607,1.0
409013268,2.501066,2.6074157,33.14607,1.0
409023997,2.4060879,2.5083988,33.14607,1.0
409035035,2.2768214,2.3736358,33.14607,1.0
409045819,2.1703327,2.262619,33.14607,1.0
409056534,2.1288137,2.2193346,33.14607,1.0
409067406,2.2218008,2.316261,33.14607,1.0
409078176,2.4968715,2.6030264,33.14607,1.0
409100053,3.1930723,3.3288262,33.14607,1.0
409110770,3.4548728,3.6017573,33.14607,1.0
409121607,3.67812,3.834409,33.14607,1.0
409132540,3.85981,4.0238194,33.14607,1.0
409143313,3.980235,4.1493616,33.14607,1.0
409154097,4.054345,4.2266207,33.14607,1.0
409165002,4.0729804,4.2460475,33.14607,1.0
409175722,4.0080223,4.178361,33.14607,1.0
409186500,3.8384519,4.001584,33.14607,1.0
409197226,3.6284819,3.7826903,33.14607,1.0
409208238,3.511518,3.6613395,33.24377,1.0
409219049,3.4985216,3.6477885,33.24377,1.0
409229764,3.505431,3.6551397,33.24377,1.0
409240562,3.4702373,3.618443,33.24377,1.0
409251285,3.3487778,3.4917963,33.24377,1.0
409262063,3.1419523,3.2761378,33.24377,1.0
409273040,2.917958,3.0425773,33.24377,1.0
409283845,2.769569,2.8877637,33.24377,1.0
409294648,2.7573764,2.8750508,33.24377,1.0
409305711,2.8955462,3.019117,33.24377,1.0
409327151,3.2819939,3.4215112,33.14607,1.0
409338134,3.3978188,3.5423,33.14607,1.0
409348944,3.4386773,3.5848958,33.14607,1.0
409359671,3.4248884,3.5705204,33.14607,1.0
409370635,3.4325557,3.5785139,33.14607,1.0
409381356,3.4582837,3.6052995,33.14607,1.0
409392088,3.4932427,3.6417449,33.14607,1.0
409402809,3.5554013,3.7065458,33.14607,1.0
409413558,3.6050627,3.7583184,33.14607,1.0
409424293,3.64288,3.7977433,33.14607,1.0
409435337,3.6654968,3.8213215,33.14607,1.0
409446064,3.596061,3.748882,33.14607,1.0
409456801,3.4696593,3.6171088,33.14607,1.0
409467715,3.4244301,3.5699575,33.14607,1.0
409478441,3.4917378,3.6401255,33.14607,1.0
409489156,3.6220033,3.7759268,33.14607,1.0
409499880,3.777154,3.9377947,33.14607,1.0
409510814,3.9325073,4.0997553,33.14607,1.0
409521617,4.074063,4.247331,33.14607,1.0
409532354,4.1745157,4.352056,33.14607,1.0
409543339,4.221448,4.4009843,33.14607,1.0
409554060,4.231352,4.4112706,33.14607,1.0
409564889,4.171665,4.349046,33.14607,1.0
409575826,4.023271,4.194342,33.14607,1.0
409586555,3.8223107,3.9848368,33.14607,1.0
409597323,3.6195729,3.7734785,33.14607,1.0
409608057,3.45395,3.6008089,33.14607,1.0
409618787,3.300933,3.4412856,33.14607,1.0
409629551,3.1403065,3.2738295,33.14607,1.0
409640370,2.9848557,3.111769,33.14607,1.0
409651146,2.87986,3.0023088,33.14607,1.0
409661900,2.884873,3.0075426,33.14607,1.0
409672616,2.989153,3.1162567,33.14607,1.0
409683625,3.081103,3.212117,33.14607,1.0
409694430,3.0971212,3.228816,33.14607,1.0
409705147,3.0976863,3.2299204,33.24377,1.0
409716141,3.0883088,3.2200856,33.24377,1.0
409727038,3.0393844,3.1690736,33.24377,1.0
409737971,3.0309343,3.1602628,33.24377,1.0
409748699,3.1385884,3.2725105,33.24377,1.0
409759494,3.3046062,3.4456122,33.24377,1.0
409770464,3.4379184,3.584663,33.24377,1.0
409781187,3.4866722,3.6354976,33.24377,1.0
409792009,3.4195652,3.5655262,33.24377,1.0
409802975,3.279245,3.4186711,33.14607,1.0
409813706,3.1289515,3.2619877,33.14607,1.0
409824426,2.9815738,3.1083164,33.14607,1.0
409835151,2.8824756,3.0050056,33.14607,1.0
409846094,2.8247302,2.9448054,33.14607,1.0
409856878,2.7933574,2.9120991,33.14607,1.0
409867618,2.879421,3.0018291,33.14607,1.0
409878849,3.0896115,3.2209551,33.14607,1.0
409889585,3.3194222,3.4605353,33.14607,1.0
409900688,3.5129223,3.6622612,33.14607,1.0
409911415,3.640431,3.7951906,33.14607,1.0
409922140,3.6907556,3.8476546,33.14607,1.0
409933092,3.740601,3.8996382,33.14607,1.0
409943838,3.8132257,3.9753506,33.14607,1.0
409954679,3.8713057,4.0359,33.14607,1.0
409965662,3.9375563,4.104967,33.14607,1.0
409976395,3.9772735,4.1463366,33.14607,1.0
409987182,3.949447,4.117327,33.14607,1.0
409998136,3.9283192,4.0953016,33.14607,1.0
410008920,3.961417,4.129806,33.14607,1.0
410019691,3.9784071,4.1475186,33.14607,1.0
410030667,3.9359028,4.103285,33.14607,1.0
410041403,3.9063025,4.072426,33.14607,1.0
410052118,3.9140213,4.0804725,33.14607,1.0
410062840,3.9009864,4.0668836,33.14607,1.0
410073973,3.8262877,3.9890082,33.14607,1.0
410084742,3.659341,3.8149617,33.14607,1.0
410095477,3.406348,3.5510979,33.14607,1.0
410106559,3.1006866,3.2329633,33.24377,1.0
410117278,2.8346784,2.9556072,33.24377,1.0
410128271,2.757785,2.8754334,33.24377,1.0
410139060,2.8189852,2.9392292,33.24377,1.0
410149848,2.864138,2.986308,33.24377,1.0
410160772,2.9016333,3.0254028,33.24377,1.0
410171538,2.9663699,3.0929008,33.24377,1.0
410182258,3.0702088,3.2011688,33.24377,1.0
410193029,3.241299,3.3796422,33.24377,1.0
410203873,3.4586332,3.6056776,33.14607,1.0
410214619,3.6800294,3.8364863,33.14607,1.0
410225347,3.8827672,4.0478435,33.14607,1.0
410236065,4.0565624,4.2290277,33.14607,1.0
410257505,4.1922383,4.370472,33.14607,1.0
410268391,4.066608,4.2395005,33.14607,1.0
410279213,3.825311,3.9879446,33.14607,1.0
410289950,3.5108101,3.6600728,33.14607,1.0
410300967,3.1862988,3.3222947,33.24377,1.0
410311686,2.9417152,3.0672643,33.24377,1.0
410322448,2.8438191,2.96519,33.24377,1.0
410333538,2.9170954,3.0415936,33.24377,1.0
410344351,3.087339,3.2191029,33.24377,1.0
410355075,3.2100842,3.3471036,33.24377,1.0
410365991,3.2045596,3.3413432,33.24377,1.0
410376745,3.0840166,3.2156549,33.24377,1.0
410387525,2.859729,2.9817939,33.24377,1.0
410398518,2.4976497,2.6038442,33.14607,1.0
410409296,2.0162318,2.1019576,33.14607,1.0
410420053,1.5040196,1.5679374,33.14607,1.0
410431010,0.9170956,0.9560703,33.14607,1.0
410441732,-0.6270693,-0.6537185,33.14607,1.0
410452537,-1.014447,-1.0575589,33.14607,1.0
410463262,-0.92229646,-0.9615117,33.14607,1.0
410474251,0.09087591,0.09473987,33.14607,1.0
410485113,1.2704501,1.3244685,33.14607,1.0
410496082,1.9434069,2.026362,33.24377,1.0
410506817,2.4744892,2.5801136,33.24377,1.0
410517655,2.8980272,3.021704,33.24377,1.0
410528598,3.2319992,3.3699286,33.24377,1.0
410539317,3.4655104,3.6134052,33.24377,1.0
410550034,3.6007757,3.7544432,33.24377,1.0
410560765,3.6914947,3.8490336,33.24377,1.0
410571648,3.7708452,3.9317157,33.24377,1.0
410582394,3.8365757,4.0002503,33.24377,1.0
410593161,3.8617556,4.025862,33.14607,1.0
410604153,3.7826672,3.943413,33.14607,1.0
410614882,3.6387436,3.7933733,33.14607,1.0
410625598,3.5128868,3.6622562,33.14607,1.0
410636329,3.3527405,3.4953003,33.14607,1.0
410647059,3.1180627,3.250644,33.14607,1.0
410657799,2.8747127,2.9969466,33.14607,1.0
410668682,2.715769,2.8312447,33.14607,1.0
410679432,2.6312788,2.7430997,33.14607,1.0
410690162,2.52474,2.6320333,33.14607,1.0
410700940,2.4096806,2.5120842,33.14607,1.0
410711810,2.3408518,2.4403305,33.14607,1.0
410722530,2.2641344,2.360353,33.14607,1.0
410733313,2.2264407,2.3210602,33.14607,1.0
410744247,2.3829262,2.4841962,33.14607,1.0
410754987,2.700434,2.8151972,33.14607,1.0
410765786,3.0576468,3.187591,33.14607,1.0
410776529,3.39483,3.5391037,33.14607,1.0
410787262,3.6646235,3.8209288,33.24377,1.0
410797980,3.851588,4.0158677,33.24377,1.0
410808795,3.975781,4.145358,33.24377,1.0
410819537,4.0311985,4.2031393,33.24377,1.0
410830252,3.9925277,4.162819,33.24377,1.0
410840968,3.8683782,4.0334353,33.24377,1.0
410851949,3.7211435,3.8799186,33.24377,1.0
410862672,3.567698,3.7199259,33.24377,1.0
410873406,3.415368,3.5610962,33.24377,1.0
410884351,3.3006139,3.4414456,33.24377,1.0
410895087,3.161285,3.295646,33.14607,1.0
410905821,2.9501042,3.0754235,33.14607,1.0
410916559,2.7336483,2.8497727,33.14607,1.0
410927274,2.6065464,2.7172716,33.14607,1.0
410938088,2.5541313,2.6626298,33.14607,1.0
410948939,2.4744036,2.579613,33.14607,1.0
410959662,2.3812423,2.4824905,33.14607,1.0
410970391,2.3298695,2.4289334,33.14607,1.0
410981116,2.3109767,2.4092374,33.14607,1.0
410992037,2.3955064,2.4973612,33.14607,1.0
411002766,2.5667484,2.6758707,33.14607,1.0
411013545,2.72993,2.8459897,33.14607,1.0
411024623,2.9092538,3.0329375,33.14607,1.0
411035355,3.1136732,3.2460475,33.14607,1.0
411046079,3.3118486,3.4526482,33.14607,1.0
411057011,3.4332197,3.5791836,33.14607,1.0
411067820,3.4451084,3.5915778,33.14607,1.0
411078629,3.4425042,3.588863,33.14607,1.0
411089677,3.4856699,3.6344433,33.24377,1.0
411100412,3.553623,3.7052968,33.24377,1.0
411111150,3.6545315,3.8104594,33.24377,1.0
411122069,3.7890303,3.950697,33.24377,1.0
411132793,3.9310389,4.0987644,33.24377,1.0
411143644,4.0647697,4.2382016,33.24377,1.0
411154721,4.1362925,4.3127756,33.24377,1.0
411165439,4.071829,4.245572,33.24377,1.0
411176169,3.872747,4.0379953,33.24377,1.0
