timestamp,accel_device_id,gyro_device_id,accel_clipping[0],accel_clipping[1],accel_clipping[2],accel_error_count,gyro_error_count,accel_rate_hz,gyro_rate_hz,accel_raw_rate_hz,gyro_raw_rate_hz,accel_vibration_metric,gyro_vibration_metric,gyro_coning_vibration,mean_accel[0],mean_accel[1],mean_accel[2],mean_gyro[0],mean_gyro[1],mean_gyro[2],temperature_accel,temperature_gyro
394638489,1114122,2228234,0,0,0,0,0,703.0218,739.372,703.0218,739.372,0.0026673793,4.0508246e-05,3.8442587e-09,1.4113332,0.061751094,-9.503735,0.004632001,-0.0007484796,0.0033562274,52.517857,51.0
395674270,1114122,2228234,0,0,0,0,0,703.0218,740.11475,703.0218,740.11475,0.0018719413,4.2002e-05,3.4062058e-09,1.3973397,0.13678057,-9.49707,0.018555773,0.0006517572,0.0020171457,52.466217,51.0
396692986,1114122,2228234,0,0,0,0,0,703.0218,739.3475,703.0218,739.3475,0.0022440306,4.35826e-05,4.0258046e-09,1.3773214,0.13254853,-9.474985,0.0335135,-0.0011404387,-0.0099957725,52.455593,51.0
397691112,1114122,2228234,0,0,0,0,0,687.9876,739.3475,687.9876,739.3475,0.003400097,4.3852306e-05,2.96475e-09,1.3218802,0.17081709,-9.485831,0.01778675,-0.0005550216,-0.0018338189,52.369717,51.0
398696804,1114122,2228234,0,0,0,0,0,699.92786,739.3475,699.92786,739.3475,0.0022819934,4.2239248e-05,2.898216e-09,1.4193274,0.069077365,-9.42386,0.012940157,0.0012967886,-0.0041909544,52.375,51.0
399695202,1114122,2228234,0,0,0,0,0,702.49994,740.98456,702.49994,740.98456,0.002643903,4.3683947e-05,5.0853664e-09,1.3404267,0.07259584,-9.66334,0.03339591,0.004643469,-0.016971208,52.375,51.0
400670764,1114122,2228234,0,0,0,0,0,704.4097,737.73627,704.4097,737.73627,0.002123001,4.640512e-05,6.745814e-09,1.3997949,0.15375248,-9.568214,-0.04238046,0.007928301,-0.040479597,52.34375,51.0
401699125,1114122,2228234,0,0,0,0,0,702.774,739.84705,702.774,739.84705,0.0018138677,4.4104567e-05,4.730397e-09,1.3457153,0.17990908,-9.527518,-0.0020810226,-0.0024550331,0.0086012725,52.37987,51.0
402650141,1114122,2228234,0,0,0,0,0,702.4679,738.18176,702.4679,738.18176,0.002228515,4.649288e-05,3.6188907e-09,1.3020064,0.19627133,-9.471544,0.016319897,0.0022196767,-0.0049450896,52.40112,51.0
403670855,1114122,2228234,0,0,0,0,0,701.1262,738.8551,701.1262,738.8551,0.0021317403,4.136653e-05,3.9379873e-09,1.3411714,0.08448457,-9.525412,0.019199323,-0.0024955927,0.0025247324,52.347458,51.0
404679014,1114122,2228234,0,0,0,0,0,701.78375,738.8263,701.78375,738.8263,0.0071813916,4.624582e-05,3.3800387e-09,1.3593168,0.17130719,-9.395732,0.021573042,0.004556853,-0.004529704,52.35606,51.0
405635109,1114122,2228234,0,0,0,0,0,703.2772,738.7756,703.2772,738.7756,0.00650675,4.8285703e-05,3.3555032e-09,1.324466,0.18023913,-9.477098,0.008398405,0.00497584,0.004529561,52.25,50.0
406664376,1114122,2228234,0,0,0,0,0,703.2772,738.7756,703.2772,738.7756,0.0029048377,4.6464662e-05,4.836421e-09,1.3583695,0.12086209,-9.481301,0.03687421,0.00044126678,0.013056116,52.291668,50.7973
407694150,1114122,2228234,0,0,0,0,0,702.52454,739.5306,702.52454,739.5306,0.002811627,4.5112694e-05,4.7778723e-09,1.4290134,0.042977385,-9.462232,0.0022146604,0.00034310544,-0.015175607,52.21044,51.0
408682421,1114122,2228234,0,0,0,0,0,702.51465,738.67883,702.51465,738.67883,0.0025891424,4.6452446e-05,4.4274096e-09,1.4433739,0.099408805,-9.526137,0.029570732,0.00069267803,-0.008588963,52.28896,51.0
409628035,1114122,2228234,0,0,0,0,0,703.22,738.66656,703.22,738.66656,0.0018522404,4.4982397e-05,3.1640501e-09,1.408184,0.14951035,-9.533377,0.017215727,0.0037550016,-0.005612521,52.23611,50.0
410696539,1114122,2228234,0,0,0,0,0,703.22296,738.66656,703.22296,738.66656,0.0023380904,4.452593e-05,2.5824447e-09,1.3579543,0.17982088,-9.501378,0.006883976,-0.0015790034,-0.00027602518,52.25,50.0
412710537,1114122,2228234,0,0,0,0,0,705.0776,733.85254,705.0776,733.85254,0.0019530684,4.3388478e-05,3.291248e-09,1.4177805,0.102406695,-9.468988,0.0057077026,-0.005766617,0.008502189,52.25,51.0
413714991,1114122,2228234,0,0,0,0,0,703.6039,733.5655,703.6039,733.5655,0.002034521,4.3148022e-05,3.083843e-09,1.438379,0.03435928,-9.463794,0.012476217,-0.005908923,0.004486208,52.203125,50.0
414664797,1114122,2228234,0,0,0,0,0,703.1613,737.3943,703.1613,737.3943,0.0023738875,4.2457592e-05,2.755499e-09,1.3052626,0.1562974,-9.527482,0.012333602,-0.0021762357,0.009599259,52.125,50.0
415713497,1114122,2228234,0,0,0,0,0,704.62537,735.77924,704.62537,735.77924,0.002628832,4.5501827e-05,2.6479396e-09,1.4391147,0.16984974,-9.51826,0.012037689,0.0018072729,0.008102562,52.125,50.0
418624411,1114122,2228234,0,0,0,0,0,702.6563,738.03265,702.6563,738.03265,0.0025641462,4.5401353e-05,4.5849906e-09,1.277329,0.124110036,-9.251816,-0.0090643335,-0.0019860698,-0.024052175,52.13889,50.0
420668491,1114122,2228234,0,0,0,0,0,702.66595,738.78125,702.66595,738.78125,0.0026386355,4.5975343e-05,3.7964356e-09,1.377818,0.21841767,-9.487854,0.0062930747,-0.0020863542,0.0152370045,52.161232,50.0
421670510,1114122,2228234,0,0,0,0,0,701.8612,738.01636,701.8612,738.01636,0.0035774896,5.022247e-05,4.27541e-09,1.3747009,0.25771257,-9.464648,-0.01695085,-0.0008750472,0.003925443,52.085228,51.0
422648646,1114122,2228234,0,0,0,0,0,702.56573,738.75696,702.56573,738.75696,0.001967665,4.668099e-05,4.436437e-09,1.3464817,0.14164832,-9.463981,-0.006293281,-0.004711556,0.015473658,52.070423,51.0
423679545,1114122,2228234,0,0,0,0,0,702.56573,738.75696,702.56573,738.75696,0.002331915,4.2894317e-05,4.001238e-09,1.3364469,0.14399561,-9.524944,0.03692466,0.002029346,-0.011758159,52.02289,50.51948
424685571,1114122,2228234,0,0,0,0,0,702.56573,738.00946,702.56573,738.00946,0.0034563467,0.00018338299,2.4389115e-08,1.4179493,0.26747218,-9.435173,-0.0069082654,0.007198919,-0.0071481457,52.101105,50.0
425713849,1114122,2228234,0,0,0,0,0,747.41736,738.00946,747.41736,738.00946,0.00921235,0.0005409492,1.6445675e-07,2.3933156,0.143468,-9.6182,0.056052472,0.034031484,-0.04682427,51.994232,51.0
427700496,1114122,2228234,0,0,0,0,0,702.18604,734.52716,702.18604,734.52716,0.015965203,0.0010991918,8.6330573e-07,5.8252177,0.39704213,-9.160535,-0.22372659,-0.07088785,0.042465646,52.0,50.0
428716157,1114122,2228234,0,0,0,0,0,704.8283,736.0207,704.8283,736.0207,0.0101584755,0.00051839516,6.806975e-07,5.1857567,0.13696364,-12.671754,-0.0238046,0.1947687,-0.28668448,51.89113,49.0
429636859,1114122,2228234,0,0,0,0,0,704.6193,738.2898,704.6193,738.2898,0.008012673,0.0004093962,5.642692e-07,4.147548,-1.0301164,-11.865831,0.16161534,0.15326758,0.017257428,51.75,48.0
430712909,1114122,2228234,0,0,0,0,0,715.854,739.0833,715.854,739.0833,0.009140389,0.00039393856,3.685724e-07,3.390293,0.21984607,-6.92228,0.35998872,-0.030406836,0.24495003,51.75,49.0
431705864,1114122,2228234,0,0,0,0,0,699.3442,741.1203,699.3442,741.1203,0.00802239,0.0004233721,5.5582484e-07,3.4386811,-0.39361688,-10.453588,-0.36493018,-0.06924379,0.10121708,51.75,48.0
432709219,1114122,2228234,0,0,0,0,0,708.3328,740.18036,708.3328,740.18036,0.008179615,0.0003734711,3.3915256e-07,2.8745449,0.6519612,-8.391379,0.07714681,-0.083528936,0.027632194,51.55388,47.0
433678629,1114122,2228234,0,0,0,0,0,708.3328,736.81525,708.3328,736.81525,0.0069298814,0.00033546792,3.273724e-07,3.3302293,0.34911376,-11.082702,-0.01861169,0.030704688,-0.36042026,51.485,47.0
434716356,1114122,2228234,0,0,0,0,0,712.34937,735.45416,712.34937,735.45416,0.010967385,0.0004714259,4.6213367e-07,2.1644197,-1.6661997,-8.036296,0.03277557,-0.09011565,-0.011782735,51.25,46.0
435626899,1114122,2228234,0,0,0,0,0,727.94293,736.83,727.94293,736.83,0.010569383,0.000536465,4.6852972e-07,1.2617974,0.5346955,-10.548636,0.41687414,0.0405022,0.11438838,51.125,46.0
436667303,1114122,2228234,0,0,0,0,0,729.8954,736.65375,729.8954,736.65375,0.009623283,0.00040733675,5.089651e-07,1.5896765,0.60756457,-18.809027,0.036900435,0.4588428,0.19270347,51.125,45.0
437628587,1114122,2228234,0,0,0,0,0,729.8954,736.399,729.8954,736.399,0.011749544,0.00041394008,6.298622e-07,1.108472,0.55475265,-13.97104,0.2555953,0.16941509,0.13009477,50.907986,45.0
438660876,1114122,2228234,0,0,0,0,0,729.8954,736.3309,729.8954,736.3309,0.009280982,0.00044469847,8.478437e-07,1.4592737,0.14291818,-8.717284,-0.6485792,-0.17486645,0.3832312,50.785446,45.0
439714255,1114122,2228234,0,0,0,0,0,702.6087,736.3155,702.6087,736.3155,0.00856875,0.00043104377,7.9964394e-07,1.1222992,0.80250967,-8.711036,-0.48846233,-0.024087762,0.3930353,50.5,44.0
440612163,1114122,2228234,0,0,0,0,0,699.2123,736.3155,699.2123,736.3155,0.00895213,0.0005060951,9.14993e-07,-3.1041293,-0.25737816,-6.781801,-0.52942765,-0.021194926,-0.20806135,50.40954,44.0
441710791,1114122,2228234,0,0,0,0,0,704.0287,736.3155,704.0287,736.3155,0.008631409,0.00044965238,9.869947e-07,-2.310765,0.024236351,-10.840641,-0.6263511,-0.08414554,0.045026395,50.25,44.0
442641468,1114122,2228234,0,0,0,0,0,698.2798,737.07007,698.2798,737.07007,0.008713257,0.0005104543,1.2618161e-06,2.4802816,-3.1406903,-9.077827,0.9780124,0.31815568,0.10740769,50.21831,44.0
443662889,1114122,2228234,0,0,0,0,0,698.2798,737.07007,698.2798,737.07007,0.008853242,0.00044778915,1.6600693e-06,1.859352,1.5352975,-17.334597,0.15754434,0.49635473,0.27522418,49.966217,44.0
444711080,1114122,2228234,0,0,0,0,0,701.90314,737.07007,701.90314,737.07007,0.008356222,0.00045290744,1.0930037e-06,1.1223725,-0.10936084,-3.768705,0.28776503,0.2350642,0.06986225,49.75,44.0
445699091,1114122,2228234,0,0,0,0,0,703.77936,734.5224,703.77936,734.5224,0.010056131,0.00049808185,6.008954e-07,1.5287491,-1.2652997,-8.801748,-0.5478378,0.018085217,0.1472418,49.520832,43.0
446664218,1114122,2228234,0,0,0,0,0,713.1675,766.51355,713.1675,766.51355,0.019860756,0.0009015483,9.288228e-07,1.4064492,-0.46499735,-11.315276,-0.07710455,0.1269378,-0.0055118203,49.625,43.0
447679732,1114122,2228234,0,0,0,0,0,703.80865,736.4699,703.80865,736.4699,0.012660998,0.00050120987,4.6076013e-07,1.1281797,-0.19179772,-11.451686,0.022786532,0.11718556,0.24947158,49.25,43.0
448682215,1114122,2228234,0,0,0,0,0,701.0416,737.0435,701.0416,737.0435,0.0088693425,0.0004115361,4.1230552e-07,0.8800959,-0.019872842,-9.502372,0.009769282,0.08191805,0.20963134,49.125,42.0
449696126,1114122,2228234,0,0,0,0,0,704.9447,756.6817,704.9447,756.6817,0.010500111,0.00045825235,6.2966325e-07,0.82737744,0.59584683,-10.488261,0.26666567,0.057019513,-0.05121158,49.015625,42.0
450707032,1114122,2228234,0,0,0,0,0,692.30994,760.5545,692.30994,760.5545,0.026072513,0.0007907885,5.744677e-07,0.39627895,-0.6004371,-10.744231,-0.29645237,-0.0329189,0.106173076,48.78442,42.0
451681931,1114122,2228234,0,0,0,0,0,729.7775,771.70306,729.7775,771.70306,0.014994239,0.0005593356,4.3827328e-07,0.0056994585,0.15526336,-8.954497,0.098753646,0.006435496,0.03355451,48.56346,42.0
452698557,1114122,2228234,0,0,0,0,0,710.35095,771.70306,710.35095,771.70306,0.021957153,0.0006278426,3.9183664e-07,-0.26858616,-0.47028267,-8.496311,-0.018783616,0.008328564,0.123186685,48.375,41.0
453663028,1114122,2228234,0,0,0,0,0,710.35095,737.2123,710.35095,737.2123,0.012433484,0.0005183538,3.6173338e-07,0.014419873,0.4805944,-9.100609,0.20305699,0.047298525,0.07053842,48.375,40.0
454688361,1114122,2228234,0,0,0,0,0,710.35095,738.84766,710.35095,738.84766,0.009028908,0.00045930254,4.827629e-07,1.0009445,-0.52470106,-8.926178,0.17957132,0.052620262,0.052644104,48.0,41.0
455629392,1114122,2228234,0,0,0,0,0,710.35095,739.4763,710.35095,739.4763,0.009408139,0.0005112853,8.4411005e-07,0.48802784,-0.24148619,-10.94477,0.31682682,0.11102594,0.054350067,47.893986,40.621952
456700064,1114122,2228234,0,0,0,0,0,710.35095,740.1512,710.35095,740.1512,0.011145273,0.00055924524,5.7884944e-07,-0.24520972,0.06951439,-9.158552,-0.15766874,-0.012813486,0.32004884,47.675323,40.0
457661196,1114122,2228234,0,0,0,0,0,710.35095,740.0818,710.35095,740.0818,0.015553779,0.00061222847,7.3715086e-07,0.332525,0.35170856,-20.73886,0.398926,0.47285885,0.114681736,47.5,40.0
458698057,1114122,2228234,0,0,0,0,0,710.35095,739.272,710.35095,739.272,0.017994395,0.0008728097,2.2254449e-06,1.5494137,-1.5865511,-20.898401,-1.3591108,0.27826148,0.4792506,47.381668,40.0
459674571,1114122,2228234,0,0,0,0,0,703.30444,753.4461,703.30444,753.4461,0.01631488,0.000985459,1.7983443e-06,-0.7815369,1.127332,-5.1051764,-0.3904843,-0.12042223,0.48148847,47.236843,40.0
460690612,1114122,2228234,0,0,0,0,0,707.29517,753.4461,707.29517,753.4461,0.009862834,0.0005673897,7.812212e-07,-0.7922989,0.20709594,-10.619403,-0.11005658,-0.13383734,0.14058074,47.0,40.0
461714799,1114122,2228234,0,0,0,0,0,705.23236,733.99414,705.23236,733.99414,0.009627324,0.00059368176,1.1320321e-06,-2.3047297,0.92955035,-8.969917,0.20350198,0.11197679,0.3286734,46.875,40.0
462633259,1114122,2228234,0,0,0,0,0,704.5896,735.9572,704.5896,735.9572,0.01599322,0.0008980826,1.9413e-06,-1.0731285,-0.8683678,-22.675018,0.13186751,0.5707462,0.36227027,46.642857,40.0
463703903,1114122,2228234,0,0,0,0,0,718.39844,759.6218,718.39844,759.6218,0.016244182,0.0007951368,1.0585047e-06,-1.7123497,0.0627404,-7.5048537,-0.31804594,-0.15294725,0.3708868,46.419407,40.0
464676771,1114122,2228234,0,0,0,0,0,702.3832,741.8334,702.3832,741.8334,0.011234102,0.0008551403,8.977224e-07,-1.7209123,-0.11872603,-9.136845,0.40866148,0.1672564,0.2115501,46.25,40.0
465694744,1114122,2228234,0,0,0,0,0,709.113,753.3329,709.113,753.3329,0.01874649,0.0008274844,8.2841564e-07,-0.64740324,0.28264025,-19.766273,-0.26881778,-0.00862715,0.21824582,46.253334,40.0
466695267,1114122,2228234,0,0,0,0,0,700.3067,738.5235,700.3067,738.5235,0.011095038,0.0005868742,1.0989569e-06,-0.36664927,0.059169393,-19.304533,-0.2860263,0.5488682,-0.21761975,46.054688,39.0
467702896,1114122,2228234,0,0,0,0,0,703.43805,737.0569,703.43805,737.0569,0.011815201,0.00080728077,3.0012318e-06,-0.8019998,-4.0688524,-9.339799,-0.82718974,-0.059591126,-0.13322163,45.875,39.0
469661776,1114122,2228234,0,0,0,0,0,703.9091,740.1268,703.9091,740.1268,0.009117635,0.00067506166,2.1441492e-06,-1.9438822,1.1876035,-4.441793,0.13575932,-0.16359341,0.7511835,45.734375,39.0
471707935,1114122,2228234,0,0,0,0,0,720.27637,741.22504,720.27637,741.22504,0.0114617,0.0012271169,2.833736e-06,-0.21180998,-2.6310096,-9.85762,-1.7629762,0.017657125,-0.04782775,45.451786,39.0
473649232,1114122,2228234,0,0,0,0,0,729.00867,741.2071,729.00867,741.2071,0.008976109,0.00088905636,1.4181884e-06,-0.657834,-0.11792477,-2.5877535,-0.94122946,-0.22843072,0.24374339,45.2125,38.0
475664860,1114122,2228234,0,0,0,0,0,729.00867,740.304,729.00867,740.304,0.013974613,0.00082776014,1.2541893e-06,-1.2765968,-0.40953797,-15.911752,0.08040458,0.7444669,-0.19892201,45.026787,39.0
476705218,1114122,2228234,0,0,0,0,0,729.00867,740.304,729.00867,740.304,0.011925728,0.000549774,1.0531332e-06,0.9640781,-0.668743,-12.173866,-0.7644198,0.13744414,0.07251002,44.945206,38.0
478701537,1114122,2228234,0,0,0,0,0,702.39716,738.1202,702.39716,738.1202,0.018649327,0.0010620013,1.1376824e-06,3.0955193,-0.5319684,-6.8621264,0.21052541,-0.25821093,-0.30925977,44.75,39.0
479676789,1114122,2228234,0,0,0,0,0,702.39716,753.7101,702.39716,753.7101,0.010865077,0.0005563637,6.469622e-07,2.2040975,-0.06347786,-6.9811487,-0.12571925,-0.26340762,0.13332857,44.735,38.0
480702642,1114122,2228234,0,0,0,0,0,702.39716,753.7101,702.39716,753.7101,0.011338993,0.00052276725,7.1204477e-07,1.0752605,-0.9904544,-7.120217,-0.16679518,0.038922403,0.34014004,44.517857,38.0
481645252,1114122,2228234,0,0,0,0,0,702.39716,753.06586,702.39716,753.06586,0.012665944,0.00062118657,1.0457898e-06,1.3610417,0.32384473,-17.795137,-0.17345358,0.25189397,0.4534887,44.441456,38.0
482715820,1114122,2228234,0,0,0,0,0,701.62286,736.4662,701.62286,736.4662,0.009745719,0.0004643301,8.824668e-07,2.2770877,-1.7937495,-20.426634,-0.45479468,0.28894252,0.15391695,44.25,38.0
483634845,1114122,2228234,0,0,0,0,0,717.22516,735.1505,717.22516,735.1505,0.010718487,0.0005601355,8.083015e-07,2.3334737,-1.089622,-10.309869,-0.38529927,-0.4282896,-0.18021607,44.233334,38.0
484674879,1114122,2228234,0,0,0,0,0,717.22516,735.6102,717.22516,735.6102,0.008067484,0.00046075296,8.384448e-07,2.453421,0.41184977,-5.696251,-0.0782203,-0.19450508,0.015246124,44.170956,38.0
486705355,1114122,2228234,0,0,0,0,0,706.3055,736.3252,706.3055,736.3252,0.009210888,0.0004595872,5.7244495e-07,1.7065468,-0.47299096,-11.609979,0.4553741,0.094520085,0.063056715,44.007355,37.0
487690806,1114122,2228234,0,0,0,0,0,691.5115,747.41736,691.5115,747.41736,0.017164724,0.0007676472,7.4062314e-07,2.0064356,-0.5875157,-11.90879,-0.16095464,0.03845817,0.20237955,43.95769,37.0
488706779,1114122,2228234,0,0,0,0,0,712.5117,737.79333,712.5117,737.79333,0.010346837,0.0005450399,7.385674e-07,2.1821191,0.42176116,-8.81573,-0.1953061,0.13305944,0.2388712,43.75,37.0
489687281,1114122,2228234,0,0,0,0,0,712.5117,736.77716,712.5117,736.77716,0.011471129,0.0006294495,8.4534486e-07,2.901438,-1.2058938,-12.614539,-0.28101948,0.12807558,0.36447176,43.71,37.0
490689815,1114122,2228234,0,0,0,0,0,712.5117,737.4516,712.5117,737.4516,0.008431826,0.0004705212,6.750331e-07,2.212489,-0.57425094,-10.512695,-0.28172287,0.096451096,0.3250243,43.61932,37.0
492705604,1114122,2228234,0,0,0,0,0,706.28534,737.34326,706.28534,737.34326,0.008848471,0.0004946292,7.762668e-07,1.5061051,0.034263413,-10.470255,0.34382412,0.20250663,-0.17706606,43.432693,36.0
493719560,1114122,2228234,0,0,0,0,0,724.625,737.291,724.625,737.291,0.013271051,0.0005764515,5.651908e-07,1.3286743,-0.65088046,-9.553115,-0.3494822,-0.010847056,0.21575448,43.33482,36.0
494650000,1114122,2228234,0,0,0,0,0,724.625,737.291,724.625,737.291,0.009425388,0.0005084577,5.0731717e-07,1.0536894,-0.11990035,-8.598792,-0.14764298,-0.010374567,0.15200782,43.195946,36.0
495702178,1114122,2228234,0,0,0,0,0,724.625,737.2192,724.625,737.2192,0.009940403,0.0005028178,4.715621e-07,0.39303526,0.29134446,-10.134855,-0.24611716,-0.04907586,0.067255765,43.15167,36.0
496660813,1114122,2228234,0,0,0,0,0,733.1421,740.9882,733.1421,740.9882,0.013473038,0.0004901374,3.566661e-07,0.1550249,-0.4862956,-9.40434,0.004641811,-0.0061740684,-0.047470007,43.050926,36.0
500654286,1114122,2228234,0,0,0,0,0,696.1771,736.8192,696.1771,736.8192,0.012125191,0.0005119954,9.322889e-07,0.10770278,2.0386539,-13.557061,-0.3870696,0.31791383,0.08680694,42.541668,36.0
501613265,1114122,2228234,0,0,0,0,0,708.7024,736.00665,708.7024,736.00665,0.011225438,0.0005041047,8.371778e-07,1.4022653,0.47226837,-18.341234,0.3659164,0.2662323,-0.076530315,42.576786,36.0
503675774,1114122,2228234,0,0,0,0,0,710.04114,737.4493,710.04114,737.4493,0.008713188,0.0005665497,9.675078e-07,1.8300737,0.42100263,-5.415046,-0.22279647,-0.18091911,-0.05313285,42.416668,35.0
505635050,1114122,2228234,0,0,0,0,0,712.22186,738.94305,712.22186,738.94305,0.01050287,0.0007088618,1.025875e-06,-0.765853,-0.5526599,-8.821705,0.37028742,0.08697734,0.04544631,42.3898,36.0
506657204,1114122,2228234,0,0,0,0,0,712.22186,738.94305,712.22186,738.94305,0.008883104,0.0005338507,9.153769e-07,-1.1275561,-0.43983793,-17.481016,-0.25741306,0.32609102,0.19045137,42.15,35.0
507687583,1114122,2228234,0,0,0,0,0,712.22186,738.94305,712.22186,738.94305,0.011253455,0.00062829227,1.0939813e-06,-2.1022003,-0.617555,-16.777452,0.3614914,0.37265906,0.058652803,42.005436,35.0
508700682,1114122,2228234,0,0,0,0,0,712.22186,738.94305,712.22186,738.94305,0.011082085,0.0006846568,1.3412329e-06,-0.8198871,-0.4057813,-17.745398,0.19084653,0.4246467,0.19169678,41.998375,35.0
509711172,1114122,2228234,0,0,0,0,0,709.48114,738.94305,709.48114,738.94305,0.008500185,0.00048796728,9.2119336e-07,-2.1413867,-0.3161778,-6.481104,0.28660914,0.23739508,0.09512116,42.0,35.0
510642737,1114122,2228234,0,0,0,0,0,708.09906,738.94305,708.09906,738.94305,0.010505324,0.0005666128,1.1505988e-06,-0.9381265,-0.0069016474,-10.333762,-0.32916564,0.13064952,0.46301615,41.90039,35.0
511697208,1114122,2228234,0,0,0,0,0,708.09906,732.6007,708.09906,732.6007,0.008213143,0.0004514786,8.338977e-07,-1.0765743,-0.28681657,-7.052542,-0.18385425,-0.1393318,0.36538702,41.945,35.0
512618396,1114122,2228234,0,0,0,0,0,704.95734,731.8529,704.95734,731.8529,0.008588304,0.00044505778,7.095158e-07,-0.73196316,-0.08227573,-7.8075247,-0.3574216,-0.14233842,0.18866895,41.7125,35.0
513637909,1114122,2228234,0,0,0,0,0,711.1012,734.07776,711.1012,734.07776,0.008610824,0.00051717577,9.997968e-07,0.76886743,-0.21641354,-17.518814,-0.0485125,0.41393414,-0.06755163,41.705883,35.0
514719274,1114122,2228234,0,0,0,0,0,705.7052,733.9405,705.7052,733.9405,0.008042836,0.00047326097,5.259165e-07,1.0168694,-0.25903144,-8.557346,-0.04855027,-0.103345186,0.15784733,41.778225,35.0
515639092,1114122,2228234,0,0,0,0,0,714.49567,735.43536,714.49567,735.43536,0.009484207,0.00057026965,5.828578e-07,1.3283658,-0.10046791,-6.8355994,-0.05470325,-0.254266,0.12802671,41.68077,35.0
516669520,1114122,2228234,0,0,0,0,0,715.5027,736.95123,715.5027,736.95123,0.00889323,0.00057535927,6.1307077e-07,-0.5220118,-0.13798648,-4.4516597,-0.24661921,-0.24534974,0.027556898,41.560715,35.0
517640515,1114122,2228234,0,0,0,0,0,715.5027,737.69354,715.5027,737.69354,0.012142215,0.0007603163,9.782849e-07,-1.2327057,-0.3196257,-14.126948,-0.33036032,0.18263994,-0.067404754,41.607143,35.0
518662768,1114122,2228234,0,0,0,0,0,715.5027,737.69354,715.5027,737.69354,0.01019802,0.00071081583,9.1976983e-07,-1.9327356,-1.7052563,-12.891102,0.68581575,0.25737476,-0.17934808,41.511986,35.0
519683099,1114122,2228234,0,0,0,0,0,700.9745,738.4464,700.9745,738.4464,0.009018592,0.0006347624,1.1459658e-06,-1.1349319,-0.8362339,-14.918441,-1.0203084,0.03736179,0.46282914,41.5,35.0
520709183,1114122,2228234,0,0,0,0,0,726.0027,738.4464,726.0027,738.4464,0.009087907,0.000599853,7.9607946e-07,-1.2584249,-0.3027537,-6.3997693,-0.5860339,-0.16497043,0.23007946,41.585526,35.0
521706784,1114122,2228234,0,0,0,0,0,700.43427,739.18585,700.43427,739.18585,0.00707896,0.00055150205,6.3624526e-07,-0.4910687,-0.13168511,-10.084129,0.41659606,-0.011137175,-0.40041265,41.5,35.0
522722803,1114122,2228234,0,0,0,0,0,703.4887,739.9475,703.4887,739.9475,0.009732656,0.0006384709,8.0004514e-07,-0.6278609,-0.2513688,-11.317798,0.17530055,-0.13411738,-0.03393166,41.375,35.0
523662446,1114122,2228234,0,0,0,0,0,703.2133,778.4616,703.2133,778.4616,0.019876901,0.00086758257,1.0856388e-06,-0.8785606,-0.75740445,-17.062136,-0.42744938,0.15796255,-0.20196019,41.25,35.0
524713075,1114122,2228234,0,0,0,0,0,702.25995,747.06714,702.25995,747.06714,0.01233567,0.0005514411,7.148066e-07,-1.6128076,-0.48513654,-5.121954,-0.5847273,-0.1544226,-0.105117254,41.25,34.0
525713753,1114122,2228234,0,0,0,0,0,719.9618,754.3697,719.9618,754.3697,0.0100908065,0.00052744296,1.1205923e-06,-1.9021423,-1.4814347,-10.133168,-1.0237393,0.08698497,0.13534352,41.27206,35.0
528709554,1114122,2228234,0,0,0,0,0,713.91034,744.9989,713.91034,744.9989,0.007575881,0.0005707986,8.8189364e-07,-0.4127436,-0.7471204,-5.2302475,0.11870733,-0.2122253,0.3489168,41.25,35.0
529707455,1114122,2228234,0,0,0,0,0,706.8856,744.1235,706.8856,744.1235,0.005907044,0.00041607127,1.0847245e-06,3.3611956,0.84365183,-15.991254,-0.9061987,0.604628,0.393025,41.0,35.0
530640571,1114122,2228234,0,0,0,0,0,715.4518,743.3103,715.4518,743.3103,0.009215061,0.0005954941,1.296231e-06,1.4759318,-0.28902742,-4.163915,-0.5944314,-0.6294648,-0.18028773,41.107693,35.0
532708769,1114122,2228234,0,0,0,0,0,706.8289,760.6375,706.8289,760.6375,0.017615605,0.0010320382,1.3065325e-06,1.6448605,-0.6425824,-8.818656,0.47267634,0.049625304,-0.38855276,41.0,35.0
533684243,1114122,2228234,0,0,0,0,0,693.5463,739.7953,693.5463,739.7953,0.010675668,0.0005459404,1.3475859e-06,6.191768,-1.9446806,-13.975849,0.25437373,0.47345635,-0.1051427,41.11905,35.0
535638501,1114122,2228234,0,0,0,0,0,708.84375,736.1426,708.84375,736.1426,0.010990606,0.00052647357,7.7507e-07,3.793266,-1.0050508,-4.971359,-0.36637646,-0.15619308,0.18285437,41.00514,35.0
536708909,1114122,2228234,0,0,0,0,0,703.8674,734.5202,703.8674,734.5202,0.0077152983,0.00045414208,8.878136e-07,2.6499755,-0.44054016,-7.586286,-0.6679875,-0.061111167,0.2816877,40.895832,35.0
537698747,1114122,2228234,0,0,0,0,0,705.98987,735.3024,705.98987,735.3024,0.008135147,0.00040124037,6.0443585e-07,2.4636822,0.53362006,-12.662809,0.294085,0.017134327,-0.063021965,41.070312,35.0
538627804,1114122,2228234,0,0,0,0,0,698.3677,734.5525,698.3677,734.5525,0.011295961,0.0004822667,7.885178e-07,2.586964,-0.849326,-14.409107,-0.2068937,0.16715923,-0.21319173,40.961666,35.0
539714579,1114122,2228234,0,0,0,0,0,712.1454,735.30817,712.1454,735.30817,0.008145853,0.0004069393,7.051103e-07,2.5912876,1.5835094,-6.309531,-0.03930501,-0.11734055,0.32190552,41.0,34.0
540634926,1114122,2228234,0,0,0,0,0,706.19147,736.0757,706.19147,736.0757,0.0075858585,0.0003985427,5.1227653e-07,2.4470112,0.6218416,-9.599084,0.3846296,0.17791599,0.1430547,40.875,35.0
541640956,1114122,2228234,0,0,0,0,0,705.40936,765.7642,705.40936,765.7642,0.020537835,0.00064906786,6.5315953e-07,2.360471,-0.28249675,-13.001744,0.08685283,0.17316164,0.11308334,40.8875,34.0
543651535,1114122,2228234,0,0,0,0,0,722.06165,747.9819,722.06165,747.9819,0.011029141,0.00047164533,7.511601e-07,1.8314835,0.55231476,-6.99646,-0.4112964,-0.3070948,0.3504626,40.75,34.0
545652758,1114122,2228234,0,0,0,0,0,723.886,738.2579,723.886,738.2579,0.009306908,0.000469212,6.210025e-07,0.7877431,-0.63880926,-9.517634,-0.32392633,-0.008210776,-0.027503343,40.672947,34.0
546710055,1114122,2228234,0,0,0,0,0,697.51184,742.5402,697.51184,742.5402,0.008350472,0.0004313648,5.939799e-07,-2.9274862,0.7944927,-5.2091556,-0.08733183,-0.1369655,0.08350998,40.625,34.0
547706850,1114122,2228234,0,0,0,0,0,700.86505,741.9166,700.86505,741.9166,0.008638299,0.00042738466,5.538525e-07,-3.3818617,1.2341655,-7.9747677,0.031506598,-0.1211506,-0.3204959,40.625,34.0
549704860,1114122,2228234,0,0,0,0,0,703.3807,736.97833,703.3807,736.97833,0.011773856,0.0005986516,2.385315e-06,0.8195471,-0.6612418,-29.098658,0.05712179,1.2231866,-0.06718551,40.625,34.0
551679690,1114122,2228234,0,0,0,0,0,714.9738,747.1623,714.9738,747.1623,0.024587845,0.0013728169,1.7324209e-06,1.7678349,-0.8488094,-11.8558445,0.7804389,0.7636683,0.2315466,40.5,33.0
553685614,1114122,2228234,0,0,0,0,0,703.32715,741.29474,703.32715,741.29474,0.011603827,0.0008553177,1.3892829e-06,3.3217478,0.31758332,-10.57405,0.64668983,0.34092516,0.033551026,40.40625,34.0
557683420,1114122,2228234,0,0,0,0,0,697.4098,757.98596,697.4098,757.98596,0.017717909,0.0007262788,5.8677233e-07,2.6622777,-0.22340071,-8.468155,0.00687195,0.041179482,-0.2109578,40.403408,34.0
559669157,1114122,2228234,0,0,0,0,0,706.02386,759.7444,706.02386,759.7444,0.025490217,0.0012540919,8.895445e-07,3.133739,0.19816704,-7.300761,-0.17896272,-0.036384024,0.1318436,40.368904,34.0
560713618,1114122,2228234,0,0,0,0,0,704.06366,746.4286,704.06366,746.4286,0.013249484,0.00074164965,6.485481e-07,3.553093,-1.1141902,-8.901812,-0.21749063,-0.03167501,-0.031644415,40.25,34.0
561709040,1114122,2228234,0,0,0,0,0,704.8577,743.3001,704.8577,743.3001,0.02244948,0.00074884057,6.807371e-07,3.8938358,-0.47322145,-10.585681,-0.054594267,-0.15524493,-0.06123263,40.25,34.0
562706972,1114122,2228234,0,0,0,0,0,701.3938,743.96936,701.3938,743.96936,0.010693191,0.00066183286,9.330717e-07,2.7622645,0.650283,-8.025633,0.20608544,-0.24552174,0.14047581,40.25,34.0
563694922,1114122,2228234,0,0,0,0,0,700.664,743.95044,700.664,743.95044,0.008544423,0.0006088527,6.8735335e-07,2.0322812,-0.646174,-10.7816105,-0.18403259,-0.1433691,0.24000186,40.29605,34.0
564690325,1114122,2228234,0,0,0,0,0,703.82153,742.3274,703.82153,742.3274,0.008011108,0.0005767602,5.8298235e-07,1.1143596,0.045991845,-8.640227,-0.08293838,0.11133702,0.1307473,40.1875,33.0
565701944,1114122,2228234,0,0,0,0,0,704.32855,741.5402,704.32855,741.5402,0.008982639,0.00063766504,9.288136e-07,1.0823973,-0.1168878,-16.185617,-0.21881463,0.22272187,-0.044746574,40.229168,34.0
566618482,1114122,2228234,0,0,0,0,0,703.5538,741.5402,703.5538,741.5402,0.010499633,0.00069494965,1.0738848e-06,1.1473639,-1.3158906,-12.569289,-0.11942001,0.24289833,0.10341429,40.125,34.0
567714639,1114122,2228234,0,0,0,0,0,709.30566,739.9542,709.30566,739.9542,0.010037064,0.0006807083,1.0154283e-06,1.4881959,-0.9517689,-11.082819,-0.21338937,0.18445131,0.20350935,40.125,34.0
568689918,1114122,2228234,0,0,0,0,0,698.4511,771.0329,698.4511,771.0329,0.018355068,0.0011155483,1.1431051e-06,1.8447521,-0.26592967,-7.191773,-0.8224837,-0.4875563,0.09975647,40.25,34.0
569683153,1114122,2228234,0,0,0,0,0,704.89703,746.1735,704.89703,746.1735,0.011654289,0.0008272314,9.653006e-07,1.9799743,-0.7794794,-5.98842,-0.08786546,-0.26352248,-0.11088078,40.125,34.0
570614031,1114122,2228234,0,0,0,0,0,720.93695,739.7091,720.93695,739.7091,0.008353018,0.0006099048,8.2980046e-07,1.1705078,-0.07670041,-6.1928387,-0.04891785,-0.28849107,-0.10088016,40.074627,33.87143
571669261,1114122,2228234,0,0,0,0,0,720.93695,737.5126,720.93695,737.5126,0.008915411,0.00060894084,5.875792e-07,0.60070884,-0.34580442,-12.759023,-0.038206235,0.22384924,0.05466375,40.0625,33.0
572696020,1114122,2228234,0,0,0,0,0,720.93695,738.7905,720.93695,738.7905,0.009198345,0.00061090215,5.954483e-07,-0.25947025,-0.4732022,-12.760415,0.11621725,0.1598253,0.07947643,40.00169,33.0
573624975,1114122,2228234,0,0,0,0,0,720.93695,738.07526,720.93695,738.07526,0.0106872255,0.0007248812,8.7303226e-07,-0.6082968,-0.46755776,-11.660037,-0.1502273,0.16107377,0.2278652,40.058334,33.0
574669524,1114122,2228234,0,0,0,0,0,720.93695,739.58704,720.93695,739.58704,0.010515152,0.00073586643,1.0177438e-06,-0.3895296,0.3279067,-8.045531,-0.2468584,0.1728453,0.3096657,40.014706,33.0
575626150,1114122,2228234,0,0,0,0,0,720.93695,741.0856,720.93695,741.0856,0.010399009,0.0006965172,1.3573842e-06,0.9127539,0.26106018,-10.864732,0.25991085,0.25513458,0.19888712,39.97711,33.0
576682651,1114122,2228234,0,0,0,0,0,706.96765,740.25006,706.96765,740.25006,0.010502983,0.00073356996,1.357798e-06,1.3657322,-0.39325762,-11.157754,0.094312266,0.3676961,0.27311394,39.892857,33.0
577658083,1114122,2228234,0,0,0,0,0,734.41626,756.6315,734.41626,756.6315,0.013277956,0.00080545066,9.79806e-07,1.5746641,-0.3169312,-6.891568,-0.23405513,-0.067429274,0.21165009,39.993244,33.0
578716642,1114122,2228234,0,0,0,0,0,734.41626,740.029,734.41626,740.029,0.010105871,0.0007194422,7.904759e-07,2.2188728,-0.30546123,-14.671584,-0.8268025,-0.2041033,0.16573958,39.922077,33.0
580699302,1114122,2228234,0,0,0,0,0,734.41626,741.1794,734.41626,741.1794,0.009041548,0.00063072745,1.3299182e-06,0.24467315,-0.911538,-12.273043,0.18133372,0.29853883,0.2003777,39.98036,33.0
581712432,1114122,2228234,0,0,0,0,0,708.5483,740.3876,708.5483,740.3876,0.009132086,0.00058442657,1.125206e-06,-0.32212576,-0.85843176,-12.991526,-0.43092704,0.1624299,0.35298586,39.851562,33.0
582640308,1114122,2228234,0,0,0,0,0,706.71594,740.37805,706.71594,740.37805,0.013109751,0.00082295807,1.1548974e-06,-0.7116739,-0.41829914,-9.840013,-0.7945258,0.13346845,-0.0259216,39.850353,33.0
583660591,1114122,2228234,0,0,0,0,0,710.3771,741.1313,710.3771,741.1313,0.014577012,0.0007122358,1.1638055e-06,-1.8781234,-2.3319974,-4.030597,-0.31516695,0.10362681,-0.012770006,39.77226,33.0
584648945,1114122,2228234,0,0,0,0,0,714.31384,741.0411,714.31384,741.0411,0.0107062785,0.0008609368,1.2956536e-06,-1.3850598,-1.5676144,0.5307902,-0.78639895,-0.1971525,0.2626301,39.801785,33.0
585644061,1114122,2228234,0,0,0,0,0,714.31384,740.18677,714.31384,740.18677,0.010721554,0.00087264134,2.0019488e-06,-1.3617309,0.35213497,-5.229995,-1.1358156,-0.028091813,0.65957344,39.75,33.0
587680541,1114122,2228234,0,0,0,0,0,700.91144,740.92865,700.91144,740.92865,0.008193486,0.0006241654,8.504662e-07,-1.4257776,1.1867535,-7.7279043,0.060756307,0.013697804,-0.19748302,39.625,32.0
588693476,1114122,2228234,0,0,0,0,0,702.45404,740.92865,702.45404,740.92865,0.012819606,0.0007098816,5.9821633e-07,-1.347181,-0.6554088,-8.980228,0.0012726976,-0.029579561,0.08626486,39.56678,32.0
589678249,1114122,2228234,0,0,0,0,0,716.80634,743.33124,716.80634,743.33124,0.01569745,0.0008385196,7.825086e-07,-1.3342967,0.4477267,-11.197527,-0.021409169,-0.09045473,-0.11166922,39.625,33.0
590703447,1114122,2228234,0,0,0,0,0,716.80634,732.8962,716.80634,732.8962,0.012829399,0.00074517477,8.663679e-07,-0.39259002,-0.06565309,-14.457248,-0.21087621,0.1604228,-0.22500904,39.70625,33.0
591666463,1114122,2228234,0,0,0,0,0,727.5635,736.3553,727.5635,736.3553,0.014766079,0.00083358324,1.2359811e-06,-1.3142288,-0.09589014,-12.780048,-0.3340996,0.1354389,0.015572072,39.711956,33.0
592712026,1114122,2228234,0,0,0,0,0,704.25366,736.23663,704.25366,736.23663,0.010495255,0.00064974267,8.724327e-07,-1.3659198,-0.5915522,-10.988089,0.12308705,-0.06250096,0.09697334,39.625,33.0
594697676,1114122,2228234,0,0,0,0,0,722.6319,740.0241,722.6319,740.0241,0.009361618,0.0006062323,1.3317548e-06,-1.682295,0.12179928,-14.798648,-1.0410148,-0.21301928,0.50272584,39.625,33.0
595620473,1114122,2228234,0,0,0,0,0,722.6319,740.0241,722.6319,740.0241,0.007881486,0.00049444725,8.114423e-07,-3.1432617,0.5924832,-8.097527,0.3495733,0.003518909,-0.021555468,39.60552,33.0
596693999,1114122,2228234,0,0,0,0,0,722.6319,736.51526,722.6319,736.51526,0.019038584,0.0009988631,1.5742687e-06,-0.8559614,0.27430752,-16.900286,0.69585556,0.40183434,-0.23985785,39.539062,33.0
597709024,1114122,2228234,0,0,0,0,0,710.01666,739.78754,710.01666,739.78754,0.0102518005,0.00080091134,1.3595698e-06,0.46340036,-0.5292669,-10.76161,-0.14143941,-0.2911469,-0.19805127,39.479168,33.0
598664836,1114122,2228234,0,0,0,0,0,708.05865,740.6058,708.05865,740.6058,0.0077770166,0.00068781106,1.2462754e-06,0.8572506,0.3504864,-6.7832913,0.39370131,-0.102033675,-0.54575527,39.569443,33.0
599715095,1114122,2228234,0,0,0,0,0,705.0949,741.3929,705.0949,741.3929,0.014203233,0.0008228608,1.0540693e-06,1.5938894,-1.1577086,-14.027291,-0.46267697,0.07160124,0.18621518,39.54228,33.0
600705214,1114122,2228234,0,0,0,0,0,698.1869,768.36115,698.1869,768.36115,0.012999359,0.00090285717,1.8438917e-06,-0.97312,3.8168266,-8.719041,-0.013881193,-0.30193165,0.28199413,39.375,33.0
601686624,1114122,2228234,0,0,0,0,0,716.94977,768.36115,716.94977,768.36115,0.023267312,0.0012211933,1.4657883e-06,-0.52720994,0.99667525,-12.0346985,0.22846627,-0.024106042,-0.020181661,39.450703,33.0
602631063,1114122,2228234,0,0,0,0,0,726.98193,761.1178,726.98193,761.1178,0.02467011,0.0017523943,1.6499217e-06,-1.1866753,-0.38254398,-11.074212,0.4143383,0.020549506,-0.091713876,39.5137,33.0
604619051,1114122,2228234,0,0,11,0,0,706.61053,739.89233,706.61053,739.89233,0.095588095,0.006728067,8.0350466e-05,2.536041,4.59537,-21.047789,0.083799906,0.058436926,-0.39747253,39.536766,33.0
605638007,1114122,2228234,0,0,11,0,0,706.71014,741.4322,706.71014,741.4322,0.020880157,0.0014694653,1.2541279e-05,0.52959657,0.18496992,-9.416521,0.5543751,0.047770485,-0.019935783,39.5,33.0
606618181,1114122,2228234,0,0,11,0,0,699.7861,759.15753,699.7861,759.15753,0.02225954,0.0020547428,7.082565e-06,3.86103,-1.3878069,-12.011107,0.30987117,0.32189214,-0.8429538,39.560764,33.0
609646308,1114122,2228234,0,0,11,0,0,704.83765,739.5357,704.83765,739.5357,0.04145051,0.00446942,1.0819238e-05,1.5818906,-1.3285022,-11.526917,-1.0592643,-0.4018984,0.49726197,39.563595,34.0
610640197,1114122,2228234,0,0,11,0,0,704.83765,755.45844,704.83765,755.45844,0.0546803,0.0051932954,2.2991642e-05,5.051482,-1.423084,-19.34271,0.24835874,0.7669984,-0.6792358,39.616776,34.0
611692166,1114122,2228234,0,0,11,0,0,704.83765,748.07465,704.83765,748.07465,0.09851359,0.013098425,3.7499205e-05,2.7998738,1.6359028,-3.9987326,1.2480223,-0.42791766,0.26183704,39.51875,33.0
612653824,1114122,2228234,0,0,11,0,0,704.83765,742.582,704.83765,742.582,0.22196198,0.032771587,0.00012235845,2.521254,1.3146964,-25.072065,0.40179685,0.6883994,0.44539508,39.5,33.0
613705713,1114122,2228234,0,0,11,0,0,704.83765,741.5345,704.83765,741.5345,0.29542235,0.043884635,0.00018955153,1.1336249,4.073659,-7.268902,-0.81435543,0.21457984,0.6547448,39.5,34.0
616714497,1114122,2228234,0,0,11,0,0,705.99915,741.34344,705.99915,741.34344,0.054128572,0.0042074523,1.2923257e-05,0.8512867,0.6202157,-11.505329,0.7539048,0.008905468,-0.17993742,39.625,34.0
617688860,1114122,2228234,0,0,11,0,0,706.1285,739.01685,706.1285,739.01685,0.06420044,0.006349322,6.333933e-05,-1.759294,-5.79938,18.764133,-1.2218314,-0.005262108,-0.8197632,39.625,34.0
618712973,1114122,2228234,0,0,11,0,0,704.7606,739.76764,704.7606,739.76764,0.04137636,0.0038544529,2.3418539e-05,0.94454646,1.5550196,-10.043898,-0.07625612,0.025962615,-0.007330112,39.7375,34.0
619655615,1114122,2228234,0,0,11,0,0,702.29785,740.5132,702.29785,740.5132,0.008425087,0.00062734267,3.5484738e-06,0.22151622,1.5949955,-9.827471,-0.027221326,-0.013722778,-0.012931145,39.735714,34.0
620713725,1114122,2228234,0,0,11,0,0,716.8409,741.2624,716.8409,741.2624,0.0040535475,0.00011328193,4.3832486e-07,0.16352378,1.5819,-9.89113,-0.015683735,-0.002783174,-0.026674917,39.75,34.0
621706525,1114122,2228234,0,0,11,0,0,705.22186,741.2624,705.22186,741.2624,0.002439654,5.1211424e-05,6.3716165e-08,0.20802893,1.5331875,-9.792748,-0.015579023,-0.01574859,-0.014880575,39.75,34.0
622656985,1114122,2228234,0,0,11,0,0,706.0598,741.2624,706.0598,741.2624,0.0023648243,4.463923e-05,1.3063885e-08,0.32062197,1.565147,-9.8392725,-0.028655825,-0.010464646,-0.00882879,39.75,35.0
623705147,1114122,2228234,0,0,11,0,0,708.4655,746.1438,708.4655,746.1438,0.0027291009,4.247073e-05,5.288795e-09,0.24432571,1.6525853,-9.781893,-0.033808794,-0.0047921,-0.011819449,39.875,35.0
624682933,1114122,2228234,0,0,11,0,0,707.593,751.5185,707.593,751.5185,0.0019328878,4.1183524e-05,3.952872e-09,0.20419428,1.5701971,-9.918889,-0.015104161,-0.011262404,-0.007892624,39.875,35.0
626711445,1114122,2228234,0,0,11,0,0,706.7952,739.7979,706.7952,739.7979,0.002510009,4.0449027e-05,4.043786e-09,0.07908166,1.5654618,-9.959167,-0.019759785,-0.011161988,-0.011316143,39.90625,35.0
627711946,1114122,2228234,0,0,11,0,0,706.8156,740.9509,706.8156,740.9509,0.0030136488,4.077528e-05,3.8372754e-09,0.20599096,1.582663,-9.8508415,-0.024778632,-0.0071118805,-0.011797536,40.0,35.0
628659790,1114122,2228234,0,0,11,0,0,706.06726,742.48645,706.06726,742.48645,0.0023044609,3.940355e-05,3.7650056e-09,0.1466798,1.6128039,-9.914182,-0.019783981,-0.009730373,-0.0066413865,40.070946,35.0
630710872,1114122,2228234,0,0,11,0,0,705.30194,742.42523,705.30194,742.42523,0.002898054,3.8142003e-05,3.3971579e-09,0.1511682,1.5702422,-9.861818,-0.01752473,-0.009043391,-0.008692341,40.13246,36.0
631711163,1114122,2228234,0,0,11,0,0,705.30194,741.564,705.30194,741.564,0.0030966683,4.247283e-05,3.6502044e-09,0.18534939,1.5431467,-9.864957,-0.018395746,-0.010876674,-0.010776347,40.16,36.0
632631707,1114122,2228234,0,0,11,0,0,705.30194,741.50507,705.30194,741.50507,0.002390328,4.264667e-05,3.6316603e-09,0.17905663,1.5384401,-9.891172,-0.0134345535,-0.009781827,-0.005661945,40.264343,36.0
633647068,1114122,2228234,0,0,11,0,0,705.30194,741.50507,705.30194,741.50507,0.0016900022,3.990332e-05,3.5146808e-09,0.13368006,1.536474,-9.943648,-0.013808569,-0.008866275,-0.015506613,40.35294,36.0
635713429,1114122,2228234,0,0,11,0,0,701.0349,740.69403,701.0349,740.69403,0.0022703707,3.8597424e-05,3.2235936e-09,0.07371611,1.51331,-9.872355,-0.014587111,-0.008614118,-0.024430301,40.375,36.0
637696817,1114122,2228234,0,0,11,0,0,704.2357,755.74756,704.2357,755.74756,0.0024229058,4.0542032e-05,3.5905656e-09,0.1397447,1.5561187,-9.813351,-0.020930793,-0.005961621,-0.008682414,40.52222,36.0
638687279,1114122,2228234,0,0,11,0,0,704.77747,735.9175,704.77747,735.9175,0.0025185456,3.744643e-05,3.1958436e-09,0.13684893,1.4505485,-9.725629,-0.016997239,-0.010912552,-0.01879161,40.625,36.0
639712749,1114122,2228234,0,0,11,0,0,703.76544,737.6996,703.76544,737.6996,0.0026265094,3.869255e-05,3.2833685e-09,0.19521137,1.5716816,-9.756971,-0.018068425,-0.007338825,-0.017601896,40.625,36.0
640668919,1114122,2228234,0,0,11,0,0,704.5661,736.30615,704.5661,736.30615,0.0028963313,4.513529e-05,4.1316253e-09,0.1823501,1.6065017,-9.93128,-0.007841373,-0.0054645776,-0.014886231,40.708332,37.0
642654500,1114122,2228234,0,0,11,0,0,704.52405,738.53107,704.52405,738.53107,0.0022777787,5.135364e-05,6.9996653e-09,0.16318624,1.7270844,-9.858282,-0.04892452,-0.028473733,0.058916863,40.7875,37.0
643689764,1114122,2228234,0,0,11,0,0,704.5503,737.6836,704.5503,737.6836,0.0024379478,4.780266e-05,4.6411492e-09,0.0743685,1.6409533,-9.838143,-0.014920041,-0.009933953,-0.014149649,40.885418,36.0
644636519,1114122,2228234,0,0,11,0,0,703.8372,739.1695,703.8372,739.1695,0.0020514,4.079571e-05,3.5256227e-09,0.06518597,1.6809688,-9.799034,-0.011596482,-0.009470983,-0.00966366,40.771553,37.0
645686826,1114122,2228234,0,0,11,0,0,704.56866,738.3713,704.56866,738.3713,0.002313971,4.1926898e-05,3.8874353e-09,0.1047575,1.7074819,-9.827145,-0.018463355,-0.010264054,-0.0070133577,40.933098,37.0
646663658,1114122,2228234,0,0,11,0,0,704.56866,739.1124,704.56866,739.1124,0.0024479835,4.409054e-05,3.776036e-09,0.11746035,1.6631473,-9.832841,-0.011208829,-0.0077994834,-0.015019753,40.9625,37.0
647666853,1114122,2228234,0,0,11,0,0,704.56866,738.3491,704.56866,738.3491,0.001916117,4.1331914e-05,3.3396315e-09,0.17313385,1.6832011,-9.822358,-0.019529277,-0.008312328,-0.0037340438,41.08446,37.0
648634855,1114122,2228234,0,0,11,0,0,720.8393,738.3491,720.8393,738.3491,0.0021456482,4.2167685e-05,3.569882e-09,0.017764702,1.6726254,-9.92613,-0.014572709,-0.012268421,-0.008419117,41.0,37.0
649637862,1114122,2228234,0,0,11,0,0,720.8393,739.09204,720.8393,739.09204,0.0021113087,3.920545e-05,3.242127e-09,0.13029091,1.6462156,-9.882417,-0.017778177,-0.009510093,-0.010431284,41.184784,37.0
650710885,1114122,2228234,0,0,11,0,0,705.19305,768.0958,705.19305,768.0958,0.0020892338,4.13138e-05,3.1517378e-09,0.12340247,1.833794,-9.809153,-0.014780457,-0.0080491565,-0.014125029,41.175,38.0
651704964,1114122,2228234,0,0,11,0,0,704.99493,768.0958,704.99493,768.0958,0.0028268222,4.027146e-05,3.0834721e-09,0.13409328,1.6169559,-9.797964,-0.010602651,-0.008365748,-0.008104188,41.25,37.0
652695279,1114122,2228234,0,0,11,0,0,702.6334,737.34973,702.6334,737.34973,0.0025099248,3.946469e-05,3.03693e-09,0.094840415,1.7266773,-9.787002,-0.009375424,-0.008223057,-0.011116315,41.345,38.0
653680029,1114122,2228234,0,0,11,0,0,702.41064,739.28,702.41064,739.28,0.0026654387,3.8209615e-05,2.9083447e-09,0.14015494,1.6121156,-9.810858,-0.009300672,-0.008035335,-0.011501917,41.388393,38.0
654690390,1114122,2228234,0,0,11,0,0,702.3924,738.1999,702.3924,738.1999,0.0022244744,4.11264e-05,3.0496101e-09,0.15997776,1.6727904,-9.811905,-0.01431974,-0.010481226,-0.0068104686,41.421875,38.0
655717095,1114122,2228234,0,0,11,0,0,702.3376,738.16736,702.3376,738.16736,0.002731004,3.8751685e-05,2.7634162e-09,0.10645231,1.6258755,-9.856951,-0.01427923,-0.008993028,-0.0018707901,41.532536,38.0
656711895,1114122,2228234,0,0,11,0,0,703.0354,738.16736,703.0354,738.16736,0.002072641,3.822921e-05,2.7530191e-09,0.12488827,1.6360967,-9.833058,-0.013344758,-0.0059536244,-0.008410043,41.55529,38.0
657649517,1114122,2228234,0,0,11,0,0,703.05505,738.1827,703.05505,738.1827,0.0018123288,3.904562e-05,2.794819e-09,0.14933918,1.6090823,-9.808517,-0.01191982,-0.0076793483,-0.011596204,41.67857,38.0
658642623,1114122,2228234,0,0,11,0,0,703.0825,738.1657,703.0825,738.1657,0.0023208794,3.965025e-05,2.8318627e-09,0.1339016,1.6592584,-9.872831,-0.01704619,-0.0072751436,-0.009285988,41.75,38.0
659703145,1114122,2228234,0,0,11,0,0,703.80225,738.8774,703.80225,738.8774,0.0027293027,3.7689908e-05,2.6037277e-09,0.15015751,1.6272826,-9.890201,-0.009103007,-0.004155619,-0.014324567,41.705883,38.0
660616162,1114122,2228234,0,0,11,0,0,703.80225,738.8774,703.80225,738.8774,0.0021997355,3.709155e-05,2.4328386e-09,0.11490261,1.6430701,-9.812456,-0.011777043,-0.007954221,-0.007961545,41.75893,38.0
661634519,1114122,2228234,0,0,11,0,0,703.80225,738.8774,703.80225,738.8774,0.0016840476,3.9848444e-05,2.5338098e-09,0.124072306,1.5868019,-9.773398,-0.009197082,-0.003284067,-0.011942581,41.830128,38.0
662657402,1114122,2228234,0,0,11,0,0,703.80225,738.8774,703.80225,738.8774,0.0020570455,3.7759197e-05,2.3539286e-09,0.08544369,1.5617288,-9.781817,-0.011497369,-0.008059818,-0.006361228,41.85536,38.0
663687708,1114122,2228234,0,0,11,0,0,703.80225,738.8774,703.80225,738.8774,0.002601673,3.8424347e-05,2.6357647e-09,0.07612718,1.552044,-9.796088,-0.0007657724,-0.0041625914,-0.01752924,41.985916,39.0
664669352,1114122,2228234,0,0,11,0,0,700.1246,753.8018,700.1246,753.8018,0.008225132,4.629638e-05,2.9583676e-09,0.054233845,1.5906272,-9.770059,-0.014572762,-0.0021886665,-0.008390629,42.034092,39.0
666694628,1114122,2228234,0,0,11,0,0,701.1049,738.0711,701.1049,738.0711,0.0035976574,4.1151576e-05,2.6181013e-09,0.10153936,1.5402877,-9.839791,-0.020507444,-0.0078873085,-0.008089675,42.072727,39.0
667697566,1114122,2228234,0,0,11,0,0,700.1631,739.5067,700.1631,739.5067,0.0024116524,4.043983e-05,2.6619265e-09,0.07731584,1.5272086,-9.758477,-0.011133044,-0.008592805,-0.012030824,42.125,39.0
668665507,1114122,2228234,0,0,11,0,0,702.11426,740.867,702.11426,740.867,0.0018593778,3.7698694e-05,2.3255915e-09,0.16258514,1.4330875,-9.730302,-0.011368427,-0.0019023458,-0.006904694,42.28125,40.0
669708724,1114122,2228234,0,0,11,0,0,702.76227,739.2733,702.76227,739.2733,0.0024042868,3.766896e-05,2.3059175e-09,0.120725684,1.5178666,-9.744821,-0.010848043,-0.007331355,-0.007533932,42.300323,39.293335
670634205,1114122,2228234,0,0,11,0,0,702.05615,738.3798,702.05615,738.3798,0.0028550455,3.822749e-05,2.3975324e-09,0.16390638,1.5915169,-9.921096,-0.009538221,-0.0071120313,-0.005594137,42.375,39.0
671670653,1114122,2228234,0,0,11,0,0,702.8498,739.1394,702.8498,739.1394,0.002994711,4.0044713e-05,2.4726277e-09,0.17055133,1.52693,-9.854581,-0.011794163,-0.005678994,-0.006813783,42.44014,39.0
672690426,1114122,2228234,0,0,11,0,0,702.84125,739.1394,702.84125,739.1394,0.0023051735,4.144205e-05,2.4282323e-09,0.14177932,1.5633171,-9.754481,-0.008628722,-0.006747947,-0.0050425828,42.405865,39.0
673618391,1114122,2228234,0,0,11,0,0,702.83405,739.1301,702.83405,739.1301,0.0023922243,3.7964768e-05,2.2926148e-09,0.16492099,1.5612531,-9.83308,-0.013531398,-0.0058309594,-0.0064530107,42.5,39.0
674636471,1114122,2228234,0,0,11,0,0,702.83405,739.1301,702.83405,739.1301,0.0025341883,3.809725e-05,2.256912e-09,0.13462257,1.5313412,-9.848238,-0.010427005,-0.006164038,-0.008716638,42.57986,39.0
675659507,1114122,2228234,0,0,11,0,0,702.83405,739.1301,702.83405,739.1301,0.0019842787,3.8837796e-05,2.5357718e-09,0.14350602,1.5170945,-9.8347845,-0.012637882,-0.0034447962,-0.014674869,42.658928,40.0
676642508,1114122,2228234,0,0,11,0,0,702.11487,739.1301,702.11487,739.1301,0.0025670258,3.9286675e-05,2.30622e-09,0.092207514,1.5574492,-9.784017,-0.00955888,-0.0055375705,-0.0050020646,42.715626,40.0
677658216,1114122,2228234,0,0,11,0,0,707.15985,739.1301,707.15985,739.1301,0.0023499073,3.9180602e-05,2.4292546e-09,0.14505321,1.5173699,-9.772768,-0.006856693,-0.0070953686,-0.0021526148,42.75,40.0
678696184,1114122,2228234,0,0,11,0,0,704.0752,762.624,704.0752,762.624,0.0026466213,4.4560842e-05,7.2448962e-09,0.17459613,1.0818986,-9.934081,-0.048464406,-0.005315822,-0.014653015,42.833332,40.0
679684444,1114122,2228234,0,0,11,0,0,705.38477,738.0062,705.38477,738.0062,0.0020856757,4.6051933e-05,9.0466035e-09,0.13805091,0.73737776,-9.88092,-0.043719247,-0.008903718,-0.02064718,42.890625,40.0
680637319,1114122,2228234,0,0,11,0,0,704.7838,735.7447,704.7838,735.7447,0.002410317,4.5722227e-05,1.48656465e-08,0.085462146,1.4018059,-9.915616,-0.19883417,-0.029965835,-0.015985098,43.0,40.0
681675629,1114122,2228234,0,0,11,0,0,704.85547,736.5488,704.85547,736.5488,0.0022506563,4.4884007e-05,5.328109e-09,0.2069044,1.2984486,-9.807578,-0.011745889,-0.00825799,-0.0049493993,43.0,40.0
682682375,1114122,2228234,0,0,11,0,0,705.58484,736.6135,705.58484,736.6135,0.0024891444,4.269838e-05,2.8509417e-09,0.21443573,1.3142984,-9.862686,-0.022899654,-0.007109768,-0.010089302,43.002605,40.0
683695550,1114122,2228234,0,0,11,0,0,705.37646,737.36926,705.37646,737.36926,0.0021393946,4.2470892e-05,2.544941e-09,0.11235075,1.2746844,-9.875655,-0.009602746,-0.0030966434,-0.009513306,43.125,40.0
684647364,1114122,2228234,0,0,11,0,0,704.63116,738.0867,704.63116,738.0867,0.002312076,4.1286927e-05,2.0808772e-09,0.16003604,1.3054944,-9.836219,-0.0078827245,-0.0053168857,-0.0051057995,43.135868,40.0
685627938,1114122,2228234,0,0,11,0,0,704.63116,737.279,704.63116,737.279,0.0023884133,3.8932874e-05,2.1153361e-09,0.109397754,1.3135443,-9.84431,-0.0068683284,-0.005683475,-0.008268295,43.239582,40.0
686653802,1114122,2228234,0,0,11,0,0,704.63116,737.26447,704.63116,737.26447,0.002648351,3.8038026e-05,2.2497018e-09,0.145298,1.3711597,-9.804425,-0.00886866,-0.0054550227,-0.0069219405,43.291138,40.0
688694734,1114122,2228234,0,0,11,0,0,702.5262,737.26447,702.5262,737.26447,0.0022846644,4.329862e-05,2.3429536e-09,0.080198705,1.1835142,-9.899979,-0.014559644,0.0012642498,-0.015575155,43.25,40.0
689716600,1114122,2228234,0,0,11,0,0,701.25415,736.51526,701.25415,736.51526,0.0031654513,4.0895142e-05,2.3214581e-09,0.21018313,1.2958338,-9.742277,0.0034427312,0.0011359324,-0.005616541,43.375,40.0
690688261,1114122,2228234,0,0,11,0,0,703.82526,737.2536,703.82526,737.2536,0.0025001422,4.0365943e-05,2.1947077e-09,0.15715459,1.2200228,-9.775315,-0.019973109,-0.005681536,-0.006001973,43.48611,40.0
691711847,1114122,2228234,0,0,11,0,0,704.1275,740.9005,704.1275,740.9005,0.0021456024,4.1834028e-05,2.5382796e-09,0.11231821,1.3525954,-9.74056,-0.0070570246,-0.0059866654,-0.0130507555,43.541668,40.0
692707785,1114122,2228234,0,0,11,0,0,703.86383,738.1314,703.86383,738.1314,0.002250701,4.2097265e-05,2.1886237e-09,0.026315393,1.3054043,-9.912285,-0.009260685,-0.010636593,-0.007044306,43.625,41.0
693702697,1114122,2228234,0,0,11,0,0,703.1868,740.03503,703.1868,740.03503,0.0026145505,4.2055628e-05,2.1256144e-09,0.15026237,1.2880504,-9.825148,-0.005778516,-0.0032747113,-0.0089298645,43.675,41.0
694700692,1114122,2228234,0,0,11,0,0,703.77625,738.9224,703.77625,738.9224,0.002471678,4.0269275e-05,2.421489e-09,0.14811382,1.4171945,-9.856383,0.0048160776,0.000517225,-0.0050111143,43.875,41.0
695664001,1114122,2228234,0,0,11,0,0,703.05554,739.58014,703.05554,739.58014,0.0018694148,4.0203682e-05,2.0402695e-09,0.14427516,1.2251194,-9.794322,-0.0059120376,-0.007096727,-0.0046709366,43.75,40.0
696674577,1114122,2228234,0,0,11,0,0,704.48804,738.7415,704.48804,738.7415,0.002175776,4.2683598e-05,2.5041704e-09,0.051032,1.3935404,-9.784141,-0.014695177,-0.013962554,-0.002975144,43.75,41.0
697647454,1114122,2228234,0,0,11,0,0,703.7494,738.6913,703.7494,738.6913,0.0028887282,4.5875884e-05,4.205983e-09,0.10274835,1.3684467,-9.792984,-0.0151081355,-0.0035727483,-0.006198756,43.778984,41.0
