timestamp,timestamp_sample,yaw_composite,yaw_variance,yaw[0],yaw[1],yaw[2],yaw[3],yaw[4],innov_vn[0],innov_vn[1],innov_vn[2],innov_vn[3],innov_vn[4],innov_ve[0],innov_ve[1],innov_ve[2],innov_ve[3],innov_ve[4],weight[0],weight[1],weight[2],weight[3],weight[4]
427225940,427223643,-0.79596776,3.7405882,-2.4856427,-1.2290068,0.02762781,1.2842646,2.540904,0.0,0.0,0.0,0.0,0.0,0.0,0.0,0.0,0.0,0.0,0.2,0.2,0.2,0.2,0.2
427236199,427233651,-0.74063945,3.7885995,-2.4825926,-1.2259568,0.030677488,1.287314,2.5439537,0.0,0.0,0.0,0.0,0.0,0.0,0.0,0.0,0.0,0.0,0.2,0.2,0.2,0.2,0.2
428226904,428224443,-0.51411897,3.709648,-2.4549704,-1.2038233,0.030251773,1.2782707,2.552264,-3.6193638,-0.8872075,0.6478653,-1.1020646,-3.7793655,-1.03981,-1.7515852,0.5951803,2.81411,1.8126069,0.19619438,0.207575,0.20845978,0.19757849,0.1901924
429227363,429225210,-0.38300732,3.07623,-2.5825171,-1.322257,-0.14555919,1.0568779,2.3597524,-5.8485045,-4.259369,-1.5195718,-1.0997095,-3.8235312,2.2853694,-0.18763828,0.4285779,3.2676902,4.6082892,0.17491955,0.22055857,0.23892757,0.2011459,0.16444838
430228069,430225979,-0.39447826,2.6905656,-2.640851,-1.3671188,-0.2416814,0.91590154,2.239081,0.04726267,-0.1645832,1.2314124,2.5057297,1.913568,6.2213945,4.486864,3.7526498,4.7504597,6.4410076,0.15315767,0.22938552,0.2696174,0.20596798,0.1418714
431228618,431226761,-0.37093925,2.6475933,-2.6588447,-1.3781625,-0.25593618,0.8945492,2.2145665,1.6859617,1.0103159,0.7867513,1.2152462,1.8441114,1.0089498,1.0127826,0.45773268,0.012974262,0.2946849,0.14959027,0.22750737,0.2730093,0.20908473,0.14080825
432234360,432227479,-0.195874,2.714204,-2.3721945,-1.1065513,0.015867623,1.1791862,2.5130966,-2.7639036,-2.7784724,-3.913138,-4.795127,-4.185749,-0.42424965,0.92572665,1.3576453,0.48375392,-0.7797847,0.15647763,0.23334491,0.26773462,0.20144525,0.1409976
433220074,433218207,-0.43645525,2.8400912,-2.3015537,-1.0766841,0.033012804,1.222188,2.597185,-3.0709457,-2.5665226,-3.678895,-5.0860496,-4.848668,0.2888217,1.820543,2.7862844,2.135065,0.3884983,0.16999477,0.25239435,0.261275,0.18142033,0.13491558
434225752,434218933,-0.5488247,2.637152,-2.3115249,-1.1119175,-0.038303494,1.1399754,2.5562568,-5.6887116,-4.5788136,-4.1138077,-4.7773495,-5.962418,0.3276844,0.27412987,1.174789,2.044332,1.5643775,0.16542616,0.2717023,0.2750941,0.16988334,0.11789402
435226417,435219648,-0.5287694,2.2802298,-2.363371,-1.1607372,-0.12817849,1.0080045,2.445462,-6.743942,-5.216954,-3.7900658,-3.8595629,-5.9622126,1.6868062,0.62879515,1.4439783,3.2306917,3.7334173,0.14563502,0.2800411,0.30290192,0.17133214,0.10008972
436222279,436220356,-0.38375878,1.9015919,-2.2604036,-1.0546217,-0.07372512,1.0065955,2.4712145,-7.799,-6.096204,-5.5280266,-6.43824,-8.319001,1.6918087,1.7877593,3.1106281,4.365194,3.7075875,0.12129936,0.28852105,0.3389591,0.17202201,0.07919852
437223348,437221046,-0.546295,1.5510094,-2.0471983,-0.955095,-0.057272628,1.0410737,2.6683311,-4.7143803,-4.990052,-8.027825,-11.455307,-9.955409,-2.9057658,1.2398179,2.820809,0.8448415,-4.4300957,0.13236807,0.3577061,0.33881983,0.11889702,0.052208997
438223610,438221731,-0.5791619,0.71011317,-1.5471894,-0.6987586,0.045793794,1.1874384,-3.1172712,7.8447323,3.0028677,-4.1018763,-10.739188,0.93179035,-3.468025,2.9141068,3.744994,-4.290039,-14.658886,0.15572622,0.5092115,0.28419188,0.033348735,0.017521651
439229310,439222407,-0.43259856,0.40011573,-1.1773496,-0.51419157,0.05282613,1.1200297,-2.8499537,9.140155,2.7310572,-5.055027,-16.055632,0.7188444,-5.475836,1.2079506,3.0753102,-5.696578,-23.05055,0.09943662,0.62489074,0.24111223,0.017280187,0.017280187
440225096,440223097,-0.024177132,0.2491148,-0.6426574,-0.119695395,0.2683539,1.1546233,-2.4988105,13.139075,4.1878977,-3.0426893,-17.760452,5.1628904,-3.3278189,1.897254,3.6323595,-4.196547,-30.591585,0.02497133,0.6829169,0.25798255,0.017064579,0.017064579
441225606,441223748,0.1340487,0.19481616,-0.39355418,0.055623826,0.35928538,1.1253624,-2.3483732,12.653291,2.6282587,-3.1664248,-16.609894,12.043881,1.7621565,3.6718025,3.8835278,-3.7989607,-28.93827,0.016609972,0.6880468,0.2621233,0.016609972,0.016609972
442231363,442224405,0.12677492,0.18109277,-0.3639755,0.055609975,0.3381972,1.0537446,-2.357957,12.000561,2.569367,-2.2059355,-13.894092,15.462383,5.8889647,6.1408205,5.7566214,-1.4250422,-22.813404,0.017214542,0.6910585,0.2572978,0.017214542,0.017214542
443231600,443225052,0.4088987,0.16566253,-0.039327,0.34668037,0.60514313,1.2965419,-2.05812,12.721158,2.7957811,-2.355537,-15.852867,14.897536,4.5383787,5.237706,5.1713743,-1.4720497,-28.716013,0.017002804,0.700874,0.24811758,0.017002804,0.017002804
444227941,444225764,0.9320343,0.16783902,0.55273926,0.8704432,1.0898497,1.6801487,-1.5424069,19.650043,7.083406,0.720418,-15.739514,33.723404,10.106884,8.864117,7.545582,-2.43577,-37.713078,0.019702878,0.6482828,0.29260856,0.019702878,0.019702878
445233145,445226347,1.230503,0.14392863,0.90600556,1.1591533,1.3453927,1.8427596,-1.277464,13.205314,1.261417,-4.1698523,-18.472246,40.17052,12.418655,8.294399,5.5921993,-4.7138023,-36.48246,0.017633252,0.55207247,0.3950277,0.017633252,0.017633252
446233665,446226997,1.4143538,0.13856122,1.1369551,1.335832,1.4974372,1.9337755,-1.108975,11.579203,1.0599842,-3.5136337,-16.550219,46.29666,15.69672,10.294636,7.213539,-2.3110008,-31.541162,0.017876893,0.44696647,0.49940288,0.017876893,0.017876893
448224756,448218207,1.8239561,0.12917084,1.6082565,1.7250823,1.8506185,2.199677,-0.78276706,8.218308,0.122766495,-3.0236645,-12.889629,59.311115,18.835901,11.727062,7.643284,-1.8501663,-21.947895,0.017101303,0.15305944,0.7956366,0.017101303,0.017101303
449225568,449218819,2.0656648,0.11471754,1.8912873,1.9712414,2.082159,2.4056582,-0.5337092,5.510208,-1.2495842,-3.6541023,-11.836548,62.955246,16.968245,9.747589,5.4711914,-4.0114098,-15.903408,0.015534231,0.092020854,0.86137646,0.015534231,0.015534231
450225940,450219424,2.2135153,0.11335237,2.0785646,2.126043,2.2239494,2.525677,-0.3860615,2.380331,-3.2875443,-5.058901,-11.947098,61.274517,16.893919,9.942009,5.7846794,-2.952777,-9.600693,0.015612339,0.04689326,0.9062696,0.015612339,0.015612339
451222585,451220022,2.3324504,0.10373293,2.2326021,2.2529337,2.3399777,2.625513,-0.25727603,3.2198563,-1.6137657,-2.878231,-8.640602,61.684376,15.442987,8.913952,4.9581013,-3.1113682,-4.4549303,0.014477442,0.027016588,0.929551,0.014477442,0.014477442
452227225,452220614,2.4228659,0.10402326,2.3505156,2.3489497,2.4291704,2.7065797,-0.154997,0.8117447,-3.4227219,-4.3157997,-9.203283,57.59453,15.111154,9.002873,5.269088,-2.140253,0.11517143,0.0147448545,0.015073991,0.9406914,0.0147448545,0.0147448545
454224216,454221780,2.473673,0.0983053,2.4473636,2.413166,2.4791799,2.7362025,-0.095561594,1.4153442,-2.0233593,-2.5174332,-6.4701366,52.845078,13.2218075,7.869318,4.6258736,-1.5440407,3.189023,0.0140872095,0.0140872095,0.94365114,0.0140872095,0.0140872095
455229185,455222357,2.5946941,0.09618982,2.586331,2.539206,2.599917,2.8517702,0.031239275,0.75377846,-2.457058,-2.7349186,-5.966797,50.32698,12.139039,7.126832,4.029928,-1.8202629,6.5814333,0.013856568,0.013856568,0.94457364,0.013856568,0.013856568
456225194,456222929,2.8227124,0.09411677,2.8322344,2.7727904,2.8276873,3.0750644,0.27005586,0.121004105,-3.0352993,-3.0009766,-5.0343,48.418713,11.777666,7.150785,4.1421285,-1.5953372,14.827986,0.013676009,0.013676009,0.94516706,0.013804921,0.013676009
457230331,457223487,2.9975133,0.088337496,3.0229025,2.9529428,3.001726,-3.0403643,0.4623562,0.092437744,-3.1496906,-2.806322,-3.584879,45.12051,11.003092,6.7018385,3.836938,-1.5647838,23.336561,0.012975773,0.012975773,0.946006,0.015066706,0.012975773
458226003,458224046,-2.9183252,0.080034345,-2.8809578,-2.9577773,-2.9145997,-2.6793368,0.86253655,0.18590164,-3.3923187,-2.6806812,-1.8043919,37.01855,7.4611354,3.3401728,0.70906925,-3.9141338,32.196297,0.01201069,0.01201069,0.9485196,0.01544842,0.01201069
459226680,459224609,-2.3901787,0.078027375,-2.356056,-2.4267664,-2.3859143,-2.1578453,1.4397489,1.035471,-2.9586964,-1.9029903,0.64643097,18.337383,10.118879,5.675495,3.4789286,0.8536911,45.67787,0.012178051,0.012178051,0.94728136,0.016184427,0.012178051
460227280,460225159,-2.229516,0.07480431,-2.207006,-2.2631574,-2.2250257,-2.0051212,1.6487069,1.0512161,-2.701418,-1.6382828,1.0674686,4.7540617,9.912272,5.2248106,3.3478146,2.234352,44.092415,0.012122634,0.012122634,0.94550663,0.018125547,0.012122634
461227874,461225704,-2.0833745,0.070713006,-2.075901,-2.115099,-2.078599,-1.8659823,1.839328,-0.18477821,-3.5289793,-2.5139837,0.07173443,-4.0417852,9.205119,4.5747776,2.892416,2.607645,40.579567,0.011861826,0.011861826,0.9452896,0.019124974,0.011861826
463228868,463226789,-1.1646787,0.06293123,-1.1968646,-1.1936284,-1.1576755,-0.96163964,2.8540964,2.0382752,-0.36573815,0.5075853,2.0818439,-30.600807,9.053561,4.8892355,3.8746777,7.08025,22.301708,0.0114525715,0.0114525715,0.95154524,0.014097066,0.0114525715
464229425,464227332,-1.004441,0.05825224,-1.0569118,-1.0332419,-0.9963705,-0.80740094,3.073695,-0.31197262,-2.3603334,-1.6543288,-1.0993443,-35.557007,6.492674,3.1174154,2.3366556,6.057266,8.798809,0.011158258,0.011158258,0.9553669,0.011158258,0.011158258
465220312,465217881,-0.85768807,0.056357164,-0.92484015,-0.886618,-0.8489254,-0.66600907,-3.011382,0.7004347,-1.1674042,-0.56429386,-0.5254965,-34.212727,5.903463,3.1865234,2.553979,6.3017554,2.716712,0.01130006,0.01130006,0.9547997,0.01130006,0.01130006
466225670,466218405,-0.64416003,0.054342866,-0.72095716,-0.6727833,-0.6347982,-0.4575329,-2.7460759,0.04202366,-1.8101988,-1.364193,-2.0230732,-35.83461,4.3216257,2.242076,1.814393,5.8482804,-7.013221,0.011420222,0.011498966,0.9542403,0.011420222,0.011420222
467221185,467218925,-0.5992192,0.05429741,-0.6844818,-0.62826216,-0.5889506,-0.41734403,-2.6538236,-0.94074535,-2.6622534,-2.220868,-2.8146515,-34.920296,4.627236,2.9115863,2.544332,6.2406144,-6.144744,0.011945239,0.011945239,0.95221907,0.011945239,0.011945239
468222216,468219467,-0.5382433,0.055453364,-0.6301441,-0.5676189,-0.5270384,-0.3595257,-2.5597277,-1.6647491,-3.4406404,-3.1168575,-4.041087,-30.115757,4.5572586,3.0476842,2.6810365,5.84212,-8.141678,0.012613004,0.012613004,0.94954795,0.012613004,0.012613004
469226746,469219980,-0.457764,0.05555935,-0.553858,-0.48734152,-0.44590026,-0.2818058,-2.4490485,-2.3373833,-4.1837063,-3.9699335,-5.1748886,-26.603348,3.4485953,2.1019857,1.7515013,4.5411882,-11.085968,0.013117608,0.013012708,0.9478442,0.013012708,0.013012708
470222971,470220512,-0.49512234,0.055774204,-0.60020596,-0.5288476,-0.4824921,-0.3204152,-2.45757,-1.8686314,-3.6526155,-3.4506664,-4.58706,-23.576756,4.068867,2.8029897,2.4473412,4.903797,-9.090315,0.013514752,0.01349161,0.94613767,0.013427978,0.013427978
471223329,471221030,-0.6038175,0.05708469,-0.70957524,-0.6354102,-0.5907964,-0.43059805,-2.5618563,-1.198822,-2.7283869,-2.4053192,-3.024869,-20.849163,4.555393,3.2399483,2.814794,4.7914114,-2.3714533,0.013810282,0.013810282,0.94475883,0.013810282,0.013810282
472223954,472221555,-0.49215496,0.057147253,-0.59977525,-0.5237132,-0.47893125,-0.31966653,-2.4414964,-0.13421822,-1.7991276,-1.607336,-2.5827632,-16.607622,3.4943106,2.265898,1.8527026,3.6436217,-6.202139,0.0139276795,0.0139276795,0.94428927,0.0139276795,0.0139276795
473229304,473222080,-0.37491316,0.060439665,-0.48238507,-0.40539995,-0.36053267,-0.20275581,-2.3084962,-3.2427883,-5.080064,-5.039319,-6.425175,-17.030952,3.6996453,2.587524,2.2087414,3.8987184,-9.57815,0.014996827,0.014996827,0.94001263,0.014996827,0.014996827
474224958,474222623,-0.43702203,0.06044813,-0.5518558,-0.47207698,-0.4219597,-0.26369566,-2.3491175,-3.1011953,-4.840927,-4.7787275,-6.0247974,-16.644983,3.2282948,2.1889396,1.8327973,3.4360628,-8.713047,0.015851522,0.015355855,0.93819886,0.015296865,0.015296865
475225748,475223136,-0.6285676,0.05956264,-0.741083,-0.6621989,-0.6133014,-0.45710236,-2.5285816,-3.4644156,-4.9459085,-4.7570524,-5.5553827,-17.67821,1.2224784,0.17957687,-0.18785715,1.2798722,-6.4016204,0.01760018,0.015311243,0.9366438,0.015222318,0.015222318
476230623,476223655,-0.6993382,0.061206292,-0.8115744,-0.73206496,-0.68337137,-0.5279341,-2.5937178,-4.442309,-5.7238445,-5.441143,-5.8903923,-17.80709,2.3800101,1.2679715,0.850276,2.0583992,-1.2067046,0.019273221,0.015731214,0.93353313,0.015731214,0.015731214
477226903,477224181,-0.65706134,0.063114665,-0.7705713,-0.6897145,-0.6403928,-0.48468417,-2.5521355,-5.2828517,-6.55116,-6.28416,-6.6925945,-14.410042,0.6332321,-0.6516113,-1.182498,-0.4619832,-0.56361437,0.021146787,0.016204795,0.9302388,0.016204795,0.016204795
478231919,478224697,-0.6302349,0.06471276,-0.7439061,-0.66228974,-0.61271715,-0.45653123,-2.5284665,-4.8627396,-6.02992,-5.7292385,-5.980443,-12.559643,-1.3301325,-2.6812134,-3.2563853,-2.7612963,-0.29043388,0.025421066,0.016652148,0.9247324,0.016655732,0.016538622
479232136,479225221,-0.6909362,0.06775203,-0.80335927,-0.7214867,-0.6724057,-0.5165173,-2.5894363,-6.758872,-7.739904,-7.3598256,-7.3526745,-16.238686,0.038809776,-1.2305622,-1.7633476,-1.1802101,2.766563,0.027829152,0.017328406,0.92018557,0.017328406,0.017328406
480233080,480225746,-0.62870455,0.07567255,-0.74387556,-0.6571598,-0.6083022,-0.45093146,-2.5545151,-8.400553,-9.16712,-8.691983,-8.386015,-20.182,-1.7277193,-2.9075203,-3.3911743,-2.6822863,2.8951597,0.032250606,0.01889337,0.9108703,0.019092364,0.01889337
481233295,481226246,-0.6165884,0.07833637,-0.73178506,-0.64410096,-0.595574,-0.4386342,-2.5495195,-8.274902,-8.901346,-8.37646,-7.901421,-21.181063,-3.578133,-4.699658,-5.1544147,-4.393348,2.120891,0.03608908,0.021012502,0.9013087,0.022190368,0.01939924
482229378,482226758,-0.5783344,0.07676623,-0.6916085,-0.60640013,-0.5568651,-0.4006987,-2.4932823,-8.540678,-9.483271,-9.173246,-9.304646,-17.57292,-1.9539251,-3.0563445,-3.516716,-2.8952618,-1.2958794,0.04172925,0.019977145,0.8951957,0.023818122,0.019279702
483229559,483227260,-0.30857593,0.08845086,-0.4224149,-0.33386815,-0.28176478,-0.12290236,-2.2281394,-9.776714,-11.186031,-11.158205,-12.024581,-8.613115,0.317706,-1.0877836,-1.7318468,-1.8899958,-2.2971659,0.053607844,0.020532189,0.8828212,0.020801898,0.022236861
484219848,484217756,-0.1111694,0.22832105,-0.1838608,-0.09319697,-0.039337363,0.121917896,-1.9897717,-8.084792,-9.715561,-9.837194,-11.078022,-2.0130377,-0.26047993,-1.7728655,-2.4903586,-3.0212798,-4.6529098,0.07240953,0.021831648,0.8240528,0.01992417,0.061781775
485224744,485218255,-0.14686441,0.35684505,-0.14915034,-0.06686942,-0.021439515,0.13404085,-1.9480835,-7.8257904,-9.407124,-9.534123,-10.790245,-3.974485,-2.825784,-4.1477613,-4.766862,-5.0397344,-8.569124,0.098327644,0.021231828,0.7561095,0.019976638,0.104354486
486225420,486218753,-0.22836508,0.36803964,-0.23386641,-0.14478113,-0.090695016,0.07161724,-2.0265226,-8.932518,-10.299996,-10.3300495,-11.294363,-8.217696,-4.707654,-5.8925695,-6.4339666,-6.4842415,-8.928858,0.13970414,0.021442091,0.7098672,0.021442091,0.10754452
487225933,487219247,-0.2963404,0.4415358,-0.2578068,-0.16919589,-0.11507636,0.047944635,-2.0488586,-12.441009,-13.634631,-13.578041,-14.236003,-11.189957,-3.73509,-5.0064282,-5.5951357,-5.84587,-4.4447303,0.18670243,0.023786915,0.631443,0.023786915,0.13428068
488226564,488219739,-0.5899431,0.7110926,-0.33483177,-0.24727796,-0.1933708,-0.029547293,-2.1222825,-9.636499,-10.93812,-10.963046,-11.803225,-4.544428,-3.436119,-4.8269415,-5.4920144,-6.093072,-4.258154,0.22178514,0.020289943,0.47889575,0.020289943,0.25873917
489222184,489220235,-0.67110217,0.8638717,0.13929243,0.21770515,0.26349008,0.42164567,-1.634092,-10.423149,-12.01756,-12.242077,-13.625311,-0.26992416,-3.5194464,-4.981619,-5.7045135,-6.633138,-7.579677,0.21113102,0.020129148,0.2633797,0.020129148,0.485231
490222701,490220732,-0.23983414,0.82074213,0.509533,0.5865508,0.6341253,0.79365456,-1.237119,-7.8203716,-9.762602,-10.227063,-12.259408,9.316607,-4.714506,-6.3152018,-7.1416483,-8.575945,-11.804229,0.29719138,0.023233706,0.19441922,0.022899404,0.46225628
491227822,491221200,0.72059417,0.18247621,0.74783814,0.8224871,0.87113774,1.0302947,-0.9597247,-6.3247056,-8.458933,-9.080637,-11.526492,16.854519,-4.786971,-6.5218697,-7.4521017,-9.384051,-12.363035,0.6749003,0.03184321,0.21265258,0.020484334,0.060119607
492228654,492221682,0.9788314,0.057542413,0.9741333,1.0460153,1.0953159,1.2528573,-0.68770105,-5.4189043,-7.6196194,-8.327117,-10.9721,23.270388,-2.9877234,-4.866699,-5.915141,-8.386146,-8.530739,0.8108131,0.024231957,0.12945993,0.01774742,0.01774742
493228703,493222162,1.1253158,0.050638523,1.1276385,1.1950716,1.2435315,1.3970996,-0.4802771,-4.2935963,-6.4270496,-7.1402836,-9.776064,27.282558,-2.9250412,-4.8450212,-5.952136,-8.743933,-5.3015633,0.8721815,0.017753473,0.07646173,0.01680165,0.01680165
494229211,494222639,1.3683597,0.044069115,1.374017,1.437144,1.4845593,1.6332868,-0.17427495,-3.1218185,-5.1655817,-5.8693094,-8.453563,31.314041,0.085710526,-1.8671656,-3.03761,-6.179308,1.8746014,0.90606195,0.01591926,0.046532236,0.015743233,0.015743233
495230050,495223143,1.4929571,0.039054092,1.500545,1.5578479,1.6028675,1.7448847,0.018262839,-2.4153194,-4.333952,-5.0043354,-7.4983673,32.4802,-1.1176357,-2.985405,-4.1391325,-7.339226,3.8089886,0.92406327,0.015184087,0.03038438,0.015184087,0.015184087
496230144,496223586,1.5659825,0.035807364,1.5762196,1.6185359,1.6521524,1.7812631,0.16665381,-3.383978,-5.1566677,-5.7721367,-8.120035,29.881618,-2.0605507,-3.7751331,-4.8624573,-7.926916,5.1135483,0.9349795,0.01551834,0.018465405,0.01551834,0.01551834
497230897,497224082,1.553952,0.03361079,1.5636721,1.6110942,1.6519717,1.7830024,0.1971298,-2.3228111,-3.9598198,-4.5171127,-6.703579,28.908281,-3.1882076,-4.756504,-5.7749405,-8.678014,5.7996254,0.93867993,0.0153299915,0.0153299915,0.0153299915,0.0153299915
498226690,498224538,1.5737537,0.030757636,1.5833652,1.6267091,1.6657103,1.7917436,0.26489776,-2.4810333,-3.998272,-4.502552,-6.538439,26.997284,-1.5946121,-3.0368195,-3.996068,-6.7676,9.138817,0.94023854,0.014940339,0.014940339,0.014940339,0.014940339
499226921,499225006,1.7047735,0.029225044,1.7146997,1.7544057,1.7915891,1.9131292,0.44805038,-2.1926823,-3.6074352,-4.0623817,-5.9370537,26.56726,-3.8126678,-5.1861343,-6.1348734,-8.962687,9.907528,0.9386918,0.0153270075,0.0153270075,0.0153270075,0.0153270075
500231987,500225448,2.0277984,0.026979432,2.0378711,2.0729983,2.1068745,2.222685,0.82716775,-2.9714947,-4.208294,-4.5288086,-5.9387245,24.777435,-0.7483578,-2.1371393,-3.1504927,-6.3227463,20.328915,0.93846244,0.015384369,0.015384369,0.015384369,0.015384369
501227988,501225942,2.0242667,0.027187303,2.0356278,2.061482,2.0881734,2.195119,0.8448474,-4.3510075,-5.3275833,-5.424383,-6.1135826,16.527477,-2.1089578,-3.391076,-4.339068,-7.3027725,23.440834,0.93496346,0.016259091,0.016259091,0.016259091,0.016259091
502228539,502226366,1.9528362,0.029200077,1.9658128,1.9901906,2.015644,2.1206498,0.80345666,-5.947464,-6.707613,-6.6145954,-6.6924725,7.3414516,-5.1451197,-6.2915864,-7.1264305,-9.661434,21.282093,0.9253846,0.01876925,0.018615361,0.018615361,0.018615361
503233455,503226822,2.472512,0.0304771,2.4866657,2.513916,2.541081,2.6474817,1.3749493,-11.110611,-11.701796,-11.46422,-11.040146,-2.1594887,-3.0225003,-4.1321945,-4.9397793,-7.40701,26.110409,0.91457593,0.021356052,0.021356052,0.021356052,0.021356052
505224442,505217726,2.6578753,0.024097348,2.6695848,2.694251,2.718432,2.8207197,1.6050609,-7.0263176,-7.546528,-7.292408,-6.7442017,1.8746281,-3.5711117,-4.6869116,-5.510643,-8.205402,28.189959,0.9285962,0.017900975,0.017834255,0.017834255,0.017834255
506224771,506218178,2.894918,0.024106948,2.9073694,2.9296463,2.951436,3.050202,1.86932,-9.485071,-9.915678,-9.600088,-8.813688,-2.5071564,-4.098948,-5.2052827,-6.025081,-8.779808,29.675001,0.9244192,0.018895153,0.018895153,0.018895153,0.018895153
507220770,507218630,-3.082542,0.023551183,-3.069694,-3.049105,-3.02918,-2.934424,2.201918,-11.449667,-11.681322,-11.206041,-9.833868,-9.312288,-2.502945,-3.604268,-4.412781,-7.192725,35.02035,0.9218791,0.01953019,0.01953019,0.01953019,0.01953019
508225583,508219086,-2.8018544,0.021787941,-2.7901986,-2.7695825,-2.7500541,-2.6581504,2.5120244,-11.332378,-11.387699,-10.78941,-8.984758,-16.182018,-3.0007038,-3.9677067,-4.637274,-6.8502636,32.05106,0.9162076,0.02079727,0.021659693,0.022330496,0.019004893
509226282,509219526,-2.39061,0.02074204,-2.3797932,-2.3564134,-2.3348544,-2.2435656,2.9548118,-9.824965,-9.710558,-9.008884,-6.849472,-22.791067,-7.3487225,-8.097361,-8.555859,-9.815447,21.093956,0.91491294,0.01945352,0.021165395,0.025306728,0.019161338
510221871,510219979,-2.0105658,0.021355484,-1.9995873,-1.9729019,-1.949041,-1.8574734,-2.9095886,-10.740723,-10.607302,-9.940426,-7.905749,-26.451458,-9.531006,-10.107399,-10.412533,-10.977573,11.833658,0.9046501,0.021446412,0.021446412,0.031010779,0.021446412
511227006,511220425,-1.5655121,0.01949248,-1.5576768,-1.528931,-1.5041159,-1.4125906,-2.4286373,-8.728601,-8.618368,-8.016536,-6.2258053,-25.551733,-10.9607,-11.378232,-11.5523615,-11.508174,3.4733229,0.89238185,0.021823829,0.023269849,0.041978683,0.020545857
512222972,512220878,-1.3036599,0.019103235,-1.2981691,-1.2697772,-1.2460611,-1.1559076,-2.1459427,-7.9978304,-7.9215403,-7.3855286,-5.8343067,-24.31759,-12.067963,-12.394508,-12.500475,-12.164938,-1.6899414,0.8774811,0.020698402,0.022501616,0.05862048,0.020698402
513223334,513221335,-1.0859385,0.019950867,-1.0814973,-1.0605756,-1.0437396,-0.9598002,-1.966921,-6.084341,-6.00026,-5.489259,-4.024934,-22.529985,-12.888096,-13.149031,-13.209278,-12.688522,-4.8547525,0.8567286,0.020072633,0.02157769,0.081548505,0.020072633
514224099,514221840,-1.1329651,0.019929264,-1.1326187,-1.1120629,-1.095961,-1.0132077,-2.005855,-6.025636,-5.910494,-5.4009757,-3.9284854,-22.652428,-12.806812,-13.036495,-13.078423,-12.514755,-5.3566875,0.81998944,0.022201495,0.022818875,0.1149827,0.020007415
515224452,515222248,-1.0081214,0.019982647,-1.0143489,-0.9876854,-0.9668845,-0.88064027,-1.8247211,-5.417917,-5.3321867,-4.870638,-3.5617228,-20.694616,-14.125668,-14.333839,-14.365362,-13.801542,-7.69089,0.7831508,0.021641182,0.021641182,0.15192571,0.021641182
516229298,516222694,-0.8921352,0.020962922,-0.9035185,-0.8811957,-0.86386037,-0.78146106,-1.7570916,-5.8498387,-5.737939,-5.2770367,-3.9621105,-21.547266,-12.970525,-13.138572,-13.144776,-12.482568,-7.6230707,0.7299501,0.020416796,0.020593517,0.20862286,0.020416796
517225568,517223149,-0.9141844,0.023222137,-0.9334384,-0.91151464,-0.8947876,-0.81356925,-1.7773513,-7.1827316,-7.0521026,-6.5960293,-5.289577,-22.98307,-14.180725,-14.321209,-14.311174,-13.598497,-9.54903,0.6409977,0.022824932,0.022824932,0.29052755,0.022824932
518230208,518223606,-1.0151074,0.024548769,-1.0455148,-1.0247381,-1.0093697,-0.9300087,-1.8788527,-8.969756,-8.745399,-8.233668,-6.7005296,-26.353802,-14.21149,-14.349238,-14.339572,-13.660533,-8.427768,0.5222292,0.024266433,0.024266433,0.4049715,0.024266433
519230784,519224072,-0.87616754,0.021449413,-0.93066436,-0.90538275,-0.8868544,-0.80546755,-1.6967837,-9.124531,-8.907826,-8.420004,-6.959019,-25.695204,-12.188295,-12.325945,-12.318552,-11.695282,-6.4276886,0.39495707,0.02158626,0.02158626,0.54028416,0.02158626
520226444,520224497,-0.6813016,0.021207804,-0.7456846,-0.7222521,-0.70564175,-0.6261383,-1.509861,-9.24442,-9.127057,-8.731504,-7.6145396,-23.293903,-12.19125,-12.301624,-12.27836,-11.608234,-8.613714,0.28502494,0.021787316,0.021787316,0.64961314,0.021787316
521226815,521224941,-0.64001465,0.021065505,-0.7124321,-0.6894145,-0.67329246,-0.59450287,-1.4741534,-9.098251,-9.009947,-8.649079,-7.6502833,-21.83132,-12.355364,-12.473335,-12.457161,-11.867466,-8.709541,0.20689675,0.021996228,0.021996228,0.72711456,0.021996228
522232168,522225397,-0.7159308,0.021525973,-0.79585737,-0.7721134,-0.75541234,-0.6763649,-1.5517571,-9.512024,-9.375919,-8.989965,-7.8764734,-22.683474,-12.888609,-13.022156,-13.017513,-12.525488,-7.93749,0.14434052,0.024406144,0.024813922,0.78337216,0.023067283
523232646,523225832,-0.7469226,0.022776484,-0.8280067,-0.8062513,-0.7905231,-0.7139485,-1.627811,-11.291401,-11.138482,-10.751734,-9.622061,-24.567106,-11.593954,-11.718668,-11.709148,-11.216089,-6.7090874,0.09187882,0.023114184,0.023181047,0.83871186,0.023114184
524228532,524226276,-0.7296604,0.02153435,-0.8183702,-0.79465324,-0.7781886,-0.69983613,-1.567611,-11.858558,-11.706447,-11.3306875,-10.225,-24.468746,-11.791734,-11.933501,-11.936046,-11.548598,-6.123806,0.059816893,0.024029769,0.024029769,0.86809385,0.024029769
525228840,525226723,-0.6539342,0.021752583,-0.7424608,-0.7195222,-0.70388794,-0.62619436,-1.4942881,-12.086653,-11.954088,-11.602571,-10.571275,-23.520325,-11.608543,-11.773691,-11.792181,-11.536358,-5.11929,0.040264226,0.02443895,0.02443895,0.88641894,0.02443895
526229139,526227164,-0.6674714,0.024104623,-0.75480616,-0.73173237,-0.71605474,-0.63806766,-1.5080501,-13.933027,-13.800644,-13.457615,-12.437557,-24.5612,-11.782793,-11.978624,-12.017513,-11.919546,-3.917758,0.027791742,0.027651237,0.027651237,0.88925457,0.027651237
527219545,527217638,-0.6180614,0.024467042,-0.7062447,-0.68359184,-0.6672929,-0.59035265,-1.5023402,-12.568252,-12.489527,-12.193522,-11.334483,-20.897118,-11.044838,-11.286327,-11.355289,-11.484449,-1.8050103,0.025486777,0.025486777,0.025486777,0.89805293,0.025486777
528224840,528218053,-0.6142169,0.020638099,-0.7064142,-0.6837316,-0.6684813,-0.5900626,-1.4690169,-8.795809,-8.7679,-8.51675,-7.820817,-15.388659,-10.895233,-11.148182,-11.226538,-11.441458,-1.6891899,0.024166124,0.02390198,0.024036001,0.9057768,0.022119131
529220436,529218503,-0.4524811,0.027668174,-0.541861,-0.51751524,-0.4996549,-0.42048,-1.3370451,-13.985472,-13.958758,-13.715826,-13.044502,-20.430899,-11.881116,-12.119066,-12.190377,-12.373851,-3.2220242,0.029007113,0.029007113,0.029007113,0.88397163,0.029007113
530225728,530218954,-0.2157742,0.028426487,-0.3095123,-0.28320342,-0.2636336,-0.18236598,-1.0958606,-13.051302,-13.031139,-12.800121,-12.167724,-19.167376,-13.370585,-13.597864,-13.66463,-13.833873,-5.146411,0.030004786,0.030004786,0.030004786,0.8799809,0.030004786
531226050,531219412,-0.32202008,0.024264432,-0.4053176,-0.38515782,-0.3721042,-0.2941171,-1.1983471,-11.883049,-11.867954,-11.646349,-11.034325,-17.100164,-11.011702,-11.267981,-11.355526,-11.67578,-1.5620909,0.028592207,0.026884157,0.027955877,0.8913297,0.025238134
532221707,532219893,-0.58168447,0.027862376,-0.66739243,-0.64475983,-0.6295037,-0.54899985,-1.4506994,-13.898462,-13.81974,-13.556038,-12.757051,-19.884916,-12.226012,-12.511171,-12.619232,-13.078626,-0.7242372,0.029957311,0.029957311,0.029957311,0.8801708,0.029957311
533222522,533220317,-0.94395983,0.030263651,-1.0355862,-1.0094945,-0.9909552,-0.90737176,-1.8097718,-13.170739,-13.012579,-12.694875,-11.662336,-20.49739,-14.395108,-14.698598,-14.820006,-15.369208,-1.0917261,0.032898378,0.032898378,0.032898378,0.86840653,0.032898378
534227629,534220771,-0.9856966,0.032658402,-1.0605491,-1.0405521,-1.0268865,-0.9484462,-1.8961896,-12.86985,-12.635694,-12.266386,-11.006545,-21.415638,-14.496397,-14.822508,-14.959438,-15.615887,0.74809265,0.036130767,0.0354649,0.03671201,0.8589856,0.032706752
535227783,535221223,-1.0022267,0.032229815,-1.0784237,-1.0585519,-1.0450524,-0.96647984,-1.9143106,-13.181383,-12.952345,-12.59313,-11.367657,-21.723005,-14.2101555,-14.512812,-14.636269,-15.218515,0.049114704,0.032164935,0.032164935,0.033047438,0.8704578,0.032164935
536223625,536221689,-0.6748661,0.036791813,-0.7528522,-0.730068,-0.7137412,-0.6326777,-1.5833143,-16.476751,-16.23565,-15.87381,-14.6321335,-25.54335,-13.844223,-14.116217,-14.221432,-14.694582,-0.6331072,0.037350222,0.037350222,0.037350222,0.85059917,0.037350222
538224639,538222563,-0.487027,0.03860402,-0.5677532,-0.5430147,-0.5249565,-0.44144693,-1.3998281,-15.941158,-15.741959,-15.422226,-14.332446,-23.814648,-14.7029085,-14.957158,-15.053309,-15.5014925,-2.5508287,0.04229282,0.042186067,0.042810358,0.83402705,0.038683757
539224986,539223006,-0.5010762,0.04450898,-0.5758987,-0.55110496,-0.53301424,-0.44885015,-1.414325,-17.957283,-17.822218,-17.553345,-16.65287,-23.306828,-14.989919,-15.289971,-15.416891,-16.090977,-1.6987242,0.04511885,0.04511885,0.04511885,0.8195245,0.04511885
540230212,540223462,-0.3324186,0.045277845,-0.41100433,-0.38459092,-0.36507252,-0.27885607,-1.245503,-17.737608,-17.618086,-17.365347,-16.526522,-22.64597,-15.349549,-15.6383915,-15.760163,-16.408037,-2.6895554,0.045803327,0.045803327,0.045803327,0.81678665,0.045803327
541230414,541223885,-0.32794347,0.047854666,-0.40530446,-0.37868047,-0.35898358,-0.27191946,-1.2452548,-15.712706,-15.60425,-15.364382,-14.576546,-20.458317,-14.189735,-14.457898,-14.568374,-15.147376,-2.4966578,0.046452057,0.045087587,0.04689832,0.8134297,0.048132375
542230943,542224322,0.015588196,0.080822624,-0.007770784,0.011342571,0.023506679,0.105587386,-0.87025803,-16.353666,-16.365623,-16.218323,-15.806675,-17.649473,-11.972154,-12.258709,-12.383595,-13.080278,-1.0676028,0.04555772,0.041730106,0.04465337,0.77882016,0.08923864
543226918,543224756,-0.10979208,0.2380541,0.2521859,0.2714358,0.28409752,0.36619183,-0.617276,-15.904999,-16.060787,-16.022795,-16.05292,-12.692588,-13.001554,-13.335078,-13.493468,-14.438879,-2.0035696,0.03386177,0.031163193,0.031163193,0.4275487,0.4762631
544231824,544225190,-0.36863056,0.0659393,0.4277852,0.44763312,0.46119758,0.5433957,-0.43379825,-14.374366,-14.630411,-14.670617,-15.021818,-8.127372,-13.905353,-14.259092,-14.434303,-15.515342,-3.2358665,0.019440081,0.019440081,0.019440081,0.022105949,0.9195738
545227643,545225622,-0.2465854,0.05519218,0.5446835,0.5649339,0.5791987,0.6609669,-0.30067763,-12.414602,-12.738432,-12.834043,-13.4168215,-4.370543,-12.939151,-13.286285,-13.460904,-14.561024,-3.16424,0.017023658,0.017023658,0.017023658,0.017023658,0.9319053
546228616,546226050,-0.14092948,0.050082948,0.6311299,0.6514785,0.6661809,0.74681944,-0.19091162,-11.976349,-12.332754,-12.457607,-13.156694,-2.7471757,-12.589247,-12.945459,-13.129646,-14.317699,-2.4575195,0.016077936,0.016077936,0.016077936,0.016077936,0.93568826
547228814,547226478,-0.072399,0.04211578,0.62932444,0.6535317,0.67118835,0.75489795,-0.11785749,-12.947437,-13.244293,-13.327955,-13.853111,-4.8075294,-12.716966,-13.082516,-13.276335,-14.538768,-1.0771198,0.015647415,0.015647415,0.015647415,0.015647415,0.9374103
548228942,548226910,-0.3004853,0.04046812,0.37796682,0.4035531,0.42290252,0.5065944,-0.34547865,-13.335527,-13.581457,-13.630146,-14.014283,-6.383699,-12.08407,-12.441381,-12.63349,-13.888851,0.09683514,0.015842963,0.015842963,0.015842963,0.015842963,0.93662816
549229470,549227348,-0.38787848,0.048129506,0.333977,0.35113394,0.36329716,0.43954965,-0.44008663,-14.873128,-15.043761,-15.037999,-15.207437,-9.867047,-14.401137,-14.738252,-14.920065,-16.1013,-2.0993834,0.017619364,0.017619364,0.017619364,0.017619364,0.9295225
550219786,550217769,-0.7369087,0.07804853,-0.11517101,-0.08904091,-0.06855006,0.0152835995,-0.839446,-18.30043,-18.235981,-18.050674,-17.498281,-19.235142,-20.907412,-21.21283,-21.374836,-22.388603,-7.371435,0.03531639,0.03531639,0.03531639,0.03531639,0.8587344
551224818,551218206,-0.77001876,0.07877044,-0.14316836,-0.11679033,-0.09610946,-0.011141042,-0.87258726,-19.400614,-19.32865,-19.140045,-18.56433,-19.867233,-18.211182,-18.546917,-18.732233,-19.89134,-3.5021496,0.035112046,0.035112046,0.035112046,0.035112046,0.8595517
552221030,552218629,-0.6743495,0.064598225,-0.030414017,-0.0034583316,0.017610138,0.10369443,-0.75449264,-19.838871,-19.83962,-19.708527,-19.345451,-17.205273,-14.82835,-15.247658,-15.493462,-17.05318,2.3291836,0.027776515,0.027776515,0.027776515,0.027776515,0.8888939
553221621,553219058,0.10490833,0.045345742,0.75114805,0.77404433,0.790881,0.87361646,0.05029262,-15.207046,-15.300456,-15.241572,-15.161271,-9.10014,-12.321017,-12.825215,-13.133479,-15.11015,7.144128,0.01971073,0.01971073,0.01971073,0.01971073,0.9211571
554226128,554219503,0.41714618,0.046441887,1.0740308,1.0976772,1.1162593,1.1975746,0.36195356,-14.920843,-15.067745,-15.053198,-15.163412,-7.605073,-9.635939,-10.137051,-10.446936,-12.439282,9.090566,0.01964803,0.01964803,0.01964803,0.01964803,0.9214079
555226769,555219913,0.56469965,0.043928362,1.1838315,1.2019107,1.2147226,1.2911891,0.50832975,-16.489574,-16.640522,-16.630272,-16.757877,-8.6271105,-10.43284,-10.975559,-11.318088,-13.526242,10.013676,0.021100368,0.021100368,0.021100368,0.021100368,0.9155985
557222823,557220771,0.9739112,0.04090623,1.5594503,1.5746008,1.5853137,1.6555715,0.9176376,-14.528274,-14.625499,-14.577748,-14.58516,-8.453929,-8.783789,-9.302467,-9.634308,-11.768232,11.309374,0.022082979,0.022082979,0.022082979,0.022082979,0.91166806
558227936,558221197,0.79756624,0.035608396,1.3549783,1.3703225,1.3812184,1.4502184,0.74668807,-13.011862,-13.079794,-13.012066,-12.959005,-8.117994,-8.111371,-8.590422,-8.896622,-10.861067,10.632131,0.020904897,0.020904897,0.020904897,0.020904897,0.91638035
559223625,559221614,0.74512273,0.03355249,1.2821912,1.2976196,1.3086395,1.3766756,0.69556,-14.475678,-14.505841,-14.410867,-14.263036,-10.684037,-9.851164,-10.307926,-10.60011,-12.47032,8.264301,0.020999976,0.020999976,0.020999976,0.020999976,0.9160001
560224178,560222041,0.8190767,0.030244183,1.351367,1.3661641,1.3766899,1.4433665,0.7745003,-12.784071,-12.786602,-12.673019,-12.467035,-10.002773,-9.87056,-10.287236,-10.552392,-12.243811,6.762767,0.019210583,0.019210583,0.019210583,0.019210583,0.9231577
561229004,561222463,0.65243953,0.027691722,1.1630878,1.1789224,1.1903412,1.2572142,0.61053073,-12.039647,-12.007739,-11.869718,-11.578914,-10.199723,-10.329166,-10.720502,-10.968779,-12.546037,5.4228516,0.018705983,0.018705983,0.018705983,0.018705983,0.925176
562289601,562282912,0.6546107,0.026505215,1.1580032,1.1737834,1.1851479,1.2516091,0.6142134,-11.611749,-11.576428,-11.438865,-11.152434,-9.952994,-10.2006035,-10.576546,-10.814908,-12.328157,4.852002,0.01828867,0.01828867,0.01828867,0.01828867,0.92684525
564726089,564723952,2.941,3.7360072,-2.5132742,-1.2566371,0.0,1.2566371,2.5132742,0.0,0.0,0.0,0.0,0.0,0.0,0.0,0.0,0.0,0.0,0.2,0.2,0.2,0.2,0.2
565226624,565224168,-0.44496495,3.787274,-2.4586635,-1.2023761,0.052187596,1.3078918,2.5660267,-1.192936,-0.38729477,-0.8573322,-1.9533844,-2.1609898,-1.6357183,-0.8796282,0.12010574,-0.017834663,-1.1030035,0.19960603,0.20067717,0.20081241,0.19982408,0.19908023
566226498,566224580,1.9662255,3.803831,-2.4970975,-1.2312496,0.035259556,1.2888196,2.533655,0.8400917,0.56165314,-0.015663147,-0.085926056,0.43707275,-0.22945213,0.28782368,0.177104,-0.40117455,-0.6490612,0.19866954,0.19485466,0.19810495,0.20400782,0.20436305
567231616,567225014,1.6237141,3.3136184,-2.4201899,-1.1169953,0.16444065,1.3903605,2.6033113,3.9794254,1.4178791,-2.2038288,-1.8574944,1.829567,1.7599506,4.829342,3.2615147,-0.55313873,-1.5076685,0.18646422,0.18081413,0.20114243,0.22063401,0.21094522
568227340,568225426,2.096398,1.9821821,-2.2924483,-0.7821323,0.6497189,1.7672685,2.770457,7.7749653,1.3528824,-5.467972,-2.9470787,3.719059,6.1466575,12.349657,7.1484284,0.3659153,-0.46593237,0.12663433,0.0845518,0.17130032,0.33093655,0.28657696
569227952,569225847,2.3711698,0.8447706,-2.2505374,-0.52933425,1.0616093,2.0767994,2.8801563,5.2434206,-3.097931,-9.074158,-4.72163,1.0475082,7.535736,14.073725,6.265129,0.76631856,0.7633982,0.05858137,0.017580371,0.104148224,0.4540054,0.36568463
570228611,570226281,2.3848934,0.5859574,-2.4256663,-0.60793614,1.1063229,2.091176,2.7742667,5.315914,0.2525463,-5.016159,-2.0034847,1.4061584,4.5185246,10.4991665,5.152858,1.2363987,0.82897377,0.03410632,0.014407507,0.053543266,0.48033214,0.41761082
571228640,571226683,2.4243438,0.5054661,-2.4469845,-0.59900606,1.1687984,2.1398938,2.7710843,4.6715183,3.2501984,-2.2239952,-1.1624775,0.845459,1.1699076,6.7147584,4.6072307,1.1882195,-0.016177654,0.025384044,0.013694968,0.037816986,0.4854393,0.43766466
572233610,572227101,2.524492,0.43929183,-2.436141,-0.5608213,1.2920461,2.2421658,2.8202667,5.413286,8.3217125,0.020345688,-1.0570889,0.31754875,-1.0805473,6.200181,7.4542027,2.9302557,0.3082068,0.019993382,0.0129080415,0.024418034,0.47431657,0.46836397
573224409,573217515,2.6861382,0.3611086,-2.4250476,-0.47428808,1.5091426,2.4176023,2.9226332,7.655653,11.648939,-0.27596664,-0.8106613,1.1944294,-3.3995736,6.8376765,7.408853,1.1679082,-1.7582704,0.0130546745,0.012420821,0.012420821,0.45277077,0.50933295
574224367,574217932,2.9391584,0.29387134,-2.3869498,-0.28930336,1.8755912,2.7112427,3.116329,8.560699,10.562218,-5.8262825,-3.040659,0.35261726,-0.36792445,15.936409,10.293675,2.3707602,-0.014289379,0.012268951,0.012268951,0.012268951,0.42300168,0.5401915
575225108,575218348,-3.1414833,0.23404527,-2.4046245,-0.2055022,2.1667974,2.942251,-3.0173163,6.8073254,7.457506,-10.373577,-4.6801453,-0.9897404,-0.87559414,19.152464,7.8417807,0.34134722,-0.95564413,0.012064615,0.012064615,0.012064615,0.37254104,0.59126514
576220694,576218764,-2.7760594,0.18046364,-2.2548974,-0.008061434,2.643218,-2.9469104,-2.7000039,5.8601856,3.1555061,-15.590605,-5.881405,-1.7134666,1.1050205,27.713682,6.3780775,0.1829462,0.1751728,0.011995144,0.011995144,0.011995144,0.30274865,0.6612659
577225871,577219180,-2.2607408,0.13576615,-1.905319,0.353762,-2.9606285,-2.392127,-2.219223,5.6845627,-2.3030148,-17.27934,-4.635193,-0.83203125,0.6355753,33.611576,0.27999973,-2.1088781,-0.76564217,0.011590129,0.011590129,0.011590129,0.24612625,0.7191034
579226805,579220060,-1.8713758,0.08497072,-1.7013263,0.44370106,-2.272209,-1.9367883,-1.8664818,1.6031914,-5.006114,-16.06084,-4.804593,-2.6977177,0.71422195,37.688953,-3.8851814,-1.4467373,0.42025375,0.012516331,0.011059508,0.011059508,0.1517581,0.8136065
580222303,580220425,-1.7519424,0.072568394,-1.6210852,0.48202273,-2.0558853,-1.7969453,-1.7527698,2.212068,-3.2859583,-12.592904,-2.7949524,-1.2958803,1.3346977,37.14187,-3.8821907,-0.41109848,1.3988819,0.012610731,0.010541769,0.010541769,0.13583152,0.83047426
581222799,581220857,-1.3889323,0.06466287,-1.2868856,0.7812871,-1.6058805,-1.4164106,-1.393732,0.27109766,-10.405222,-12.256221,-3.7418957,-2.6876554,0.8533039,38.03798,-5.764435,-0.99212074,0.76675606,0.012637947,0.010306328,0.010306328,0.12959255,0.83715683
582227826,582221252,-1.0289029,0.05670063,-0.9542382,1.0476283,-1.1542548,-1.0388563,-1.0377346,-0.697752,-20.729258,-10.290153,-3.5202975,-2.879957,2.605709,38.736153,-4.975115,0.7460079,2.31917,0.014661716,0.010099033,0.010099033,0.12673807,0.83840215
583228221,583221664,-0.86171734,0.04969154,-0.8023453,1.135171,-0.90971494,-0.85910714,-0.87324405,-0.42593622,-23.496254,-8.121242,-2.6439972,-2.2156782,1.2148247,35.72519,-5.4552593,-0.15540123,1.0586729,0.016105061,0.009686185,0.009686185,0.12778765,0.83673495
584228868,584222075,-0.77885604,0.05068901,-0.7297654,1.1878698,-0.7762659,-0.769511,-0.7931723,-3.8039827,-25.370737,-10.312231,-5.650079,-5.2727203,1.3509569,28.77031,-3.9913206,0.5530634,1.5219326,0.018183907,0.0105197765,0.0105197765,0.13223407,0.8285424
585224335,585222486,-0.58190817,0.049522057,-0.5408127,1.3511472,-0.5476713,-0.566939,-0.5979003,-4.2743263,-23.699146,-10.167847,-5.9128313,-5.5675225,1.1102695,25.138294,-3.5238876,0.61003876,1.451314,0.022738758,0.010723649,0.010723649,0.12777264,0.82804126
586229579,586222903,-0.39453274,0.04975651,-0.3584005,1.5127085,-0.34077665,-0.3766101,-0.41192186,-5.162533,-29.324787,-10.671542,-6.6239243,-6.209258,1.597745,22.674232,-2.473566,1.2329712,1.8681145,0.02733756,0.011200545,0.011200545,0.12351861,0.8267427
587225101,587223307,-0.40241307,0.046393637,-0.36746332,1.4756469,-0.3392255,-0.38355708,-0.41958344,-3.6787233,-28.400593,-8.941657,-5.0551577,-4.603264,1.0829878,19.959942,-2.5233383,0.8439069,1.3672581,0.03153459,0.010735395,0.010735395,0.11789347,0.82910115
588225639,588223748,-0.51371205,0.047405016,-0.48115954,1.3510824,-0.444767,-0.4936659,-0.5317666,-4.639641,-25.079823,-9.608254,-5.9831,-5.593747,-0.27025223,18.362263,-3.5663137,-0.39526558,0.110711575,0.037396,0.011261675,0.011261675,0.11025116,0.8298295
589230870,589224127,-0.5654529,0.049372215,-0.5367354,1.2783532,-0.48832795,-0.54545546,-0.58474857,-5.900586,-22.516888,-10.542834,-7.1970763,-6.8941708,0.1654377,19.60935,-2.893178,0.109389305,0.59636974,0.044223372,0.012139771,0.012139771,0.10377607,0.827721
590226587,590224540,-0.5677397,0.046831854,-0.53872025,1.2802753,-0.47946995,-0.5451435,-0.58672684,-0.33907795,-16.983507,-4.761503,-1.5730467,-1.2797565,3.4740076,22.43816,0.6907282,3.463066,3.879589,0.04879438,0.011375312,0.011375312,0.10264387,0.8258111
591226792,591224947,-0.45982426,0.048943803,-0.43196794,1.3791955,-0.36637396,-0.43748763,-0.47988644,-4.2961073,-24.249157,-8.620888,-5.4680977,-5.1256084,1.4390125,19.701942,-1.0166855,1.4386368,1.7290058,0.052204538,0.012141202,0.012141202,0.09982991,0.8236831
592231946,592225356,-0.4648276,0.049915325,-0.43976516,1.3555351,-0.36609176,-0.44232053,-0.48574343,-5.244257,-21.656937,-9.295769,-6.371151,-6.0942554,0.4359808,18.674404,-1.9168081,0.47174072,0.7853966,0.059487592,0.012713837,0.012713837,0.09383771,0.82124704
593227717,593225765,-0.5381322,0.04990799,-0.51526546,1.2699422,-0.43461424,-0.5160228,-0.55942357,-5.3704853,-18.69683,-9.217715,-6.45218,-6.20201,-0.2600298,16.253645,-2.5701418,-0.19087982,0.16727352,0.06717837,0.012895921,0.012895921,0.090033874,0.81699586
596233405,596226996,-0.50689745,0.047262385,-0.48481974,1.2939479,-0.40490368,-0.48373035,-0.52757716,-2.6166983,-17.116095,-6.32104,-3.5796652,-3.1955137,-0.55362797,9.272193,-2.6197233,-0.4590459,-0.1280942,0.085797764,0.012199645,0.012199645,0.077209346,0.81259364
597229541,597227407,-0.46218297,0.04932656,-0.44055542,1.3415263,-0.35966054,-0.43813023,-0.48366484,-4.187433,-11.5086,-7.500378,-5.1071954,-4.8626533,-0.95298004,8.997709,-3.1809378,-0.87263775,-0.41478062,0.088416636,0.012769063,0.012769063,0.07443901,0.81160617
598219749,598217846,-0.42730558,0.051475514,-0.4070598,1.3704395,-0.3288781,-0.40496486,-0.44928536,-4.096081,-10.927668,-7.2990856,-4.9773407,-4.731144,-4.366266,4.577743,-6.5504146,-4.2956614,-3.836123,0.09029433,0.01349422,0.01349422,0.06990904,0.81280816
599224942,599218226,-0.429664,0.048268817,-0.4083996,1.3670232,-0.33148858,-0.4059243,-0.4503895,-0.42620087,-9.145551,-3.503994,-1.2687464,-1.038024,-2.3265471,8.190449,-4.306745,-2.2628102,-1.898664,0.0910045,0.01251084,0.01251084,0.066691816,0.817282
600220667,600218645,-0.3597356,0.049214188,-0.33900678,1.4325991,-0.2585112,-0.33455747,-0.38096404,-1.8247862,-14.594534,-4.804035,-2.630993,-2.4080973,-3.1124792,10.3177395,-4.7576704,-3.043765,-2.8520641,0.091347545,0.012846406,0.012846406,0.06504942,0.8179102
601221361,601219050,-0.2784546,0.049011562,-0.25884286,1.5010105,-0.17387225,-0.2526664,-0.2998162,-2.2744741,-14.342566,-5.134573,-3.042925,-2.8314505,-3.4329624,9.553811,-5.0263624,-3.369503,-3.1802998,0.092482895,0.01296279,0.01296279,0.06325792,0.8183336
602221310,602219464,-0.47166136,0.04996268,-0.4537044,1.2935882,-0.3628442,-0.44637662,-0.4934963,-2.3058748,-11.688784,-4.9061556,-3.0257654,-2.8998137,-4.814849,9.194435,-6.389824,-4.760476,-4.5538054,0.09286178,0.013459193,0.013459193,0.061198667,0.8190211
603222053,603219884,-0.32134435,0.049345914,-0.30418965,1.4347278,-0.20644902,-0.2936754,-0.34322244,-1.0979795,-10.801727,-3.6402464,-1.7846737,-1.6408463,-5.1111665,7.9835477,-6.6160207,-5.058553,-4.866981,0.09337285,0.013382149,0.013382149,0.059731297,0.82013154
604226977,604220300,-0.3676344,0.050120126,-0.35136217,1.3800409,-0.24914043,-0.34057552,-0.3898032,-1.2474594,-8.289078,-3.6383133,-1.8955679,-1.7778368,-5.581439,6.011712,-7.1946898,-5.554139,-5.289693,0.09238238,0.013738656,0.013738656,0.058071103,0.8220692
605222802,605220712,-0.3952651,0.049465112,-0.37861347,1.34924,-0.27422708,-0.36712158,-0.4171273,1.3176332,-4.4841094,-1.0600424,0.6910205,0.8462806,-4.5638504,4.1658015,-6.3023987,-4.5667353,-4.2308407,0.0899678,0.013548428,0.013548428,0.056458924,0.82647645
606223418,606221138,-0.35223386,0.049376182,-0.33514288,1.3914127,-0.23268904,-0.32388902,-0.37381616,-1.9415584,-6.287758,-4.274929,-2.5471053,-2.3736935,-2.3049088,4.197029,-4.154049,-2.3378634,-1.9362206,0.08737918,0.013506118,0.013506118,0.054145973,0.8314626
607228056,607221558,-0.71266556,0.064110145,-0.7005683,1.0222685,-0.6024874,-0.68992525,-0.7391117,3.9732199,-0.31962252,1.795619,3.400051,3.5270371,-6.319205,1.6188372,-8.042328,-6.352428,-5.998141,0.08163705,0.018452438,0.014927314,0.052223403,0.8327598
608228856,608221981,-0.86175025,0.08323345,-0.85600746,0.86344796,-0.758656,-0.8456414,-0.8946907,3.7033825,0.63128424,1.882587,3.1831894,3.1593676,-6.4498997,6.054017,-7.9719286,-6.4784393,-6.2069845,0.076251455,0.024969453,0.015022662,0.049951933,0.8338044
609224412,609222442,-0.813358,0.08844739,-0.80842775,0.9090046,-0.7114872,-0.7995597,-0.84807247,5.1978707,4.620704,3.7536445,4.7223096,4.5411925,-8.626896,7.75895,-10.037323,-8.663837,-8.427967,0.06945538,0.026753543,0.016687036,0.047476437,0.8396276
610224987,610222830,-0.46489185,0.092450455,-0.4593649,1.2578056,-0.3608708,-0.45221642,-0.50072306,5.532299,3.1197805,4.0387363,5.0592155,4.933337,-7.090089,8.411119,-8.405281,-7.1377935,-6.9419584,0.06332058,0.02805826,0.016212003,0.045377813,0.8470313
611230058,611223252,-0.7725386,0.060799308,-0.75605613,0.95435405,-0.6546418,-0.7486247,-0.79722613,3.4738026,-3.0851307,1.9118567,3.008627,2.9408255,-7.405385,8.86572,-8.431902,-7.444561,-7.3816404,0.060108606,0.017456478,0.01650908,0.044982944,0.8609429
612230352,612223694,-0.45920756,0.081578925,-0.4498941,1.2551805,-0.34258002,-0.4412036,-0.49182338,9.241575,3.822534,7.808416,8.807615,8.714632,-6.2517815,9.600849,-7.278528,-6.2996464,-6.2190933,0.056202594,0.024635648,0.019181067,0.04368227,0.85629845
613226054,613224103,0.054066632,0.0662511,0.068305716,1.7689934,0.1716765,0.075315334,0.026993897,9.965841,1.433645,8.349606,9.525165,9.535615,-2.968151,11.26148,-3.8732262,-3.0232515,-2.9962559,0.05220883,0.019470973,0.020867411,0.043529734,0.86392313
614226434,614224564,0.09666164,0.074691474,0.10776019,1.8106306,0.21025982,0.11306988,0.065804586,10.951057,-0.8255737,9.087486,10.505741,10.646763,-1.415916,10.26942,-2.2349362,-1.480968,-1.4929519,0.047946617,0.022255192,0.027981455,0.04425706,0.85755974
615226895,615224959,0.06010004,0.066074334,0.07942354,1.7954124,0.19873433,0.084472574,0.030588288,6.993885,-6.954714,5.131585,6.562354,6.7132225,-0.8072181,12.09542,-1.3937678,-0.866549,-0.9740801,0.04566125,0.01874293,0.03454866,0.04530982,0.8557373
616017890,616015303,0.24011472,0.07415465,0.25003058,1.9480222,0.35880467,0.25535882,0.20718458,10.978994,-5.7837086,8.961901,10.5499115,10.776991,-0.6390705,11.703296,-1.0608811,-0.69348145,-0.8705044,0.044024788,0.022091914,0.041062847,0.045921963,0.84689856
617228125,617225835,-0.75962305,3.8188217,-2.531778,-1.2751439,-0.018513756,1.2381217,2.494765,0.0,0.0,0.0,0.0,0.0,0.0,0.0,0.0,0.0,0.0,0.2,0.2,0.2,0.2,0.2
618228601,618226262,-2.3292732,3.5908983,-2.5239496,-1.2673491,-0.010707264,1.2459694,2.5026264,0.0,0.0,0.0,0.0,0.0,0.0,0.0,0.0,0.0,0.0,0.2,0.2,0.2,0.2,0.2
619118632,619116655,-1.1251596,3.5684404,-2.5057442,-1.2491074,0.0075295563,1.2641666,2.520804,0.0,0.0,0.0,0.0,0.0,0.0,0.0,0.0,0.0,0.0,0.2,0.2,0.2,0.2,0.2
620233855,620227148,-2.3768454,3.571889,-2.514034,-1.2573969,-0.0007598857,1.2558773,2.5125144,0.0,0.0,0.0,0.0,0.0,0.0,0.0,0.0,0.0,0.0,0.2,0.2,0.2,0.2,0.2
620323934,620317188,-1.6288414,3.6908255,-2.5143335,-1.2576964,-0.0010594461,1.2555777,2.512215,0.0,0.0,0.0,0.0,0.0,0.0,0.0,0.0,0.0,0.0,0.2,0.2,0.2,0.2,0.2
