timestamp,timestamp_sample,device_id,x,y,z,temperature,error_count,samples
394698054,394697129,2162698,0.021118868,0.026205506,-0.0059921127,52.765293,1,20
394700534,394699628,2162698,0.017949706,0.023915187,-0.0060187443,52.765293,1,20
394798121,394797221,2162698,0.029188246,0.027670244,-0.008388958,52.765293,0,20
394898189,394897292,2162698,0.024714135,0.024767399,0.002396845,52.765293,0,20
394998284,394997376,2162698,0.015792545,0.023009712,-0.0037284256,52.765293,0,20
395098479,395097462,2162698,0.04226437,0.02346245,-0.00069242186,52.765293,0,20
395203458,395202537,2162698,0.03523362,0.022397185,0.0025033713,52.765293,0,20
395298528,395297614,2162698,-0.013475595,0.022849923,-0.0017576864,52.765293,0,20
395498697,395497778,2162698,0.04066647,0.023941819,-0.009853696,52.671177,0,20
395598749,395597860,2162698,0.03334278,0.022610238,-0.0017310547,52.671177,0,20
395698836,395697942,2162698,0.026897928,0.021731395,0.002050634,52.671177,0,20
395796488,395795538,2162698,0.019148128,0.023222765,-0.0075633777,52.671177,0,20
395899007,395898107,2162698,0.035473306,0.018961707,0.0075633777,52.671177,0,20
395996637,395995685,2162698,0.026578348,0.01981392,-0.0053795855,52.671177,0,20
396096734,396095776,2162698,0.018322548,0.020905815,-0.0038615835,52.671177,0,20
396196819,396195857,2162698,0.028309403,0.02348908,0.005406217,52.671177,0,20
396296845,396295935,2162698,0.018269286,0.030626353,-0.006231797,52.671177,0,20
396396911,396396013,2162698,0.0104395915,0.024101608,-0.0002663161,52.765293,0,20
396497090,396496102,2162698,0.0110254865,0.029880667,-0.0011984225,52.765293,0,20
396597185,396596184,2162698,0.07507451,0.027297402,0.003355583,52.765293,0,20
396697228,396696266,2162698,0.00793622,0.02561961,-0.0035153728,52.765293,0,20
396797244,396796341,2162698,0.02082592,0.018775286,0.010599381,52.765293,0,20
396897340,396896427,2162698,0.033609092,0.022743396,-0.0038615835,52.765293,0,20
396997405,396996505,2162698,0.028016455,0.027031085,-0.009108011,52.765293,0,20
397097556,397096587,2162698,0.03880226,0.019600866,0.0050866376,52.765293,0,20
397297653,397296754,2162698,0.03171825,0.019041602,-0.0002663161,52.765293,0,20
397697971,397697079,2162698,0.029108351,0.025007082,-0.0037550572,52.81235,0,20
397798105,397797161,2162698,0.018056232,0.021944448,0.004021373,52.81235,0,20
397898213,397897249,2162698,0.019760655,0.020373182,0.0035686358,52.81235,0,20
397998239,397997347,2162698,0.039947417,0.018775286,0.0012516857,52.81235,0,20
398098390,398097413,2162698,0.02348908,0.022770027,-0.0075633777,52.81235,0,20
398198396,398197489,2162698,0.027563717,0.020133497,0.008122642,52.81235,0,20
398298545,398297571,2162698,0.024021713,0.027723508,-0.0056991647,52.81235,0,20
398398557,398397653,2162698,0.03901531,0.02841593,-0.004660532,52.718235,0,20
398498637,398497735,2162698,0.0155262295,0.022370553,0.004181163,52.718235,0,20
398598719,398597817,2162698,0.040400155,0.024873925,-0.010679276,52.718235,0,20
398696338,398695408,2162698,0.023888554,0.026258769,0.00018642128,52.718235,0,20
398798891,398797984,2162698,0.0009321064,0.01981392,0.018429074,52.718235,0,20
398896527,398895571,2162698,0.030812774,0.024048345,-0.012490226,52.718235,0,20
398996604,398995646,2162698,0.037444044,0.025193503,-0.019600866,52.718235,0,20
399096702,399095731,2162698,0.015819177,0.0257794,0.020639498,52.718235,0,20
399196758,399195806,2162698,0.030226879,0.01984055,0.0042876895,52.718235,0,20
399396869,399395968,2162698,0.026205506,0.01768339,0.029987194,52.81235,0,20
399496966,399496059,2162698,-0.024580978,0.015499597,0.008122642,52.81235,0,20
399597076,399596145,2162698,0.045327,0.018455707,-0.018455707,52.81235,0,20
399697149,399696257,2162698,0.051771853,0.021758026,-0.009108011,52.81235,0,20
399797203,399796302,2162698,-0.019228023,0.015153387,0.0058589545,52.81235,0,20
399897329,399896402,2162698,0.034115095,0.015819177,0.0257794,52.81235,0,20
400197535,400196632,2162698,0.04447479,0.019254655,0.030786142,52.81235,0,20
400397708,400396796,2162698,0.018775286,0.01637844,-0.021145498,52.718235,0,20
400497834,400496871,2162698,0.039947417,0.009347696,0.029960562,52.718235,0,20
400597892,400596958,2162698,0.007163903,0.018082865,-0.015659388,52.718235,0,20
400697951,400697038,2162698,-0.0052996906,0.021758026,-0.015819177,52.718235,0,20
400798065,400797118,2162698,0.078430094,0.0145408595,0.035020567,52.718235,0,20
401098258,401097363,2162698,0.047857005,0.022184132,0.001917476,52.718235,0,20
401198351,401197462,2162698,0.022237396,0.030200247,-0.019600866,52.718235,0,20
401298480,401297565,2162698,0.016192019,0.01968076,0.014594123,52.718235,0,20
401398549,401397642,2162698,0.024181502,0.023782028,0.00037284257,52.765293,0,20
401496087,401495195,2162698,0.059761334,0.024873925,-0.01968076,52.765293,0,20
401598710,401597797,2162698,0.013741911,0.01834918,0.007536746,52.765293,0,20
401696274,401695360,2162698,0.015552861,0.024580978,0.009054747,52.765293,0,20
401798842,401797936,2162698,0.030280141,0.030706247,-0.020799289,52.765293,0,20
401896423,401895516,2162698,0.028628983,0.019973708,-0.0028495823,52.765293,0,20
401996508,401995602,2162698,0.013608754,0.016511599,0.022530343,52.765293,0,20
402096636,402095680,2162698,0.021651499,0.018455707,-0.0044741104,52.765293,0,20
402196656,402195762,2162698,0.03933489,0.02117213,-0.010972224,52.765293,0,20
402296805,402295852,2162698,0.02149171,0.018455707,-0.005406217,52.765293,0,20
402396880,402395925,2162698,0.009640643,0.015126755,0.014620755,52.718235,0,20
402496955,402496007,2162698,0.040719733,0.023702133,-0.008122642,52.718235,0,20
402596980,402596088,2162698,0.026418557,0.02974751,-0.0061785337,52.718235,0,20
402699585,402698679,2162698,0.022610238,0.017736653,0.0013315806,52.718235,0,20
402797142,402796251,2162698,0.026871296,0.018082865,-0.0073503247,52.718235,0,20
402897276,402896334,2162698,0.03624562,0.019654129,-0.0036751623,52.718235,0,20
402997336,402996445,2162698,0.0064981133,0.020053603,0.025353294,52.718235,0,20
403097408,403096497,2162698,0.045566685,0.027244138,-0.005060006,52.718235,0,20
403197484,403196577,2162698,0.05323659,0.026871296,-0.035659727,52.718235,0,20
403297585,403296678,2162698,0.018402442,0.02130529,0.008362326,52.718235,0,20
403397642,403396750,2162698,0.027643612,0.02380866,0.009534117,52.718235,0,20
403497724,403496824,2162698,0.034141727,0.02612561,-0.012037489,52.718235,0,20
403597878,403596907,2162698,0.041039314,0.028202876,-0.00628506,52.718235,0,20
403697898,403696996,2162698,0.0087618,0.02644519,0.0067377975,52.718235,0,20
403797974,403797070,2162698,0.021465078,0.021624869,-0.00042610578,52.718235,0,20
403898057,403897159,2162698,0.038242992,0.024288028,-0.013448964,52.718235,0,20
403998133,403997233,2162698,0.026498454,0.021678131,0.005352954,52.718235,0,20
404098213,404097315,2162698,0.02098571,0.024767399,0.0033822146,52.718235,0,20
404198298,404197400,2162698,0.0386691,0.023435818,-0.007004114,52.718235,0,20
404298389,404297481,2162698,0.02809635,0.0180296,-0.0018375812,52.718235,0,20
404398474,404397560,2162698,0.030493194,0.022264026,0.002396845,52.81235,0,20
404498582,404497642,2162698,0.015925704,0.021411816,0.0014114754,52.81235,0,20
404598625,404597724,2162698,0.046392266,0.016911073,0.0005060006,52.81235,0,20
404698709,404697808,2162698,0.02894856,0.019441076,-0.0013582122,52.81235,0,20
404798781,404797887,2162698,0.021118868,0.021358551,-0.0063915867,52.81235,0,20
404898918,404897968,2162698,0.03169162,0.021598237,0.006311692,52.81235,0,20
404996490,404995588,2162698,0.008202536,0.020106867,0.0016511598,52.81235,0,20
405099023,405098132,2162698,0.055926383,0.02314287,-0.0018908444,52.81235,0,20
405196611,405195722,2162698,0.027377296,0.024927188,-0.00942759,52.81235,0,20
405296715,405295817,2162698,0.012516857,0.018189391,0.0056991647,52.81235,0,20
405396854,405395890,2162698,0.037736993,0.024021713,0.0071372716,52.624115,0,20
405496861,405495964,2162698,0.030013826,0.025885927,-0.015286544,52.624115,0,20
405596926,405596038,2162698,0.025992453,0.023062976,0.000479369,52.624115,0,20
405697034,405696119,2162698,0.015100123,0.02479403,-0.000479369,52.624115,0,20
405797119,405796214,2162698,0.04708469,0.02298308,0.0066579026,52.624115,0,20
405897200,405896289,2162698,0.011478225,0.025592979,-0.012623384,52.624115,0,20
405997278,405996365,2162698,0.01488707,0.02295645,0.012436963,52.624115,0,20
406097431,406096452,2162698,0.040586576,0.026365295,0.009294433,52.624115,0,20
406197427,406196527,2162698,0.001917476,0.029534457,-0.022024343,52.624115,0,20
406297512,406296609,2162698,0.047484163,0.021891184,0.015259913,52.624115,0,20
406397579,406396690,2162698,0.036485307,0.022290658,0.00063915865,52.624115,0,20
406497730,406496772,2162698,0.007243798,0.016431704,-0.017417073,52.624115,0,20
406597746,406596857,2162698,0.05768407,0.01667139,0.019201392,52.624115,0,20
406697843,406696944,2162698,0.004101268,0.029614352,-0.0145408595,52.624115,0,20
406797917,406797017,2162698,0.037896782,0.023915187,0.010998855,52.624115,0,20
406898025,406897106,2162698,0.032011196,0.021092236,-0.0044208476,52.624115,0,20
406998069,406997180,2162698,0.024714135,0.018695392,-0.0066046393,52.624115,0,20
407198232,407197343,2162698,0.055953015,0.019121496,0.005193164,52.624115,0,20
407298319,407297424,2162698,0.020959077,0.018082865,-0.002743056,52.624115,0,20
407398405,407397506,2162698,0.0022104238,0.021758026,-0.005752428,52.624115,0,20
407498496,407497587,2162698,0.052757222,0.026072348,0.013209279,52.624115,0,20
407598577,407597669,2162698,0.046179213,0.02644519,-0.0046072686,52.624115,0,20
407696257,407695253,2162698,-0.01685781,0.02213087,-0.009720538,52.624115,0,20
407798728,407797832,2162698,0.034780882,0.021278657,0.011291803,52.624115,0,20
407898815,407897914,2162698,0.05701828,0.027403928,-0.010519486,52.624115,0,20
407998884,407997995,2162698,0.009960223,0.024820661,-0.011504856,52.624115,0,20
408096548,408095574,2162698,0.04066647,0.018482339,0.02295645,52.624115,0,20
408196610,408195656,2162698,0.043915525,0.025353294,-0.019387813,52.624115,0,20
408296697,408295743,2162698,0.031185616,0.024580978,-0.013395701,52.624115,0,20
408396755,408395825,2162698,0.021038972,0.018508969,0.021837922,52.624115,0,20
408496864,408495900,2162698,0.019441076,0.023196133,-0.0015180018,52.624115,0,20
408596887,408595988,2162698,0.057151437,0.022397185,-0.015552861,52.624115,0,20
408696955,408696063,2162698,0.014407702,0.023009712,0.00069242186,52.624115,0,20
408797120,408796150,2162698,0.013342437,0.022264026,0.0155262295,52.624115,0,20
408897201,408896230,2162698,0.046125952,0.029667614,-0.011717909,52.624115,0,20
408997210,408996312,2162698,0.029640984,0.024980452,-0.00942759,52.624115,0,20
409097361,409096401,2162698,0.017869812,0.022690132,0.0046339002,52.624115,0,20
409197369,409196470,2162698,0.037470676,0.025885927,-0.0046072686,52.624115,0,20
409297475,409296552,2162698,0.03059972,0.026338663,-0.006151902,52.624115,0,20
409397525,409396634,2162698,0.019467708,0.023755398,0.0058589545,52.624115,0,20
409497636,409496729,2162698,0.01917476,0.024660872,-0.0035686358,52.624115,0,20
409597688,409596796,2162698,0.03440804,0.029188246,-0.0022370552,52.624115,0,20
409697808,409696884,2162698,0.012117383,0.027510455,-0.0017576864,52.624115,0,20
409797959,409796964,2162698,0.018002968,0.025353294,0.0034621095,52.624115,0,20
409897962,409897056,2162698,0.033955306,0.027616981,0.0021571605,52.624115,0,20
409998021,409997122,2162698,0.034461305,0.03286341,-0.008948221,52.624115,0,20
410098107,410097208,2162698,0.027883297,0.02213087,0.0070840083,52.624115,0,20
410198296,410197369,2162698,0.02016013,0.021651499,0.0056459014,52.624115,0,20
410298266,410297366,2162698,0.026525084,0.025726136,-0.010093381,52.624115,0,20
410398351,410397448,2162698,0.03371562,0.023782028,-0.0014913703,52.624115,0,20
410498457,410497529,2162698,0.03025351,0.019574234,0.0017576864,52.624115,0,20
410598538,410597617,2162698,0.01637844,0.021225395,-0.003355583,52.624115,0,20
410698617,410697697,2162698,0.035952676,0.020293288,0.0016511598,52.624115,0,20
410798694,410797773,2162698,0.044421528,0.022237396,-0.003355583,52.624115,0,20
410898794,410897860,2162698,0.013528858,0.021944448,0.0026631611,52.624115,0,20
410998842,410997943,2162698,0.031372037,0.01587244,0.004021373,52.624115,0,20
411098965,411098074,2162698,0.0180296,0.023915187,-0.010972224,52.624115,0,20
411196518,411195602,2162698,0.030759512,0.018242653,0.0046072686,52.624115,0,20
411296569,411295679,2162698,0.018109495,0.018961707,-0.00074568513,52.624115,0,20
411396673,411395766,2162698,0.029055087,0.025193503,-0.008229168,52.718235,0,20
411496730,411495842,2162698,0.050786484,0.021278657,0.0019441076,52.718235,0,20
411596868,411595923,2162698,0.011638014,0.021971079,-0.0034621095,52.718235,0,20
411696894,411696005,2162698,0.03355583,0.020959077,0.0033822146,52.718235,0,20
411797007,411796091,2162698,0.021678131,0.02580603,-0.009880328,52.718235,0,20
411897171,411896197,2162698,0.035659727,0.019973708,0.0050333743,52.718235,0,20
411997158,411996255,2162698,0.031664986,0.020266656,0.0013582122,52.718235,0,20
412097277,412096349,2162698,0.0053795855,0.024714135,-0.0068176924,52.718235,0,20
412197316,412196419,2162698,0.039095204,0.019893814,0.0049801115,52.718235,0,20
412297394,412296493,2162698,0.025326662,0.021278657,-0.008575379,52.718235,0,20
412397480,412396575,2162698,0.018562233,0.018402442,-0.005406217,52.624115,0,20
412497559,412496660,2162698,0.04777711,0.017603494,0.01206412,52.624115,0,20
412697708,412696819,2162698,0.019574234,0.019387813,0.005352954,52.624115,0,20
412797868,412796901,2162698,0.04034689,0.019361181,0.0030626352,52.624115,0,20
412897956,412897027,2162698,0.019228023,0.019361181,-0.01488707,52.624115,0,20
412997987,412997096,2162698,0.03904194,0.016112125,0.010599381,52.624115,0,20
413098066,413097160,2162698,0.012942963,0.019068234,-0.0053263223,52.624115,0,20
413198123,413197227,2162698,0.040240366,0.020959077,-0.004926848,52.624115,0,20
413398286,413397398,2162698,0.013315805,0.023089606,0.0014913703,52.53,0,20
413498377,413497482,2162698,0.04362258,0.018748654,-0.0002663161,52.53,0,20
413598471,413597552,2162698,0.02924151,0.021837922,-0.0052197957,52.53,0,20
413698535,413697634,2162698,0.023542345,0.021704763,5.3263222e-05,52.53,0,20
413796105,413795213,2162698,0.03225088,0.019121496,-0.0022903185,52.53,0,20
413896187,413895295,2162698,0.028868666,0.024288028,-0.00063915865,52.53,0,20
413996358,413995376,2162698,0.018642128,0.025992453,-0.0038615835,52.53,0,20
414096357,414095458,2162698,0.024687503,0.018881813,0.0012783173,52.53,0,20
414196458,414195553,2162698,0.033316147,0.021252025,0.00034621093,52.53,0,20
414296520,414295621,2162698,0.022077605,0.020133497,-0.0048203217,52.53,0,20
414396598,414395706,2162698,0.030226879,0.021917816,0.005060006,52.624115,0,20
414496730,414495784,2162698,0.02974751,0.022583606,-0.0042876895,52.624115,0,20
414596763,414595865,2162698,0.02892193,0.020719394,-0.0011984225,52.624115,0,20
414696845,414695947,2162698,0.031052459,0.019787287,0.0050333743,52.624115,0,20
414796972,414796023,2162698,0.009614011,0.024740767,-0.011504856,52.624115,0,20
414897090,414896128,2162698,0.03225088,0.022397185,-0.0035952674,52.624115,0,20
414997138,414996235,2162698,0.02876214,0.021544972,0.00793622,52.624115,0,20
415097226,415096273,2162698,0.01771002,0.02085255,-0.000479369,52.624115,0,20
415197268,415196354,2162698,0.039920785,0.021518342,0.0006125271,52.624115,0,20
415297335,415296436,2162698,0.03009372,0.020719394,-0.0022903185,52.624115,0,20
415397427,415396519,2162698,0.024367925,0.02463424,-0.0061785337,52.624115,0,20
415497515,415496606,2162698,0.029481193,0.025726136,-0.0002396845,52.624115,0,20
415597578,415596681,2162698,0.03171825,0.025113609,-0.00711064,52.624115,0,20
415700205,415699297,2162698,0.026418557,0.020399814,0.00793622,52.624115,0,20
415797751,415796854,2162698,0.034434672,0.022104237,-7.989483e-05,52.624115,0,20
415997929,415997014,2162698,0.035100464,0.020612868,0.0075900094,52.624115,0,20
416097998,416097100,2162698,0.041039314,0.02444782,-0.0072171665,52.624115,0,20
416298143,416297251,2162698,0.04860269,0.021544972,-0.003355583,52.624115,0,20
416398227,416397333,2162698,0.023515712,0.028016455,-0.010812434,52.624115,0,20
416498323,416497419,2162698,0.011771172,0.02098571,-0.0013848437,52.624115,0,20
416798561,416797659,2162698,0.02479403,0.031318776,0.0005592638,52.624115,0,20
416998731,416997834,2162698,0.020905815,0.032011196,-0.013848438,52.624115,0,20
417098794,417097902,2162698,0.06761766,0.027217507,0.010892329,52.624115,0,20
417198880,417197986,2162698,0.01504686,0.032810144,-0.017150758,52.624115,0,20
417296473,417295566,2162698,0.034647726,0.016751284,0.009986854,52.624115,0,20
417396542,417395647,2162698,0.035579834,0.033156354,0.0017843179,52.624115,0,20
417496623,417495729,2162698,0.01206412,0.030626353,-0.010759171,52.624115,0,20
417596717,417595813,2162698,0.054807857,0.015765913,0.005832323,52.624115,0,20
417696788,417695893,2162698,0.002130529,0.018402442,-0.011877699,52.624115,0,20
417796872,417795977,2162698,0.027244138,0.019201392,0.0058589545,52.624115,0,20
417896950,417896055,2162698,0.037577204,0.017576864,-0.010066749,52.624115,0,20
417997041,417996137,2162698,0.013209279,0.01917476,0.004873585,52.624115,0,20
418097191,418096222,2162698,0.04151868,0.025832662,0.007163903,52.624115,0,20
418197190,418196301,2162698,0.021864552,0.03787015,-0.014487596,52.624115,0,20
418297283,418296393,2162698,0.03688478,0.022104237,0.0016777915,52.624115,0,20
418397353,418396464,2162698,0.029507825,0.009108011,0.011851067,52.718235,0,20
418497460,418496545,2162698,0.06181197,0.014434333,0.00711064,52.718235,0,20
418597520,418596627,2162698,0.0026897928,0.019574234,-0.02727077,52.718235,0,20
418697598,418696709,2162698,0.0371511,0.012916331,0.0042876895,52.718235,0,20
418797687,418796798,2162698,0.025193503,0.017150758,-0.0023169501,52.718235,0,20
418897761,418896872,2162698,0.0014647386,0.00479369,0.004234426,52.718235,0,20
418997854,418996954,2162698,0.037550572,0.02711098,-0.011105382,52.718235,0,20
419097938,419097036,2162698,-0.015180019,0.033502568,-0.0075900094,52.718235,0,20
419198011,419197122,2162698,0.057870492,0.02545982,0.037124466,52.718235,0,20
419298093,419297199,2162698,-0.0011984225,0.02612561,-0.01637844,52.718235,0,20
419398170,419397281,2162698,0.043675844,0.024474451,0.0029827405,52.718235,0,20
419498266,419497363,2162698,0.042850263,0.02711098,0.02530003,52.718235,0,20
419598339,419597450,2162698,0.023089606,0.027883297,-0.02149171,52.718235,0,20
419698429,419697526,2162698,0.06585997,0.023755398,0.0042077946,52.718235,0,20
419798523,419797608,2162698,-0.01901497,0.027616981,-0.0008788432,52.718235,0,20
419898616,419897697,2162698,0.015020229,0.032197617,0.010546118,52.718235,0,20
419998687,419997775,2162698,0.044687845,0.025166873,0.0025033713,52.718235,0,20
420098742,420097853,2162698,0.02181129,0.025965821,-0.014061491,52.718235,0,20
420198837,420197934,2162698,0.005060006,0.022184132,0.009827064,52.718235,0,20
420298905,420298016,2162698,0.025592979,0.021331921,0.0013848437,52.718235,0,20
420396499,420395596,2162698,0.036831517,0.023995081,-0.024740767,52.718235,0,20
420496590,420495698,2162698,0.018535601,0.015100123,-0.0002396845,52.718235,0,20
420596651,420595759,2162698,0.012916331,0.014700649,0.01667139,52.718235,0,20
420696741,420695841,2162698,0.052118063,0.011558119,-0.0020772656,52.718235,0,20
420796843,420795937,2162698,-0.0036485307,0.020133497,-0.012383699,52.718235,0,20
420896907,420896004,2162698,0.026418557,0.0143544385,0.024660872,52.718235,0,20
420996977,420996085,2162698,0.043010052,0.024660872,-0.0057257963,52.718235,0,20
421097155,421096167,2162698,0.029055087,0.025353294,-0.01174454,52.718235,0,20
421197147,421196249,2162698,0.0013315806,0.018082865,0.0127831735,52.718235,0,20
421297229,421296330,2162698,0.037816886,0.021731395,0.0013582122,52.718235,0,20
421397319,421396423,2162698,0.020186761,0.030466562,-0.02380866,52.718235,0,20
421497417,421496499,2162698,0.036938045,0.019068234,0.0012250541,52.718235,0,20
421597494,421596583,2162698,-0.017896442,0.023222765,0.0022636869,52.718235,0,20
421697550,421696657,2162698,0.066046394,0.021864552,0.018375812,52.718235,0,20
421797656,421796745,2162698,0.031638354,0.033182986,-0.02380866,52.718235,0,20
421897743,421896837,2162698,0.007989483,0.028655613,0.009693907,52.718235,0,20
421997826,421996902,2162698,0.044927526,0.02085255,0.009214537,52.718235,0,20
422097906,422096984,2162698,0.07041398,0.025220135,-0.020905815,52.718235,0,20
422197974,422197069,2162698,0.008202536,0.022210764,-0.0033289513,52.718235,0,20
422298059,422297143,2162698,0.019361181,0.017283916,0.007643272,52.718235,0,20
422398152,422397253,2162698,0.05984123,0.018908443,-0.010679276,52.624115,0,20
422498234,422497310,2162698,0.021917816,0.023995081,-0.004394216,52.624115,0,20
422598351,422597398,2162698,0.008122642,0.021837922,0.01917476,52.624115,0,20
422698411,422697503,2162698,0.039894152,0.022796659,0.006764429,52.624115,0,20
422798629,422797627,2162698,0.039228365,0.023542345,-0.022210764,52.624115,0,20
422898574,422897636,2162698,0.012836437,0.011771172,0.015313176,52.624115,0,20
422998659,422997732,2162698,0.005406217,0.017230652,0.017896442,52.624115,0,20
423098723,423097811,2162698,0.014460965,0.023036344,0.004261058,52.624115,0,20
423198797,423197885,2162698,0.059921123,0.024394555,0.00942759,52.624115,0,20
423298868,423297963,2162698,0.021678131,0.024288028,-0.0035686358,52.624115,0,20
423396447,423395543,2162698,0.014700649,0.01981392,-0.0030892668,52.718235,0,20
423496538,423495624,2162698,0.02149171,0.020186761,0.003701794,52.718235,0,20
423596603,423595706,2162698,0.04711132,0.0226635,-0.019441076,52.718235,0,20
423696681,423695788,2162698,0.031798143,0.019654129,0.012144014,52.718235,0,20
423796762,423795869,2162698,-0.024074977,0.022929817,-0.0012250541,52.718235,0,20
423896840,423895951,2162698,-0.14932345,0.029561087,-0.036911413,52.718235,0,20
423996931,423996033,2162698,0.0459129,0.0038882152,0.0037550572,52.718235,0,20
424097107,424096172,2162698,0.018722022,0.023861924,-0.012543489,52.718235,0,20
424197117,424196215,2162698,0.05688512,0.03741741,-0.021864552,52.718235,0,20
424297167,424296278,2162698,0.08375642,0.014940334,0.0018642128,52.718235,0,20
424397257,424396359,2162698,0.028256139,0.013235911,-0.05781723,52.624115,0,20
424497335,424496446,2162698,0.023329291,0.023595607,0.012676647,52.624115,0,20
424597431,424596528,2162698,-0.0484429,0.01898834,0.047244478,52.624115,0,20
424697530,424696638,2162698,0.039547943,-0.013875069,-0.0335292,52.624115,0,20
424797587,424796693,2162698,0.1303351,0.014594123,-0.000106526444,52.624115,0,20
424897666,424896767,2162698,-0.14144048,0.0046072686,-0.0747283,52.624115,0,20
424997740,424996848,2162698,-0.16301209,0.013209279,-0.019734023,52.624115,0,20
425097836,425096930,2162698,0.1607484,0.024660872,0.034274884,52.624115,0,20
425197930,425197016,2162698,0.16112125,0.09379654,0.03981426,52.624115,0,20
425298033,425297093,2162698,0.13238575,0.08948221,0.044900898,52.624115,0,20
425398076,425397181,2162698,0.0350472,-0.0037816889,0.014301175,52.53,0,20
425498150,425497255,2162698,-0.11949604,0.08330368,-0.09843043,52.53,0,20
425598241,425597336,2162698,0.13424996,-0.08876316,-0.046019424,52.53,0,20
425698322,425697427,2162698,0.16397083,-0.03885552,-0.105434544,52.53,0,20
425798395,425797498,2162698,-0.014460965,0.041598577,-0.04897553,52.53,0,20
425898486,425897579,2162698,0.042290997,0.015286544,-0.101812646,52.53,0,20
425998567,425997667,2162698,-0.06149239,-0.079282306,-0.16761936,52.53,0,20
426096130,426095238,2162698,-0.0979777,-0.31001857,-0.18708707,52.53,0,20
426198775,426197821,2162698,0.21835259,0.07358314,-0.11893678,52.53,0,20
426296322,426295420,2162698,0.19787288,-0.016192019,-0.171694,52.53,0,20
426396394,426395487,2162698,0.07560714,0.20540962,-0.078323565,52.20059,0,20
426496487,426495571,2162698,0.13880396,-0.04543353,-0.050786484,52.20059,0,20
426596566,426595667,2162698,-0.13046826,-0.003941478,-0.24533041,52.20059,0,20
426796754,426795802,2162698,-0.0070840083,-0.14644723,0.09765812,52.20059,0,20
426896788,426895889,2162698,0.098803274,0.07680557,0.2669819,52.20059,0,20
426996859,426995961,2162698,-0.17875138,0.0072171665,0.35742286,52.20059,0,20
427097007,427096037,2162698,0.07456851,-0.064075656,0.38786277,52.20059,0,20
427197026,427196121,2162698,0.14679344,-0.03571299,0.0037284256,52.20059,0,20
427297122,427296208,2162698,-0.17568874,0.037124466,0.07352988,52.20059,0,20
427397191,427396293,2162698,0.34690335,0.14306502,-0.120428145,51.824116,0,20
427497277,427496363,2162698,0.14306502,0.17480989,-0.15313177,51.824116,0,20
427597330,427596438,2162698,-1.0074738,-0.13334447,-0.10447581,51.824116,0,20
427697439,427696517,2162698,-0.46341667,0.020479709,0.01158475,51.824116,0,20
427797499,427796596,2162698,-0.1823999,-0.066339344,0.16508935,51.824116,0,20
427897567,427896675,2162698,0.11893678,0.081253044,-0.2996589,51.824116,0,20
427997648,427996754,2162698,-0.019627497,0.15132082,-0.12761869,51.824116,0,20
428097730,428096832,2162698,-0.32485238,0.15678029,-0.04924185,51.824116,0,20
428197818,428196914,2162698,-0.03869573,0.437078,-0.28120318,51.824116,0,20
428297900,428296997,2162698,-0.26535738,0.29340047,0.0022636869,51.824116,0,20
428397970,428397067,2162698,-0.09827065,0.43974116,-0.1470065,51.494705,0,20
428498045,428497146,2162698,0.24972461,0.34386736,-0.048203215,51.494705,0,20
428598133,428597224,2162698,0.009134643,0.20916468,-0.1779258,51.494705,0,20
428698194,428697302,2162698,0.13840449,0.2845055,-0.35539886,51.494705,0,20
428798292,428797391,2162698,-0.46133938,0.14048176,-0.19483687,51.494705,0,20
428898358,428897457,2162698,0.35260254,0.33031186,-0.2213087,51.494705,0,20
428998502,428997580,2162698,0.43785033,0.09755159,0.032810144,51.494705,0,20
429098522,429097612,2162698,0.8143148,0.19220033,-0.3030411,51.494705,0,20
429198585,429197689,2162698,0.53399044,0.025672873,-0.076459356,51.494705,0,20
429298702,429297780,2162698,0.39257658,0.26895264,-0.27558392,51.494705,0,20
429403747,429402848,2162698,0.15819177,0.06482134,-0.0120108565,50.88294,0,20
429496330,429495422,2162698,0.1690042,0.00031957933,0.078616515,50.88294,0,20
429598892,429597997,2162698,0.06468818,0.017070863,0.100720756,50.88294,0,20
429696479,429695572,2162698,0.32237566,0.1503887,-0.07155914,50.88294,0,20
429796537,429795648,2162698,-0.23880565,-0.064395234,0.18924423,50.88294,0,20
429996690,429995801,2162698,-0.17939053,-0.00247674,0.26130936,50.88294,0,20
430096826,430095877,2162698,0.13390374,0.08223841,-0.098590225,50.88294,0,20
430196882,430195960,2162698,0.046365634,0.14045511,0.040266994,50.88294,0,20
430296918,430296030,2162698,-0.05752428,0.069135666,0.173718,50.88294,0,20
430397013,430396113,2162698,0.047031425,0.10418286,-0.056219332,50.647648,0,20
430497095,430496182,2162698,0.062344603,-0.14000238,0.22599585,50.647648,0,20
430597147,430596258,2162698,0.35859466,0.079095885,0.1341168,50.647648,0,20
430697264,430696337,2162698,0.3424559,-0.121892884,0.36759612,50.647648,0,20
430797296,430796402,2162698,0.6707171,0.13467605,-0.011265172,50.647648,0,20
430897376,430896487,2162698,0.39348206,-0.07542072,0.09179916,50.647648,0,20
430997463,430996564,2162698,0.15534219,-0.022903185,-0.14223944,50.647648,0,20
431197630,431196711,2162698,-0.7099987,-0.14104101,0.13848437,50.647648,0,20
431297742,431296817,2162698,-0.12069446,-0.0746484,0.16053535,50.647648,0,20
431397799,431396897,2162698,0.046552055,-0.22804649,0.509516,50.224117,0,20
431497868,431496957,2162698,0.13662016,0.026525084,0.21979068,50.224117,0,20
431597946,431597031,2162698,-0.49651974,-0.067990504,0.29553097,50.224117,0,20
431698001,431697100,2162698,-0.22455774,0.060054284,-0.0032756883,50.224117,0,20
431798053,431797159,2162698,-0.25848642,-0.2072472,0.25164208,50.224117,0,20
431898160,431897235,2162698,-0.13369069,0.053023536,0.080454096,50.224117,0,20
431998227,431997312,2162698,-0.33641052,-0.13574132,0.29241508,50.224117,0,20
432098298,432097393,2162698,0.09155948,0.052996907,0.0633566,50.224117,0,20
432198385,432197470,2162698,-0.46272424,-0.07305051,0.07225156,50.224117,0,20
432396023,432395109,2162698,-0.36381444,-0.13182648,0.021252025,49.894707,0,20
432598651,432597752,2162698,-0.10282465,-0.09611348,0.19566244,49.894707,0,20
432696243,432695339,2162698,0.18524949,0.0056991647,0.034461305,49.894707,0,20
432796316,432795399,2162698,-0.17957695,-0.12370383,-0.047058057,49.894707,0,20
432898876,432897973,2162698,-0.12245215,-0.09930928,-0.11342403,49.894707,0,20
432998936,432998047,2162698,-0.16093482,-0.063409865,0.09414274,49.894707,0,20
433096537,433095630,2162698,-0.19230686,0.0783502,-0.12261194,49.894707,0,20
433196588,433195691,2162698,-0.49548113,-0.21720742,0.14788534,49.894707,0,20
433296739,433295770,2162698,-0.20341225,0.06716492,0.06415555,49.894707,0,20
433396754,433395844,2162698,0.094994955,0.11845741,0.12876384,49.424118,0,20
433496820,433495916,2162698,0.020479709,0.0515588,-0.18034928,49.424118,0,20
433596876,433595982,2162698,0.2344647,0.16413061,-0.40754354,49.424118,0,20
433696969,433696055,2162698,-0.18202706,0.06117281,-0.3265568,49.424118,0,20
433997165,433996273,2162698,-0.14796524,-0.1516404,0.13792512,49.424118,0,20
434097367,434096369,2162698,0.16772589,-0.1128914,-0.007882956,49.424118,0,20
434197323,434196424,2162698,0.33744913,0.2246909,-0.13992248,49.424118,0,20
434297392,434296489,2162698,0.44469464,0.00711064,-0.09044095,49.424118,0,20
434397464,434396561,2162698,0.2559564,-0.014514228,-0.29656962,49.047646,0,20
434497530,434496633,2162698,0.42402852,0.14612766,-0.37681067,49.047646,0,20
434597596,434596704,2162698,0.29265478,0.010546118,-0.10964234,49.047646,0,20
434697722,434696776,2162698,-0.015579493,-0.084555365,-0.050679956,49.047646,0,20
434797745,434796847,2162698,0.115927406,-0.051798485,0.09371664,49.047646,0,20
434897897,434896919,2162698,0.18381138,-0.12357067,0.4012052,49.047646,0,20
434997903,434997001,2162698,0.0396811,-0.1717739,0.26346654,49.047646,0,20
435097951,435097059,2162698,0.13358416,-0.095074855,0.030466562,49.047646,0,20
435198020,435197128,2162698,0.64571005,-0.10080065,-0.047377635,49.047646,0,20
435298121,435297229,2162698,0.28128308,-0.21893847,0.03486078,49.047646,0,20
435398191,435397293,2162698,0.038562573,0.045886267,0.059308596,48.671177,0,20
435498249,435497346,2162698,0.29819414,0.1813879,0.034967307,48.671177,0,20
435698420,435697493,2162698,0.076485984,-0.027297402,0.17539579,48.671177,0,20
435798479,435797556,2162698,0.48110005,0.20807278,0.062424496,48.671177,0,20
435898536,435897626,2162698,0.7271229,0.16737968,-0.031531826,48.671177,0,20
435998622,435997703,2162698,0.3164368,0.018109495,0.07454188,48.671177,0,20
436098702,436097766,2162698,-0.1051416,-0.10887003,0.047004793,48.671177,0,20
436198735,436197837,2162698,-0.24024376,-0.009241169,0.064288706,48.671177,0,20
436398874,436397976,2162698,-0.24610272,-0.021331921,0.25574335,48.247646,0,20
436498951,436498046,2162698,-0.13635385,0.13760553,0.24802019,48.247646,0,20
436599008,436598115,2162698,0.08908274,0.4977981,0.0758202,48.247646,0,20
436696605,436695689,2162698,-0.19475697,0.38344193,0.2513225,48.247646,0,20
436796647,436795752,2162698,0.074621774,0.22354575,0.015419703,48.247646,0,20
436899220,436898323,2162698,-0.23518376,0.36019254,0.1830657,48.247646,0,20
436996792,436995897,2162698,0.18421085,0.5524994,0.29819414,48.247646,0,20
437096932,437095966,2162698,-0.15813851,0.33963293,0.063223444,48.247646,0,20
437199432,437198531,2162698,-0.24168187,0.36461338,0.21712753,48.247646,0,20
437296986,437296097,2162698,-0.07787083,0.58893144,0.19678098,48.247646,0,20
437399580,437398672,2162698,0.27856666,0.476839,0.14559501,47.918236,0,20
437497131,437496235,2162698,0.14993598,0.06759103,0.10602044,47.918236,0,20
437597192,437596303,2162698,0.3804592,0.18490328,0.044581316,47.918236,0,20
437699865,437698967,2162698,0.5066398,0.15528892,0.17044231,47.918236,0,20
437799896,437798943,2162698,0.33377397,-0.22431806,-0.008788432,47.918236,0,20
437899913,437899011,2162698,0.07374293,-0.15153387,0.27467844,47.918236,0,20
437999983,437999086,2162698,-0.1436509,-0.18271948,0.25877938,47.918236,0,20
438097614,438096654,2162698,0.2791792,0.032943305,0.13720606,47.918236,0,20
438197608,438196714,2162698,1.0231864,0.08540758,0.21366541,47.918236,0,20
438300183,438299284,2162698,0.481899,-0.25385252,0.09968212,47.918236,0,20
438397739,438396850,2162698,0.3749731,0.112358764,0.015579493,47.541763,0,20
438497836,438496921,2162698,-0.1294829,0.06809703,0.17156084,47.541763,0,20
438600392,438599487,2162698,-0.81117225,-0.31675637,0.32820797,47.541763,0,20
438700457,438699554,2162698,-0.40727723,-0.14551513,0.33934,47.541763,0,20
438798036,438797142,2162698,0.14436996,-0.0035153728,0.37420076,47.541763,0,20
438898089,438897188,2162698,0.026684875,0.027190875,0.18548918,47.541763,0,20
439000657,438999757,2162698,0.05227785,-0.005672533,-0.038216364,47.541763,0,20
439100728,439099827,2162698,0.13315806,0.16671388,-0.011691277,47.541763,0,20
439198298,439197398,2162698,0.5282913,0.25395903,0.30655646,47.541763,0,20
439298376,439297464,2162698,0.52030176,0.091958955,0.3834952,47.541763,0,20
439400925,439400026,2162698,0.23214775,0.10428939,0.102292016,47.25941,0,20
439500986,439500093,2162698,-0.2883937,0.31489217,0.19148128,47.25941,0,20
439598558,439597658,2162698,-0.6583334,0.166128,0.51750547,47.25941,0,20
439703631,439702728,2162698,-0.5334045,-0.076965354,0.23270702,47.25941,0,20
439801191,439800299,2162698,-0.06468818,0.081918836,0.47140616,47.25941,0,20
439896311,439895387,2162698,-0.05491438,0.086313054,0.1753159,47.25941,0,20
439998826,439997925,2162698,-0.7290403,0.05060006,0.44349623,47.25941,0,20
440101406,440100499,2162698,-0.50879693,-0.04197142,0.47880974,47.25941,0,20
440196469,440195560,2162698,0.037550572,-0.021278657,0.36535907,47.25941,0,20
440296528,440295623,2162698,0.31233552,-0.12167983,0.13725932,47.25941,0,20
440396594,440395689,2162698,0.7333547,-0.10945592,-0.034168355,46.88294,0,20
440496648,440495757,2162698,-0.43899548,0.031851407,-0.18847191,46.88294,0,20
440596748,440595849,2162698,-0.4182228,0.047697216,-0.14969629,46.88294,0,20
440696832,440695888,2162698,-1.2106198,-0.004021373,-0.028122982,46.88294,0,20
440796853,440795954,2162698,-0.9039301,-0.29691583,0.21699436,46.88294,0,20
440896944,440896025,2162698,-0.34682348,-0.24514398,0.423416,46.88294,0,20
440997026,440996087,2162698,-0.18847191,-0.16245283,0.40013996,46.88294,0,20
441097055,441096153,2162698,-0.016644757,-0.09406285,0.22024342,46.88294,0,20
441197122,441196219,2162698,0.24005735,-0.11062771,-0.031505197,46.88294,0,20
441297184,441296285,2162698,0.15076154,0.050307114,-0.22647522,46.88294,0,20
441397273,441396351,2162698,-0.28743497,0.0018375812,-0.20652814,46.788822,0,20
441497309,441496417,2162698,-0.5288239,-0.22860575,-0.09299759,46.788822,0,20
441597431,441596500,2162698,-0.57958376,-0.010626012,-0.024048345,46.788822,0,20
441697456,441696549,2162698,-0.62770706,-0.09699233,0.038136467,46.788822,0,20
441797523,441796615,2162698,-0.30644995,-0.006524745,0.17084178,46.788822,0,20
441897576,441896685,2162698,-0.11869709,-0.0262854,0.07307714,46.788822,0,20
441997665,441996768,2162698,0.5595035,-0.09933591,0.0025832662,46.788822,0,20
442097715,442096813,2162698,1.6759007,0.011717909,-0.017763285,46.788822,0,20
442197777,442196879,2162698,1.339277,0.06367618,-0.3293265,46.788822,0,20
442302903,442301948,2162698,1.2711535,0.20583571,-0.4304201,46.788822,0,20
442402930,442402019,2162698,0.85346323,0.21939121,-0.33451965,46.788822,0,20
442497974,442497077,2162698,0.8274708,0.18186727,-0.048229847,46.788822,0,20
442598059,442597147,2162698,1.000736,0.3954528,0.1746501,46.788822,0,20
442703112,442702211,2162698,1.0864632,0.55580175,0.42783684,46.788822,0,20
442798230,442797273,2162698,0.9516806,0.441632,0.8818259,46.788822,0,20
442898240,442897338,2162698,1.1075022,0.53122073,0.8254734,46.788822,0,20
443003327,443002414,2162698,1.2981845,0.33888724,0.5218198,46.788822,0,20
443098360,443097469,2162698,0.18548918,0.42631882,0.48847702,46.788822,0,20
443198444,443197534,2162698,-0.5640309,0.68634987,0.3456783,46.788822,0,20
443298615,443297606,2162698,-1.9444271,0.39489353,0.48783785,46.788822,0,20
443398663,443397664,2162698,-1.8217887,0.4160124,0.84531397,46.318233,0,20
443498626,443497728,2162698,-0.8798019,0.39792952,0.38613173,46.318233,0,20
443598706,443597797,2162698,0.09827065,0.47646615,0.3561179,46.318233,0,20
443703758,443702858,2162698,0.32884714,0.640437,0.10213223,46.318233,0,20
443803819,443802926,2162698,0.17486316,0.4977448,-0.23515713,46.318233,0,20
443898879,443897987,2162698,0.054461643,0.5674131,-0.1521464,46.318233,0,20
443998960,443998063,2162698,-0.65439194,0.32623723,-0.04269047,46.318233,0,20
444096582,444095615,2162698,-1.2268385,0.3155846,0.42269692,46.318233,0,20
444196586,444195683,2162698,-0.7400126,0.33292177,0.6041381,46.318233,0,20
444296633,444295744,2162698,0.05747102,0.25324,0.34314832,46.318233,0,20
444396699,444395811,2162698,0.083383575,0.2107093,-0.020719394,46.224117,0,20
444496761,444495872,2162698,0.6672284,0.0700944,-0.20133498,46.224117,0,20
444596825,444595936,2162698,0.6663229,0.12045477,-0.07225156,46.224117,0,20
444696945,444696000,2162698,0.425946,0.17544906,-0.13262542,46.224117,0,20
444796958,444796064,2162698,-0.021651499,0.034914043,0.03177151,46.224117,0,20
444897056,444896138,2162698,-0.16860473,0.15049523,0.016724652,46.224117,0,20
444997128,444996197,2162698,0.019228023,0.11488877,0.014008228,46.224117,0,20
445097232,445096270,2162698,0.808296,0.045726474,-0.12290488,46.224117,0,20
445197220,445196323,2162698,0.7030479,0.06332997,-0.04447479,46.224117,0,20
445297285,445296391,2162698,-0.04689827,-0.07611314,0.25281388,46.224117,0,20
445397377,445396461,2162698,-0.16788568,-0.17097494,0.1300688,45.847645,0,20
445497512,445496510,2162698,-0.15587482,-0.0360592,0.07400925,45.847645,0,20
445597475,445596573,2162698,-0.014327806,0.11563446,0.06612629,45.847645,0,20
445697597,445696636,2162698,-0.5195028,0.037657097,0.009347696,45.847645,0,20
445797605,445796699,2162698,-0.4358263,0.015100123,0.27326697,45.847645,0,20
445897652,445896759,2162698,-0.214997,0.025699504,0.6007825,45.847645,0,20
445997738,445996832,2162698,-0.08580705,-0.18325211,0.5109541,45.847645,0,20
446097887,446096898,2162698,0.27308053,-0.008788432,0.33161682,45.847645,0,20
446197859,446196951,2162698,0.32101744,0.2530802,-0.21030983,45.847645,0,20
446297977,446297014,2162698,-0.16378441,-0.15520903,-0.072651036,45.847645,0,20
446398032,446397123,2162698,0.09765812,0.12921658,0.13278522,45.565292,0,20
446498029,446497140,2162698,0.46725163,0.12857741,-0.20929784,45.565292,0,20
446598092,446597203,2162698,-0.034168355,-0.13568805,-0.1155013,45.565292,0,20
446698154,446697265,2162698,0.026471822,0.28599688,0.15536882,45.565292,0,20
446798222,446797327,2162698,0.15755261,0.1566205,-0.0014913703,45.565292,0,20
446898404,446897421,2162698,-0.30980554,0.0087618,0.26522422,45.565292,0,20
446998471,446997469,2162698,0.09989517,0.23350596,0.29566413,45.565292,0,20
447098515,447097515,2162698,0.20466393,0.12650016,0.043036684,45.565292,0,20
447196028,447195118,2162698,0.25379926,0.2684999,0.0459129,45.565292,0,20
447296032,447295137,2162698,-0.16370451,-0.036378782,0.20333235,45.565292,0,20
447398643,447397715,2162698,0.124928884,0.12887037,0.0056991647,45.377056,0,20
447498682,447497763,2162698,-0.220057,0.16029567,0.3692473,45.377056,0,20
447596231,447595324,2162698,-0.18016285,0.007057377,0.31822112,45.377056,0,20
447696306,447695396,2162698,0.11949604,0.22711438,0.30692932,45.377056,0,20
447798922,447797953,2162698,-0.07054714,0.072278194,0.3625095,45.377056,0,20
447896490,447895517,2162698,-0.12554142,-0.039920785,0.34376085,45.377056,0,20
447996484,447995579,2162698,0.27238813,0.20836572,0.18831213,45.377056,0,20
448096541,448095632,2162698,0.10596718,0.0014114754,0.07395598,45.377056,0,20
448196599,448195694,2162698,-0.15765914,0.12181299,0.32847428,45.377056,0,20
448296715,448295755,2162698,0.08066715,0.23132217,0.19952403,45.377056,0,20
448396714,448395816,2162698,-0.07747135,-0.05438175,0.10801782,45.047646,0,20
448496849,448495878,2162698,-0.19691414,0.04972122,0.38815573,45.047646,0,20
448596838,448595939,2162698,0.14953649,0.23939155,0.19915119,45.047646,0,20
448696894,448696000,2162698,0.035260253,0.108071074,0.02149171,45.047646,0,20
448797057,448796068,2162698,-0.09584717,0.07406251,0.3517503,45.047646,0,20
448897134,448896135,2162698,0.091666006,0.1520665,0.1712679,45.047646,0,20
448997094,448996184,2162698,-0.46927562,-0.040932786,0.05235775,45.047646,0,20
449097192,449096244,2162698,-0.6024869,0.09968212,0.42546663,45.047646,0,20
449197205,449196307,2162698,-0.64091635,0.0045273737,0.16548882,45.047646,0,20
449297277,449296366,2162698,-1.062042,-0.117818244,0.16996294,45.047646,0,20
449497395,449496489,2162698,-0.081439465,0.103463806,-0.080267675,44.81235,0,20
449597523,449596551,2162698,-0.23688819,-0.02117213,0.11920309,44.81235,0,20
449697505,449696603,2162698,0.53460294,0.14162691,-0.013022858,44.81235,0,20
449797578,449796677,2162698,0.44349623,0.08468852,-0.27750137,44.81235,0,20
449897702,449896778,2162698,0.28969866,0.09358348,0.08013452,44.81235,0,20
449997761,449996793,2162698,0.23529029,0.12799153,0.29672942,44.81235,0,20
450097750,450096850,2162698,-0.087112,0.0051665325,0.13070795,44.81235,0,20
450197810,450196910,2162698,-0.0335292,0.06002765,0.2808037,44.81235,0,20
450297989,450296974,2162698,0.32173648,0.1283111,-0.05060006,44.81235,0,20
450397931,450397031,2162698,-0.055100802,-0.064768076,-0.02676477,44.53,0,20
450497989,450497091,2162698,0.19664782,0.1549427,0.12144015,44.53,0,20
450598115,450597151,2162698,-0.115448035,-0.012996227,-0.12956278,44.53,0,20
450698160,450697215,2162698,-0.42184472,-0.1056476,0.31718248,44.53,0,20
450898294,450897330,2162698,-0.19542277,-0.00844222,0.114968665,44.53,0,20
450998361,450997398,2162698,0.066339344,0.061385863,0.26583675,44.53,0,20
451098432,451097452,2162698,0.14831144,0.065061025,-0.073343456,44.53,0,20
451198427,451197512,2162698,-0.18418422,-0.081945464,0.08423579,44.53,0,20
451298478,451297568,2162698,0.01272991,0.09134643,0.10719223,44.53,0,20
451398610,451397627,2162698,-0.49867693,0.12932311,0.075580515,44.341763,0,20
451498633,451497710,2162698,0.010998855,-0.08447547,0.26210833,44.341763,0,20
451598666,451597751,2162698,0.5030711,0.078616515,-0.021278657,44.341763,0,20
451698710,451697808,2162698,-0.4358796,-0.083569996,-0.06532734,44.341763,0,20
451798769,451797872,2162698,-0.2941195,0.09542106,0.15092134,44.341763,0,20
451898821,451897924,2162698,-0.3456783,-0.01771002,-0.06247776,44.341763,0,20
452098934,452098042,2162698,-0.08181231,0.13787185,0.10759171,44.341763,0,20
452196496,452195599,2162698,0.18040253,0.17864485,0.09246495,44.341763,0,20
452296553,452295658,2162698,-0.071479246,-0.17795242,-0.040772997,44.341763,0,20
452396621,452395728,2162698,0.14359765,0.029454561,0.11105382,44.05941,0,20
452499169,452498277,2162698,-0.1155013,-0.04780374,-0.07131945,44.05941,0,20
452599234,452598336,2162698,0.079681784,0.14972292,0.13576795,44.05941,0,20
452696854,452695893,2162698,0.15600798,0.175236,0.26210833,44.05941,0,20
452796865,452795957,2162698,-0.07613978,0.11608719,0.040027313,44.05941,0,20
452899488,452898511,2162698,0.20604877,0.1380849,0.18881813,44.05941,0,20
452996957,452996068,2162698,0.3539341,0.1525725,0.10117349,44.05941,0,20
453097097,453096122,2162698,0.10383665,-0.03523362,-0.16964336,44.05941,0,20
453202165,453201194,2162698,-0.24722125,-0.16660737,-0.18572885,44.05941,0,20
453299651,453298747,2162698,-0.29566413,-0.03800331,-0.14562164,44.05941,0,20
453397220,453396305,2162698,-0.28959215,-0.039654467,-0.11797804,43.73,0,20
453497283,453496367,2162698,-0.30242857,-0.106899284,0.25659558,43.73,0,20
453599817,453598920,2162698,0.0011451592,-0.18221349,-0.016777916,43.73,0,20
453699890,453698984,2162698,0.3166232,0.052517537,0.15217303,43.73,0,20
453897494,453896592,2162698,0.5537777,0.18389128,-0.083197154,43.73,0,20
453997539,453996650,2162698,0.18373148,0.045034055,-0.19441076,43.73,0,20
454097711,454096747,2162698,0.21659489,-0.07608651,0.109908655,43.73,0,20
454200170,454199278,2162698,0.15310512,0.043116577,0.02298308,43.73,0,20
454300235,454299325,2162698,0.24141556,0.008282431,0.2530802,43.73,0,20
454497925,454496940,2162698,0.3874633,0.1577923,0.19771308,43.68294,0,20
454600472,454599497,2162698,0.091186635,-0.029561087,0.16636768,43.68294,0,20
454700464,454699559,2162698,0.32370722,0.20048277,0.20570256,43.68294,0,20
454798057,454797112,2162698,0.18117484,0.059574913,0.24306671,43.68294,0,20
454898074,454897185,2162698,0.32866073,0.17243968,0.013795175,43.68294,0,20
455000683,454999781,2162698,0.19917782,0.07137272,0.31252196,43.68294,0,20
455100690,455099784,2162698,0.52160674,0.19185412,0.2133192,43.68294,0,20
455198294,455197340,2162698,0.42778358,0.077657774,0.2417884,43.68294,0,20
455298293,455297404,2162698,0.84347636,0.16977651,0.054941013,43.68294,0,20
455400866,455399962,2162698,0.60637516,0.28842035,0.34181672,43.40059,0,20
455500904,455500012,2162698,0.88744515,0.22799322,0.016271913,43.40059,0,20
455595996,455595104,2162698,0.009827064,0.09920275,0.10149307,43.40059,0,20
455701130,455700142,2162698,-0.2579804,0.040266994,0.21009678,43.40059,0,20
455801103,455800183,2162698,-0.055340488,0.028043086,0.61364555,43.40059,0,20
455898651,455897738,2162698,-0.11765846,-0.01355549,0.55497617,43.40059,0,20
455996267,455995301,2162698,0.061066285,0.07603325,0.19651465,43.40059,0,20
456101270,456100364,2162698,0.41718417,0.21454425,0.25699505,43.40059,0,20
456201357,456200410,2162698,0.057977017,0.05965481,0.15590145,43.40059,0,20
456296411,456295495,2162698,-0.043409526,0.070227556,0.20530309,43.40059,0,20
456396484,456395521,2162698,-0.3718039,-0.055686697,0.33771545,43.212353,0,20
456496545,456495578,2162698,-0.29691583,-0.12040152,0.22799322,43.212353,0,20
456601605,456600647,2162698,0.06809703,0.1103614,0.26695526,43.212353,0,20
456701596,456700693,2162698,0.12956278,0.15853798,0.44733116,43.212353,0,20
456796700,456795747,2162698,0.27672908,0.11941615,0.2214951,43.212353,0,20
456896764,456895803,2162698,0.13598101,0.15190671,0.23813987,43.212353,0,20
457001760,457000862,2162698,-0.22759375,0.09914949,0.23284018,43.212353,0,20
457096806,457095915,2162698,0.007989483,0.023009712,-0.011957593,43.212353,0,20
457196864,457195972,2162698,-0.4223507,0.15968314,0.20045614,43.212353,0,20
457296928,457296028,2162698,-0.036911413,0.5590774,0.2893791,43.212353,0,20
457404546,457403588,2162698,-0.14397049,0.4383297,0.42301652,43.118233,0,20
457504623,457503661,2162698,0.15733956,0.4586496,0.075500615,43.118233,0,20
457597167,457596204,2162698,0.31497207,0.4914065,0.2836533,43.118233,0,20
457702183,457701254,2162698,0.640943,0.63196814,-0.031451933,43.118233,0,20
457802213,457801314,2162698,-0.0551807,0.4316185,0.22306637,43.118233,0,20
457897270,457896363,2162698,-0.2824016,0.3412042,0.19052255,43.118233,0,20
457997394,457996419,2162698,0.33374736,0.45076665,0.19571571,43.118233,0,20
458102402,458101502,2162698,0.18394454,0.40501353,0.16692694,43.118233,0,20
458202432,458201532,2162698,0.88989526,0.4515656,0.41140512,43.118233,0,20
458297501,458296594,2162698,1.707539,0.37310886,0.17182715,43.118233,0,20
458397548,458396644,2162698,1.543222,0.6952182,-0.061066285,43.024117,0,20
458502615,458501701,2162698,-0.16687368,0.50578755,0.10061423,43.024117,0,20
458602674,458601761,2162698,-1.4880146,0.43476105,0.41369545,43.024117,0,20
458697707,458696809,2162698,-0.6786001,0.20799288,0.77117157,43.024117,0,20
458797759,458796865,2162698,0.26948527,0.40634513,0.8005729,43.024117,0,20
458902819,458901923,2162698,0.35891423,0.54970306,0.36456013,43.024117,0,20
459097937,459097031,2162698,0.15952335,0.22660838,-0.19944413,43.024117,0,20
459202989,459202090,2162698,0.18745992,0.18322548,-0.24969798,43.024117,0,20
459298094,459297142,2162698,-0.8823319,0.14780544,0.20194751,43.024117,0,20
459398098,459397207,2162698,-1.0155698,-0.12588763,0.44605285,42.788822,0,20
459503162,459502261,2162698,-0.8245147,-0.0022104238,0.819428,42.788822,0,20
459598200,459597308,2162698,-0.4967328,-0.16508935,0.45260423,42.788822,0,20
459698269,459697363,2162698,-0.2499643,-0.1639442,0.32858083,42.788822,0,20
459803318,459802418,2162698,0.5861884,-0.0788562,-0.17811221,42.788822,0,20
459903392,459902483,2162698,0.5350557,-0.05968144,-0.16056198,42.788822,0,20
459998459,459997529,2162698,0.34597126,0.03597931,0.11464909,42.788822,0,20
460098578,460097584,2162698,0.23696807,0.08918927,0.21832594,42.788822,0,20
460203557,460202641,2162698,-0.27188212,-0.0793622,0.42994073,42.788822,0,20
460303601,460302702,2162698,-0.44354948,-0.057444386,0.63540363,42.788822,0,20
460398665,460397756,2162698,-0.20335898,-0.12282499,0.28479844,42.647648,0,20
460498776,460497815,2162698,-0.011318435,-0.14285196,0.2626143,42.647648,0,20
460603757,460602861,2162698,0.028362665,-0.13174658,0.008042746,42.647648,0,20
460698805,460697913,2162698,0.025326662,-0.15590145,0.23971114,42.647648,0,20
460798868,460797968,2162698,0.7032876,-0.022290658,0.35553202,42.647648,0,20
460903927,460903026,2162698,0.028655613,-0.112625085,0.2458364,42.647648,0,20
460996506,460995578,2162698,0.09707222,-0.24578314,0.058616176,42.647648,0,20
461196587,461195686,2162698,0.1690042,-0.026152242,0.113024555,42.647648,0,20
461296648,461295753,2162698,-0.26945865,0.03259709,0.3665575,42.647648,0,20
461396683,461395795,2162698,0.10836402,0.025060346,0.25832662,42.553528,0,20
461496738,461495849,2162698,-0.33486587,-0.0067377975,0.55084825,42.553528,0,20
461596793,461595904,2162698,0.84962827,0.36653087,0.48046088,42.553528,0,20
461696848,461695958,2162698,0.017923074,0.24194819,0.42008704,42.553528,0,20
461796911,461796013,2162698,0.11582088,0.2704174,0.047484163,42.553528,0,20
461896956,461896067,2162698,0.2005893,0.2682602,-0.06759103,42.553528,0,20
461997047,461996145,2162698,-0.0010918961,0.44197822,0.2791792,42.553528,0,20
462097117,462096182,2162698,0.61718756,0.71537834,-0.026738137,42.553528,0,20
462197153,462196240,2162698,0.4752411,0.5891179,0.11259845,42.553528,0,20
462297210,462296285,2162698,0.5113269,0.6621151,0.17518273,42.553528,0,20
462397273,462396344,2162698,0.42448124,0.6584133,0.32155007,42.36529,0,20
462497320,462496409,2162698,0.06452839,0.5274124,0.3741475,42.36529,0,20
462597353,462596447,2162698,0.45910233,0.75580513,0.2657835,42.36529,0,20
462697410,462696501,2162698,-0.5551892,0.541394,0.39350867,42.36529,0,20
462797453,462796556,2162698,-0.66634953,0.45020738,0.3763579,42.36529,0,20
462897512,462896612,2162698,-0.7337009,0.5419267,0.5072523,42.36529,0,20
462997558,462996664,2162698,-0.21483721,0.5170261,0.24000408,42.36529,0,20
463097609,463096718,2162698,-0.17113473,0.34493262,0.26551718,42.36529,0,20
463197662,463196773,2162698,-0.2883937,0.18269286,0.09355685,42.36529,0,20
463297739,463296847,2162698,-0.68041104,0.05060006,0.31505197,42.36529,0,20
463397843,463396880,2162698,-0.23457123,0.06295713,0.21036309,42.271175,0,20
463497852,463496938,2162698,-0.63343287,-0.15784556,0.4486361,42.271175,0,20
463597914,463597001,2162698,-0.17294568,-0.057284594,0.2908971,42.271175,0,20
463697955,463697053,2162698,-0.2781672,-0.10231865,0.41018006,42.271175,0,20
463798021,463797128,2162698,-0.24005735,-0.110388026,0.25369272,42.271175,0,20
463898053,463897151,2162698,0.0017310547,-0.044528052,0.046205845,42.271175,0,20
463998105,463997211,2162698,-0.389727,-0.0768322,0.08333031,42.271175,0,20
464098213,464097258,2162698,0.034567833,-0.035926044,-0.062051654,42.271175,0,20
464198207,464197312,2162698,0.17243968,-0.005113269,0.0350472,42.271175,0,20
464298269,464297366,2162698,-0.38514635,-0.029108351,0.21044299,42.271175,0,20
464398315,464397420,2162698,-0.040107206,0.08956211,0.20631509,42.129997,0,20
464498362,464497474,2162698,-0.27630296,-0.02793656,0.4091148,42.129997,0,20
464598454,464597528,2162698,0.6821687,0.27651602,0.25137576,42.129997,0,20
464698567,464697581,2162698,0.33763558,0.23225428,0.20437099,42.129997,0,20
464898581,464897688,2162698,0.5324991,0.11182614,-0.03962784,42.129997,0,20
464998679,464997747,2162698,0.6385461,0.2551042,-0.18807244,42.129997,0,20
465098799,465097816,2162698,-0.08263789,0.20748688,0.16194683,42.129997,0,20
465196264,465195348,2162698,-0.10194581,0.08253136,0.24463798,42.129997,0,20
465298806,465297907,2162698,-0.022583606,0.09491506,0.2974751,42.129997,0,20
465396356,465395458,2162698,-0.3888215,0.1556884,0.58192736,42.17706,0,20
465496482,465495516,2162698,-0.24770062,0.1318531,0.22927155,42.17706,0,20
465596472,465595562,2162698,-0.02330266,0.14559501,0.014061491,42.17706,0,20
465696519,465695615,2162698,-0.06399576,-0.04695153,0.21555626,42.17706,0,20
465796568,465795668,2162698,-0.038935415,-0.05917544,0.0690025,42.17706,0,20
465896626,465895722,2162698,-0.8536763,-0.023675501,0.1036236,42.17706,0,20
465996671,465995780,2162698,-0.79633844,-0.04063984,0.18450381,42.17706,0,20
466096735,466095843,2162698,-0.26482475,-0.022796659,0.22692795,42.17706,0,20
466196793,466195898,2162698,-0.38312235,0.10479539,0.45976815,42.17706,0,20
466296836,466295935,2162698,-0.69239527,0.09752496,0.08495484,42.17706,0,20
466396887,466395988,2162698,-0.20362529,0.11459582,-0.26634273,41.894703,0,20
466496945,466496041,2162698,-0.5999303,0.31710258,-0.23313312,41.894703,0,20
466596992,466596095,2162698,-0.4056527,0.5687181,0.092172004,41.894703,0,20
466697059,466696148,2162698,-0.26138926,0.4136688,-0.21614215,41.894703,0,20
466797112,466796208,2162698,-0.2421346,0.3029346,-0.089056104,41.894703,0,20
466897151,466896259,2162698,-1.0158894,0.18168084,0.01190433,41.894703,0,20
466997199,466996307,2162698,-1.3269999,0.22053637,0.46962184,41.894703,0,20
467097273,467096364,2162698,-0.12535499,0.33435988,0.35987297,41.894703,0,20
467197307,467196413,2162698,1.2109394,0.49936935,-0.05057343,41.894703,0,20
467297364,467296466,2162698,2.6776752,0.17595506,0.07856325,41.894703,0,20
467397420,467396519,2162698,2.8563735,0.09851033,-0.5104481,41.800587,0,20
467497501,467496579,2162698,2.1011543,0.10982876,-0.793622,41.800587,0,20
467597523,467596632,2162698,0.4638694,0.15393071,-0.93833816,41.800587,0,20
467697579,467696678,2162698,-1.0255034,-0.13366406,0.038748994,41.800587,0,20
467797636,467796730,2162698,-1.5145663,-0.16692694,0.61532336,41.800587,0,20
467897680,467896783,2162698,-1.365243,-0.38615835,1.1945609,41.800587,0,20
467997760,467996842,2162698,-0.6423544,-0.24690166,0.747283,41.800587,0,20
468097845,468096890,2162698,0.61806643,-0.09560748,0.36485308,41.800587,0,20
468197845,468196942,2162698,1.0273677,-0.06511429,0.039840892,41.800587,0,20
468297931,468297019,2162698,0.45201832,-0.050014164,-0.30197585,41.800587,0,20
468397953,468397047,2162698,-0.6295447,0.021331921,-0.33233586,41.894703,0,20
468497999,468497100,2162698,-0.72749573,-0.025646241,-0.16476978,41.894703,0,20
468598049,468597152,2162698,-0.95682055,-0.16772589,0.31001857,41.894703,0,20
468698130,468697221,2162698,-0.97825897,-0.35523906,0.6269081,41.894703,0,20
468798203,468797257,2162698,-0.54419035,-0.3220827,0.7528224,41.894703,0,20
468898211,468897310,2162698,0.34336135,-0.23017702,0.5119661,41.894703,0,20
468998261,468997359,2162698,1.123561,-0.16927052,0.08111989,41.894703,0,20
469098356,469097462,2162698,0.8491489,-0.20908478,-0.45904908,41.894703,0,20
469198367,469197475,2162698,-0.34309503,-0.31393343,-0.45436192,41.894703,0,20
469298443,469297523,2162698,-0.7199323,-0.33617082,-0.25547704,41.894703,0,20
469398499,469397575,2162698,-1.3434316,-0.5021124,0.13036174,41.70647,0,20
469498545,469497626,2162698,-1.4995462,-0.4673049,0.5882124,41.70647,0,20
469598577,469597685,2162698,-0.54855794,-0.6795055,0.78869516,41.70647,0,20
469698657,469697735,2162698,0.56078184,-0.1155013,0.5205415,41.70647,0,20
469798694,469797783,2162698,0.7667241,0.2211489,0.18482338,41.70647,0,20
469898740,469897836,2162698,0.7806524,0.5025385,-0.36197686,41.70647,0,20
469998787,469997888,2162698,0.08857674,0.54261905,-0.58040935,41.70647,0,20
470098836,470097941,2162698,-0.053130064,0.31382692,-0.7701063,41.70647,0,20
470198886,470197993,2162698,-0.94073504,0.48663944,-0.45840994,41.70647,0,20
470296471,470295544,2162698,0.08215852,0.4708469,-0.04247742,41.70647,0,20
470396496,470395597,2162698,0.47042078,0.5360943,0.033475935,41.847645,0,20
470499044,470498151,2162698,0.15598135,0.26037726,-0.096060224,41.847645,0,20
470599098,470598198,2162698,0.18943065,0.29443908,-0.18085527,41.847645,0,20
470796696,470795807,2162698,-0.68978536,0.2604039,-0.13659354,41.847645,0,20
470899267,470898361,2162698,-0.20010993,0.175742,0.054994278,41.847645,0,20
470996801,470995912,2162698,0.21374531,-0.03936152,0.22474417,41.847645,0,20
471099448,471098470,2162698,0.96805906,0.007403588,0.10772487,41.847645,0,20
471199419,471198518,2162698,1.5853266,0.12642026,-0.10165286,41.847645,0,20
471296958,471296070,2162698,2.6484072,-0.02149171,-0.33153692,41.847645,0,20
471397045,471396143,2162698,2.104936,-0.121786356,-0.67527115,41.70647,0,20
471499582,471498676,2162698,0.9116267,0.27960527,-0.47526774,41.70647,0,20
471599620,471598728,2162698,-1.3226057,0.34152377,-0.35523906,41.70647,0,20
471697174,471696279,2162698,-1.9459186,0.014780544,0.1936917,41.70647,0,20
471899778,471898886,2162698,0.2626942,0.044741105,0.6405435,41.70647,0,20
471999838,471998938,2162698,0.18229337,0.10660634,0.74275565,41.70647,0,20
472097436,472096516,2162698,0.5187838,0.20807278,0.5967079,41.70647,0,20
472197503,472196542,2162698,1.0821489,0.12567458,0.3593137,41.70647,0,20
472299994,472299100,2162698,0.47931573,0.020799289,0.02580603,41.70647,0,20
472397535,472396647,2162698,-0.13688648,0.1618403,0.0027164244,41.70647,0,20
472497588,472496699,2162698,-0.5652293,-0.018828548,0.08583368,41.70647,0,20
472600230,472599253,2162698,-0.40866208,-0.08245147,0.25118935,41.70647,0,20
472700218,472699313,2162698,-0.6539925,-0.100720756,0.3747334,41.70647,0,20
472797773,472796869,2162698,-0.059228703,-0.061439127,0.2700978,41.70647,0,20
472900329,472899411,2162698,0.051026165,-0.16314524,0.08181231,41.70647,0,20
473000424,472999463,2162698,0.21518342,-0.14362428,-0.09523464,41.70647,0,20
473097997,473097024,2162698,-0.47947553,-0.12903015,-0.2972354,41.70647,0,20
473197967,473197072,2162698,0.060240705,-0.13896374,-0.3643737,41.70647,0,20
473300514,473299620,2162698,-0.49894324,-0.13486248,-0.0598146,41.70647,0,20
473398061,473397172,2162698,-0.93343794,-0.2309227,0.15161376,41.61235,0,20
473498137,473497231,2162698,-1.4406104,-0.18740664,0.2993393,41.61235,0,20
473598173,473597277,2162698,-0.9547166,-0.19512981,0.30738205,41.61235,0,20
473700731,473699838,2162698,-0.47396278,-0.009880328,0.26794064,41.61235,0,20
473800777,473799884,2162698,-0.32844767,-0.05161206,0.092864424,41.61235,0,20
473898343,473897440,2162698,0.17654096,-0.17185378,-0.090600744,41.61235,0,20
473998464,473997486,2162698,0.899962,-0.07906926,-0.27276096,41.61235,0,20
474100935,474100041,2162698,0.25867283,-0.18892466,-0.43958136,41.61235,0,20
474201004,474200099,2162698,-0.25063008,-0.06759103,-0.49894324,41.61235,0,20
474298562,474297660,2162698,-0.91727257,-0.11076087,-0.28889972,41.61235,0,20
474398616,474397708,2162698,-0.76478,-0.22778016,0.017949706,41.61235,0,20
474501148,474500251,2162698,-0.2794721,-0.20975056,0.17438379,41.61235,0,20
474598706,474597806,2162698,-0.008681905,-0.14162691,0.062397864,41.61235,0,20
474801315,474800408,2162698,0.58632153,-0.173718,-0.13494237,41.61235,0,20
474901354,474900460,2162698,0.5501558,-0.22937806,-0.2533199,41.61235,0,20
474996418,474995516,2162698,-0.06218481,-0.058749333,-0.33475935,41.61235,0,20
475096465,475095563,2162698,-0.28136298,0.050466903,-0.22445121,41.61235,0,20
475201531,475200626,2162698,0.1318531,0.10042781,0.023782028,41.61235,0,20
475296594,475295676,2162698,0.6621684,0.37055224,0.10242517,41.61235,0,20
475401625,475400723,2162698,0.2472745,0.44765076,-0.105008446,41.61235,0,20
475501681,475500776,2162698,0.14708638,0.59971726,-0.18431738,41.61235,0,20
475596726,475595826,2162698,0.30908647,0.79889506,-0.18788601,41.61235,0,20
