timestamp,timestamp_sample,vibe[0],vibe[1],vibe[2],output_tracking_error[0],output_tracking_error[1],output_tracking_error[2],control_mode_flags,filter_fault_flags,pos_horiz_accuracy,pos_vert_accuracy,mag_test_ratio,vel_test_ratio,pos_test_ratio,hgt_test_ratio,tas_test_ratio,hagl_test_ratio,beta_test_ratio,time_slip,accel_device_id,gyro_device_id,baro_device_id,mag_device_id,gps_check_fail_flags,innovation_check_flags,solution_status_flags,reset_count_vel_ne,reset_count_vel_d,reset_count_pos_ne,reset_count_pod_d,reset_count_quat,pre_flt_fail_innov_heading,pre_flt_fail_innov_vel_horiz,pre_flt_fail_innov_vel_vert,pre_flt_fail_innov_height,pre_flt_fail_mag_field_disturbed,health_flags,timeout_flags
394709431,394707136,1.1333732e-09,1.5688169e-05,0.00025766535,0.00015848306,0.0011440215,0.0046703853,67240467,0,0.08612803,0.4840542,0.007031485,0.0,0.0,0.021094574,0.0,0.0,0.0,0.005004,2162698,2162698,3997706,1114122,32,0,229,1,0,1,0,2,0,0,0,0,0,0,0
394909366,394907296,9.257692e-10,1.4451507e-05,0.0002453052,0.00020028936,0.0010441783,0.0040438226,67240467,0,0.08612775,0.48276627,0.017867954,0.0,0.0,0.017478932,0.0,0.0,0.0,0.005004,2162698,2162698,3997706,1114122,32,0,229,1,0,1,0,2,0,0,0,0,0,0,0
395109721,395107470,8.2287815e-10,1.3761514e-05,0.0002476745,0.00019673376,0.0009958346,0.0032601417,67240467,0,0.08612776,0.48611927,0.012254893,0.0,0.0,0.004160104,0.0,0.0,0.0,0.005004,2162698,2162698,3997706,1114122,32,0,229,1,0,1,0,2,0,0,0,0,0,0,0
395309639,395307622,9.0305247e-10,1.3682716e-05,0.00024299664,0.00017075801,0.00086551456,0.0011286361,67240467,0,0.086128004,0.4848166,0.010831528,0.0,0.0,0.009138773,0.0,0.0,0.0,0.005004,2162698,2162698,3997706,1114122,32,0,229,1,0,1,0,2,0,0,0,0,0,0,0
395509649,395507797,9.985516e-10,1.3603051e-05,0.000237712,0.00015111077,0.0010268324,0.003532968,67240467,0,0.08612842,0.48351744,0.018206792,0.0,0.0,0.016241426,0.0,0.0,0.0,0.005004,2162698,2162698,3997706,1114122,32,0,229,1,0,1,0,2,0,0,0,0,0,0,0
395710424,395707950,8.6981883e-10,1.2961618e-05,0.00023235587,0.0001474222,0.0010087908,0.0028966824,67240467,0,0.08612853,0.48222175,0.00764068,0.0,0.0,0.010337476,0.0,0.0,0.0,0.005004,2162698,2162698,3997706,1114122,32,0,229,1,0,1,0,2,0,0,0,0,0,0,0
395910191,395908114,7.21609e-10,1.2244059e-05,0.00022901446,0.00015730262,0.0011448893,0.004089018,67240467,0,0.08612929,0.4855519,0.003917189,0.0,0.0,0.015914777,0.0,0.0,0.0,0.005004,2162698,2162698,3997706,1114122,32,0,229,1,0,1,0,2,0,0,0,0,0,0,0
396110105,396108278,6.439532e-10,1.180991e-05,0.00025168055,0.00017136992,0.0026453435,0.014384982,67240467,0,0.08612982,0.48425916,0.022796953,0.0,0.0,0.020905994,0.0,0.0,0.0,0.005004,2162698,2162698,3997706,1114122,32,0,229,1,0,1,0,2,0,0,0,0,0,0,0
396310605,396308442,6.3839223e-10,1.1834481e-05,0.00024618325,8.2115854e-05,0.0016736945,0.008296425,67240467,0,0.0861299,0.48296958,0.0019848014,0.0,0.0,0.007379626,0.0,0.0,0.0,0.005004,2162698,2162698,3997706,1114122,32,0,229,1,0,1,0,2,0,0,0,0,0,0,0
396510789,396508608,8.729328e-10,1.3538511e-05,0.00025497467,0.00010370099,0.0020369038,0.010551901,67240467,0,0.08613032,0.48168314,0.017083785,0.0,0.0,0.025218977,0.0,0.0,0.0,0.005004,2162698,2162698,3997706,1114122,32,0,229,1,0,1,0,2,0,0,0,0,0,0,0
396710893,396708770,1.2211018e-09,1.643082e-05,0.00025789082,8.098667e-05,0.0023906366,0.009661899,131603,0,0.10134632,0.48500687,0.005208592,0.0,0.0,0.024503162,0.0,0.0,0.0,0.005004,2162698,2162698,3997706,1114122,32,0,229,1,0,1,0,2,0,0,0,0,0,0,0
396910812,396908940,1.2329765e-09,1.530505e-05,0.0002679904,6.4767446e-05,0.0030208684,0.013436342,131603,0,0.118250616,0.48370695,0.0010401997,0.0,0.0,0.028506486,0.0,0.0,0.0,0.005004,2162698,2162698,3997706,1114122,32,0,229,1,0,1,0,2,0,0,0,0,0,0,0
397111432,397109127,9.301411e-10,1.3574195e-05,0.0002872045,0.00012776992,0.0031680746,0.014660056,131603,0,0.13644375,0.48241046,0.028612912,0.0,0.0,0.008170603,0.0,0.0,0.0,0.005004,2162698,2162698,3997706,1114122,32,0,229,1,0,1,0,2,0,0,0,0,0,0,0
397311149,397309268,7.7470147e-10,1.34025595e-05,0.0002956774,2.7691758e-05,0.0022980776,0.008758591,131603,0,0.1554678,0.48574543,0.006655343,0.0,0.0,0.007262983,0.0,0.0,0.0,0.005004,2162698,2162698,3997706,1114122,32,0,229,1,0,1,0,2,0,0,0,0,0,0,0
397711462,397709593,6.361795e-10,1.2200005e-05,0.00030192116,4.991389e-05,0.0013444533,0.0025223654,67240467,0,0.19390595,0.48316133,0.0013441484,0.0,0.0,0.0063846875,0.0,0.0,0.0,0.005004,2162698,2162698,3997706,1114122,32,0,229,1,0,1,0,2,0,0,0,0,0,0,0
397912489,397909753,6.2733535e-10,1.1735869e-05,0.00027989337,0.00022428166,0.0043113963,0.008819523,67240467,0,0.12690939,0.4818741,0.0014133451,0.0,0.0,0.018974757,0.0,0.0,0.0,0.005004,2162698,2162698,3997706,1114122,32,0,229,1,0,1,0,2,0,0,0,0,0,0,0
398111873,398109921,5.8963256e-10,1.17165455e-05,0.00025444117,0.000109466004,0.0025981045,0.0052797473,67240467,0,0.105936825,0.48520297,0.00014654381,0.0,0.0,0.0012125385,0.0,0.0,0.0,0.005004,2162698,2162698,3997706,1114122,32,0,229,1,0,1,0,2,0,0,0,0,0,0,0
398312498,398310081,6.016341e-10,1.1331308e-05,0.0002517795,0.0001039934,0.0010881451,0.0027733948,67240467,0,0.09594804,0.4839024,0.0012022436,0.0,0.0,0.006762983,0.0,0.0,0.0,0.005004,2162698,2162698,3997706,1114122,32,0,229,1,0,1,0,2,0,0,0,0,0,0,0
398512421,398510251,5.691788e-10,1.1507829e-05,0.0002533939,0.0001318889,0.00080181,0.003830328,67240467,0,0.09070702,0.48260552,0.004953285,0.0,0.0,0.0009059498,0.0,0.0,0.0,0.005004,2162698,2162698,3997706,1114122,32,0,229,1,0,1,0,2,0,0,0,0,0,0,0
398713098,398710409,5.628491e-10,1.1885253e-05,0.00024784287,9.8311764e-05,0.00094021606,0.0044044456,67240467,0,0.08802428,0.4859456,0.0077947145,0.0,0.0,0.014335488,0.0,0.0,0.0,0.005004,2162698,2162698,3997706,1114122,32,0,229,1,0,1,0,2,0,0,0,0,0,0,0
398912754,398910573,7.552474e-10,1.3019239e-05,0.00025677562,6.876443e-05,0.001030626,0.005009297,67240467,0,0.086823516,0.48465145,0.0032335268,0.0,0.0,0.00730364,0.0,0.0,0.0,0.005004,2162698,2162698,3997706,1114122,32,0,229,1,0,1,0,2,0,0,0,0,0,0,0
399112891,399110737,7.4119894e-10,1.3249742e-05,0.00025924412,8.677913e-05,0.0014121544,0.0077222073,67240467,0,0.086461104,0.48337644,0.00026399645,0.0,0.0,0.020735009,0.0,0.0,0.0,0.005004,2162698,2162698,3997706,1114122,32,0,229,1,0,1,0,2,0,0,0,0,0,0,0
399513548,399511064,1.7263678e-09,1.609867e-05,0.00027670304,0.00018927739,0.00076442445,0.0038756947,131603,0,0.0867407,0.485421,0.0121250665,0.0,0.0,0.014489882,0.0,0.0,0.0,0.005004,2162698,2162698,3997706,1114122,32,0,229,1,0,1,0,2,0,0,0,0,0,0,0
399713397,399711228,1.6181277e-09,1.708123e-05,0.00030503477,0.00015902943,0.0018546463,0.0069999094,131603,0,0.10255527,0.48411852,0.0048207464,0.0,0.0,0.007964204,0.0,0.0,0.0,0.005004,2162698,2162698,3997706,1114122,32,0,229,1,0,1,0,2,0,0,0,0,0,0,0
399913797,399911407,2.0232411e-09,1.8658875e-05,0.0003232915,0.0001649275,0.0023216333,0.008211205,131603,0,0.12016864,0.48281994,0.0023899185,0.0,0.0,0.0037714478,0.0,0.0,0.0,0.005004,2162698,2162698,3997706,1114122,32,0,229,1,0,1,0,2,0,0,0,0,0,0,0
400513761,400511894,2.7829334e-09,2.060748e-05,0.00033699232,0.0002037707,0.0017845582,0.005089574,131603,0,0.17878231,0.4835912,0.007314106,0.0,0.0,0.023048488,0.0,0.0,0.0,0.005004,2162698,2162698,3997706,1114122,32,0,229,1,0,1,0,2,0,0,0,0,0,0,0
400714431,400712048,2.969591e-09,2.275644e-05,0.00032415288,0.00018603243,0.0016873915,0.0065112216,131603,0,0.19834638,0.4823007,0.004809827,0.0,0.0,0.0072534825,0.0,0.0,0.0,0.005004,2162698,2162698,3997706,1114122,32,0,229,1,0,1,0,2,0,0,0,0,0,0,0
401114388,401112395,2.423495e-09,2.2281543e-05,0.0003087951,0.000108534136,0.0018083813,0.009739866,131603,0,0.23404339,0.4843346,0.019276135,0.0,0.0,0.0025019406,0.0,0.0,0.0,0.005004,2162698,2162698,3997706,1114122,32,0,229,1,0,1,0,2,0,0,0,0,0,0,0
401315083,401312553,1.9846096e-09,2.0054431e-05,0.00031666603,6.288271e-05,0.0038652585,0.022051593,131603,0,0.24927448,0.4830345,0.004333545,0.0,0.0,0.012785849,0.0,0.0,0.0,0.005004,2162698,2162698,3997706,1114122,32,0,229,1,0,1,0,2,0,0,0,0,0,0,0
401515288,401512712,1.7851306e-09,1.8841318e-05,0.00034317674,6.90493e-05,0.0007701054,0.004884858,131603,0,0.2624005,0.48175412,0.011944664,0.0,0.0,0.020345433,0.0,0.0,0.0,0.005004,2162698,2162698,3997706,1114122,32,0,229,1,0,1,0,2,0,0,0,0,0,0,0
401714979,401712873,1.4593681e-09,1.685396e-05,0.0003299058,8.235657e-05,0.0012991149,0.0076954234,131603,0,0.27335197,0.48510218,0.011615614,0.0,0.0,0.0013040886,0.0,0.0,0.0,0.005004,2162698,2162698,3997706,1114122,32,0,229,1,0,1,0,2,0,0,0,0,0,0,0
401915701,401913030,1.1342063e-09,1.5823123e-05,0.00031272945,9.807285e-05,0.0006765887,0.0039273202,68289043,0,0.28220394,0.48380703,0.0061721248,0.0,0.0,0.0032238937,0.0,0.0,0.0,0.005004,2162698,2162698,3997706,1114122,32,0,229,1,0,1,0,2,0,0,0,0,0,0,0
402115574,402113194,1.1927159e-09,1.5403271e-05,0.00029966494,0.00021933191,0.005334438,0.012100633,68289043,0,0.13697736,0.4825153,0.0027478116,0.0,0.0,0.0,0.0,0.0,0.0,0.005004,2162698,2162698,3997706,1114122,32,0,229,1,0,1,0,2,0,0,0,0,0,0,0
402316056,402313357,9.641011e-10,1.4321168e-05,0.00028416034,6.180669e-05,0.0022187813,0.0070776083,68289043,0,0.108441845,0.4858578,0.005208951,0.0,0.0,0.015339948,0.0,0.0,0.0,0.005004,2162698,2162698,3997706,1114122,32,0,229,1,0,1,0,2,0,0,0,0,0,0,0
402515835,402513553,1.0524943e-09,1.4529089e-05,0.00028248454,3.8049824e-05,0.00040480815,0.001411241,68289043,0,0.09645708,0.4845521,0.0007918548,0.0,0.0,0.009847905,0.0,0.0,0.0,0.005004,2162698,2162698,3997706,1114122,32,0,229,1,0,1,0,2,0,0,0,0,0,0,0
402716790,402713689,9.1517893e-10,1.4155673e-05,0.00031049526,6.3267566e-05,0.0012763317,0.003416279,68289043,0,0.09088065,0.4832663,0.0050972835,0.0,0.0,0.0129321255,0.0,0.0,0.0,0.005004,2162698,2162698,3997706,1114122,32,0,229,1,0,1,0,2,0,0,0,0,0,0,0
402916167,402913854,8.1728824e-10,1.3994814e-05,0.00034337133,0.00010000761,0.0016447298,0.003323513,68289043,0,0.08853342,0.48198348,2.0004918e-05,0.0,0.0,0.008600828,0.0,0.0,0.0,0.005004,2162698,2162698,3997706,1114122,32,0,229,1,0,1,0,2,0,0,0,0,0,0,0
403116573,403114024,9.676928e-10,1.4829165e-05,0.00032994867,5.6484576e-05,0.0021912707,0.008195849,68289043,0,0.087877356,0.4853193,0.0013073827,0.0,0.0,0.0,0.0,0.0,0.0,0.005004,2162698,2162698,3997706,1114122,32,0,229,1,0,1,0,2,0,0,0,0,0,0,0
403316829,403314175,1.2093554e-09,1.5761505e-05,0.00032924316,2.3008744e-05,0.0022253948,0.008640813,68289043,0,0.08800483,0.4840221,0.0009663639,0.0,0.0,0.0,0.0,0.0,0.0,0.005004,2162698,2162698,3997706,1114122,32,0,229,1,0,1,0,2,0,0,0,0,0,0,0
403516570,403514339,1.1598303e-09,1.5547888e-05,0.0003137194,2.915282e-05,0.0024808624,0.01078461,68289043,0,0.088370845,0.48272854,0.0033883343,0.0,0.0,0.0,0.0,0.0,0.0,0.005004,2162698,2162698,3997706,1114122,32,0,229,1,0,1,0,2,0,0,0,0,0,0,0
403716895,403714502,1.1598694e-09,1.5209447e-05,0.00029250688,2.3304156e-05,0.001964051,0.0070067835,68289043,0,0.0886832,0.48607534,0.0021002886,0.0,0.0,0.0,0.0,0.0,0.0,0.005004,2162698,2162698,3997706,1114122,32,0,229,1,0,1,0,2,0,0,0,0,0,0,0
403917462,403914666,1.0042382e-09,1.42025165e-05,0.00028169685,5.1313145e-05,0.0018346047,0.007013928,68289043,0,0.08882177,0.4847679,0.0020590383,0.0,0.0,0.008415944,0.0,0.0,0.0,0.005004,2162698,2162698,3997706,1114122,32,0,229,1,0,1,0,2,0,0,0,0,0,0,0
404116998,404114835,9.2770447e-10,1.3529481e-05,0.00028197686,5.1030616e-05,0.0014054453,0.0032588274,68289043,0,0.08877001,0.48348045,7.912256e-05,0.0,0.0,0.023578862,0.0,0.0,0.0,0.005004,2162698,2162698,3997706,1114122,32,0,229,1,0,1,0,2,0,0,0,0,0,0,0
404307149,404304985,7.823936e-10,1.31116385e-05,0.0002713924,0.00012124735,0.0014188025,0.0044850498,68289043,0,0.087776266,0.4859561,0.0028243589,0.0,0.0,0.00455913,0.0,0.0,0.0,0.005004,2162698,2162698,3997706,1114122,32,0,229,1,0,1,0,2,0,0,0,0,0,0,0
404507276,404505148,7.44844e-10,1.28970105e-05,0.0002672564,0.00013045943,0.0013351119,0.0038468514,68289043,0,0.087482505,0.48465717,0.0027678742,0.0,0.0,0.0025338624,0.0,0.0,0.0,0.005004,2162698,2162698,3997706,1114122,32,0,229,1,0,1,0,2,0,0,0,0,0,0,0
404707165,404705311,6.8164024e-10,1.2797996e-05,0.00026503982,8.2961495e-05,0.0017873972,0.008035433,68289043,0,0.087140776,0.48336175,0.00960402,0.0,0.0,0.0,0.0,0.0,0.0,0.005004,2162698,2162698,3997706,1114122,32,0,229,1,0,1,0,2,0,0,0,0,0,0,0
404907796,404905475,6.7561295e-10,1.2857723e-05,0.00026147556,7.7227596e-05,0.0012375104,0.0040475964,68289043,0,0.086792305,0.48205376,4.4782e-05,0.0,0.0,0.011740067,0.0,0.0,0.0,0.005004,2162698,2162698,3997706,1114122,32,0,229,1,0,1,0,2,0,0,0,0,0,0,0
405107587,405105649,7.327378e-10,1.3579542e-05,0.00029056703,6.786708e-05,0.0013695348,0.0059502814,68289043,0,0.08646699,0.48538366,0.023811944,0.0,0.0,0.0,0.0,0.0,0.0,0.005004,2162698,2162698,3997706,1114122,32,0,229,1,0,1,0,2,0,0,0,0,0,0,0
405307672,405305839,7.2689404e-10,1.3257319e-05,0.00029575595,2.9957053e-05,0.0009977272,0.0033602002,68289043,0,0.08618302,0.48409542,0.002950533,0.0,0.0,0.005693977,0.0,0.0,0.0,0.005004,2162698,2162698,3997706,1114122,32,0,229,1,0,1,0,2,0,0,0,0,0,0,0
405507857,405505968,7.0846506e-10,1.3123979e-05,0.000320825,7.5599055e-05,0.0011952838,0.0055319206,68289043,0,0.08594865,0.4827941,0.012223604,0.0,0.0,0.0,0.0,0.0,0.0,0.005004,2162698,2162698,3997706,1114122,32,0,229,1,0,1,0,2,0,0,0,0,0,0,0
405708592,405706127,6.841538e-10,1.2961404e-05,0.0003058788,5.1977797e-05,0.0009437277,0.004080563,68289043,0,0.085765354,0.48151276,0.00091642677,0.0,0.0,0.0,0.0,0.0,0.0,0.005004,2162698,2162698,3997706,1114122,32,0,229,1,0,1,0,2,0,0,0,0,0,0,0
405908326,405906291,6.6296507e-10,1.338366e-05,0.0002896571,2.4312607e-05,0.00092562014,0.0041724825,68289043,0,0.08562925,0.48483667,0.0023400777,0.0,0.0,0.005428679,0.0,0.0,0.0,0.005004,2162698,2162698,3997706,1114122,32,0,229,1,0,1,0,2,0,0,0,0,0,0,0
406108642,406106461,9.314153e-10,1.3464228e-05,0.0002676691,6.462118e-05,0.0006178497,0.0018398395,68289043,0,0.08553425,0.4835418,0.0011987482,0.0,0.0,0.0,0.0,0.0,0.0,0.005004,2162698,2162698,3997706,1114122,32,0,229,1,0,1,0,2,0,0,0,0,0,0,0
406308822,406306623,1.1858936e-09,1.614837e-05,0.0002738061,4.1613206e-05,0.0006576109,0.0021673003,68289043,0,0.08547281,0.4822345,0.0023072646,0.0,0.0,0.008141298,0.0,0.0,0.0,0.005004,2162698,2162698,3997706,1114122,32,0,229,1,0,1,0,2,0,0,0,0,0,0,0
406509226,406506787,1.5183994e-09,1.8019115e-05,0.00028837883,6.9126334e-05,0.00088435854,0.0023690523,1180179,0,0.10057193,0.48557022,0.0073117577,0.0,0.0,0.0111398185,0.0,0.0,0.0,0.005004,2162698,2162698,3997706,1114122,32,0,229,1,0,1,0,2,0,0,0,0,0,0,0
406708901,406706943,1.5252389e-09,1.9185461e-05,0.00031178017,4.3576863e-05,0.0012513815,0.0045052394,1180179,0,0.11737107,0.4842824,0.004570684,0.0,0.0,0.0035719876,0.0,0.0,0.0,0.005004,2162698,2162698,3997706,1114122,32,0,229,1,0,1,0,2,0,0,0,0,0,0,0
406909319,406907106,1.5633139e-09,1.8986446e-05,0.00033026963,5.5320204e-05,0.0010019947,0.0023378367,1180179,0,0.13547054,0.48298156,0.0017284974,0.0,0.0,0.007991929,0.0,0.0,0.0,0.005004,2162698,2162698,3997706,1114122,32,0,229,1,0,1,0,2,0,0,0,0,0,0,0
407309610,407307443,1.2722117e-09,1.7295564e-05,0.0002920951,6.6325214e-05,0.00072292815,0.0017534316,1180179,0,0.17367883,0.48503047,0.00664904,0.0,0.0,0.00070127344,0.0,0.0,0.0,0.005004,2162698,2162698,3997706,1114122,32,0,229,1,0,1,0,2,0,0,0,0,0,0,0
407509782,407507596,1.4146763e-09,1.7462215e-05,0.0002790812,0.00019803364,0.004236432,0.006986994,68289043,0,0.12216516,0.48371962,0.010859868,0.0,0.0,0.008946271,0.0,0.0,0.0,0.005004,2162698,2162698,3997706,1114122,32,0,229,1,0,1,0,2,0,0,0,0,0,0,0
407710021,407707778,1.4601589e-09,1.7381139e-05,0.000266656,0.00012349192,0.003053457,0.0062446063,68289043,0,0.10390343,0.48242941,0.006171711,0.0,0.0,0.011829248,0.0,0.0,0.0,0.005004,2162698,2162698,3997706,1114122,32,0,229,1,0,1,0,2,0,0,0,0,0,0,0
407910002,407907922,1.734246e-09,1.7623215e-05,0.0002538108,0.00012208261,0.0017153982,0.0039009845,68289043,0,0.09484039,0.4857711,0.015928466,0.0,0.0,0.0,0.0,0.0,0.0,0.005004,2162698,2162698,3997706,1114122,32,0,229,1,0,1,0,2,0,0,0,0,0,0,0
408110228,408108084,1.6298363e-09,1.6907226e-05,0.0002534278,0.00016331708,0.00101775,0.004202826,68289043,0,0.08994228,0.48446706,0.008231208,0.0,0.0,0.0,0.0,0.0,0.0,0.005004,2162698,2162698,3997706,1114122,32,0,229,1,0,1,0,2,0,0,0,0,0,0,0
408310157,408308248,1.3453707e-09,1.5790692e-05,0.00024964876,0.00012531105,0.0009870699,0.005402717,68289043,0,0.08734297,0.483183,0.0034762197,0.0,0.0,0.0,0.0,0.0,0.0,0.005004,2162698,2162698,3997706,1114122,32,0,229,1,0,1,0,2,0,0,0,0,0,0,0
408510748,408508410,1.2240369e-09,1.533818e-05,0.00024697083,7.613226e-05,0.0010954159,0.0060811373,68289043,0,0.086103834,0.4818859,0.0015637255,0.0,0.0,0.0,0.0,0.0,0.0,0.005004,2162698,2162698,3997706,1114122,32,0,229,1,0,1,0,2,0,0,0,0,0,0,0
408710903,408708573,1.1087079e-09,1.5185024e-05,0.00026473682,4.548175e-05,0.001128524,0.006173113,68289043,0,0.08565772,0.4852215,0.00023150737,0.0,0.0,0.0,0.0,0.0,0.0,0.005004,2162698,2162698,3997706,1114122,32,0,229,1,0,1,0,2,0,0,0,0,0,0,0
408910688,408908745,1.1303221e-09,1.4791459e-05,0.00027452788,4.7969406e-05,0.0008564115,0.004327087,68289043,0,0.08563345,0.48391122,0.0025884428,0.0,0.0,0.005371694,0.0,0.0,0.0,0.005004,2162698,2162698,3997706,1114122,32,0,229,1,0,1,0,2,0,0,0,0,0,0,0
409111298,409108917,9.976333e-10,1.40910415e-05,0.00025949584,0.00010315118,0.00093320356,0.0048524844,68289043,0,0.08578962,0.4826211,0.0074946713,0.0,0.0,0.0,0.0,0.0,0.0,0.005004,2162698,2162698,3997706,1114122,32,0,229,1,0,1,0,2,0,0,0,0,0,0,0
409311418,409309062,8.449234e-10,1.3227887e-05,0.00026420545,5.9058082e-05,0.00042987664,0.00096680043,68289043,0,0.085980326,0.48135045,0.0048838155,0.0,0.0,0.013377006,0.0,0.0,0.0,0.005004,2162698,2162698,3997706,1114122,32,0,229,1,0,1,0,2,0,0,0,0,0,0,0
409511226,409509225,8.3805446e-10,1.305731e-05,0.0002781752,7.0887916e-05,0.00060276734,0.002772881,68289043,0,0.08612866,0.48468006,0.015890531,0.0,0.0,0.0,0.0,0.0,0.0,0.005004,2162698,2162698,3997706,1114122,32,0,229,1,0,1,0,2,0,0,0,0,0,0,0
409711585,409709402,7.196953e-10,1.3391e-05,0.000279045,0.0001242376,0.00057507714,0.0029121204,68289043,0,0.08620637,0.483395,0.017714074,0.0,0.0,0.0,0.0,0.0,0.0,0.005004,2162698,2162698,3997706,1114122,32,0,229,1,0,1,0,2,0,0,0,0,0,0,0
409911734,409909558,7.786765e-10,1.2813542e-05,0.00025392536,0.0001861277,0.00065974257,0.0035874234,68289043,0,0.08621235,0.48209703,0.009782981,0.0,0.0,0.0,0.0,0.0,0.0,0.005004,2162698,2162698,3997706,1114122,32,0,229,1,0,1,0,2,0,0,0,0,0,0,0
410111818,410109714,7.204252e-10,1.25866345e-05,0.0002553597,0.0001776091,0.0006727557,0.0037477394,68289043,0,0.08616096,0.48542145,0.024624769,0.0,0.0,0.0,0.0,0.0,0.0,0.005004,2162698,2162698,3997706,1114122,32,0,229,1,0,1,0,2,0,0,0,0,0,0,0
410312034,410309877,6.718605e-10,1.2085888e-05,0.0002568139,0.00019772629,0.00057025655,0.0030362385,68289043,0,0.08607099,0.4841269,0.030501217,0.0,0.0,0.0,0.0,0.0,0.0,0.005004,2162698,2162698,3997706,1114122,32,0,229,1,0,1,0,2,0,0,0,0,0,0,0
410512136,410510039,5.971774e-10,1.20557515e-05,0.00026230718,0.00011329373,0.0006222993,0.0032527647,68289043,0,0.08596098,0.48283577,0.00076095096,0.0,0.0,0.0,0.0,0.0,0.0,0.005004,2162698,2162698,3997706,1114122,32,0,229,1,0,1,0,2,0,0,0,0,0,0,0
410712545,410710202,6.05129e-10,1.2430364e-05,0.0002638166,5.0564577e-05,0.00058692443,0.0027982066,68289043,0,0.085846424,0.4815639,0.0039602513,0.0,0.0,0.0013170482,0.0,0.0,0.0,0.005004,2162698,2162698,3997706,1114122,32,0,229,1,0,1,0,2,0,0,0,0,0,0,0
410912424,410910365,6.3458294e-10,1.3054425e-05,0.00027365892,5.6970024e-05,0.0006679065,0.002905651,68289043,0,0.08573916,0.4848986,0.0018500558,0.0,0.0,0.0,0.0,0.0,0.0,0.005004,2162698,2162698,3997706,1114122,32,0,229,1,0,1,0,2,0,0,0,0,0,0,0
411112534,411110528,6.2590927e-10,1.2341041e-05,0.00025982442,3.6575042e-05,0.0006782392,0.0024170973,68289043,0,0.08564521,0.48359615,0.005370066,0.0,0.0,0.0,0.0,0.0,0.0,0.005004,2162698,2162698,3997706,1114122,32,0,229,1,0,1,0,2,0,0,0,0,0,0,0
411312905,411310691,6.081836e-10,1.23160125e-05,0.00024279406,6.332903e-05,0.00061859196,0.0012744324,68289043,0,0.08556755,0.4822974,0.0018390217,0.0,0.0,0.004572829,0.0,0.0,0.0,0.005004,2162698,2162698,3997706,1114122,32,0,229,1,0,1,0,2,0,0,0,0,0,0,0
411512979,411510861,6.028595e-10,1.23045e-05,0.00025168413,5.8454105e-05,0.0007221225,0.0019382015,68289043,0,0.085507,0.485627,0.0035378542,0.0,0.0,0.0,0.0,0.0,0.0,0.005004,2162698,2162698,3997706,1114122,32,0,229,1,0,1,0,2,0,0,0,0,0,0,0
411713289,411711017,6.2427685e-10,1.2418463e-05,0.00024911115,4.1036626e-05,0.0008387456,0.0022480374,68289043,0,0.08546262,0.48433164,0.0053677894,0.0,0.0,0.0,0.0,0.0,0.0,0.005004,2162698,2162698,3997706,1114122,32,0,229,1,0,1,0,2,0,0,0,0,0,0,0
411913236,411911180,6.256459e-10,1.2495246e-05,0.0002498846,4.0331903e-05,0.00089466927,0.0023413408,68289043,0,0.08543234,0.48305583,0.0020704903,0.0,0.0,0.0,0.0,0.0,0.0,0.005004,2162698,2162698,3997706,1114122,32,0,229,1,0,1,0,2,0,0,0,0,0,0,0
412113776,412111343,6.256408e-10,1.23725285e-05,0.000267194,3.745333e-05,0.000887068,0.0013055117,68289043,0,0.08541328,0.48176646,0.0013833939,0.0,0.0,0.0,0.0,0.0,0.0,0.005004,2162698,2162698,3997706,1114122,32,0,229,1,0,1,0,2,0,0,0,0,0,0,0
412313554,412311506,7.0706874e-10,1.3014406e-05,0.00026874596,0.000117494244,0.0009172454,0.0016679046,68289043,0,0.08540269,0.48510617,0.009388801,0.0,0.0,0.0,0.0,0.0,0.0,0.005004,2162698,2162698,3997706,1114122,32,0,229,1,0,1,0,2,0,0,0,0,0,0,0
412513867,412511672,7.608713e-10,1.2919567e-05,0.00025751308,0.00021108634,0.0009307764,0.0019606485,68289043,0,0.08539804,0.48380288,0.010216505,0.0,0.0,0.0,0.0,0.0,0.0,0.005004,2162698,2162698,3997706,1114122,32,0,229,1,0,1,0,2,0,0,0,0,0,0,0
412713834,412711832,9.2035923e-10,1.412531e-05,0.00025873614,0.00015068006,0.0009725492,0.0020667708,68289043,0,0.085397206,0.48250356,0.0042000646,0.0,0.0,0.0,0.0,0.0,0.0,0.005004,2162698,2162698,3997706,1114122,32,0,229,1,0,1,0,2,0,0,0,0,0,0,0
412914303,412912002,8.781343e-10,1.36994395e-05,0.00030903777,0.00016294172,0.0009235173,0.001325425,68289043,0,0.08539833,0.48583847,0.014695169,0.0,0.0,0.0,0.0,0.0,0.0,0.005004,2162698,2162698,3997706,1114122,32,0,229,1,0,1,0,2,0,0,0,0,0,0,0
413114424,413112165,8.2723706e-10,1.3202688e-05,0.00030455744,0.00020960132,0.00096074725,0.0016019263,68289043,0,0.08539964,0.48454222,0.017348917,0.0,0.0,0.0,0.0,0.0,0.0,0.005004,2162698,2162698,3997706,1114122,32,0,229,1,0,1,0,2,0,0,0,0,0,0,0
413314560,413312321,7.687583e-10,1.3223394e-05,0.00028812094,0.00017712182,0.0009897745,0.0017166341,68289043,0,0.08540098,0.48326537,0.010923536,0.0,0.0,0.0,0.0,0.0,0.0,0.005004,2162698,2162698,3997706,1114122,32,0,229,1,0,1,0,2,0,0,0,0,0,0,0
413515244,413512483,7.763063e-10,1.3063856e-05,0.00028355225,0.00014726179,0.0010181821,0.001865143,68289043,0,0.08540252,0.48197514,0.006000619,0.0,0.0,0.0,0.0,0.0,0.0,0.005004,2162698,2162698,3997706,1114122,32,0,229,1,0,1,0,2,0,0,0,0,0,0,0
413714832,413712646,8.61021e-10,1.5299158e-05,0.00039725078,0.00019813197,0.0010173168,0.0018670233,68289043,0,0.085403755,0.48530358,0.031158784,0.0,0.0,0.0,0.0,0.0,0.0,0.005004,2162698,2162698,3997706,1114122,32,0,229,1,0,1,0,2,0,0,0,0,0,0,0
413915273,413912816,7.851032e-10,1.4716265e-05,0.00039648236,0.00027185635,0.0009807082,0.0018039196,68289043,0,0.085404664,0.48401615,0.012731936,0.0,0.0,0.0,0.0,0.0,0.0,0.005004,2162698,2162698,3997706,1114122,32,0,229,1,0,1,0,2,0,0,0,0,0,0,0
414115150,414112976,7.512514e-10,1.4026307e-05,0.00035048436,0.00018484336,0.000921305,0.0016994695,68289043,0,0.08540533,0.48271567,0.03835642,0.0,0.0,0.0,0.0,0.0,0.0,0.005004,2162698,2162698,3997706,1114122,32,0,229,1,0,1,0,2,0,0,0,0,0,0,0
414315783,414313140,6.917301e-10,1.3766773e-05,0.0003275284,0.00019447254,0.00084199436,0.0015507592,68289043,0,0.08540519,0.48143515,0.008644003,0.0,0.0,0.0,0.0,0.0,0.0,0.005004,2162698,2162698,3997706,1114122,32,0,229,1,0,1,0,2,0,0,0,0,0,0,0
414515578,414513298,7.007245e-10,1.3557704e-05,0.0002989397,0.00014345256,0.00074164703,0.0011347244,68289043,0,0.085404254,0.48477402,0.0017988028,0.0,0.0,0.0055022887,0.0,0.0,0.0,0.005004,2162698,2162698,3997706,1114122,32,0,229,1,0,1,0,2,0,0,0,0,0,0,0
414716025,414713461,8.683061e-10,1.4808395e-05,0.00034704714,0.00012505606,0.0008239526,0.0030674792,68289043,0,0.08540264,0.48347908,0.01660011,0.0,0.0,0.010301394,0.0,0.0,0.0,0.005004,2162698,2162698,3997706,1114122,32,0,229,1,0,1,0,2,0,0,0,0,0,0,0
414915816,414913624,7.844958e-10,1.41861365e-05,0.0003327746,5.802868e-05,0.0013843564,0.007342587,68289043,0,0.08540132,0.48218742,0.008917145,0.0,0.0,0.0,0.0,0.0,0.0,0.005004,2162698,2162698,3997706,1114122,32,0,229,1,0,1,0,2,0,0,0,0,0,0,0
415116070,415113787,7.7775286e-10,1.3561128e-05,0.00030917168,0.0001449661,0.00097140844,0.0048963698,68289043,0,0.08540003,0.4855208,0.017831285,0.0,0.0,0.0,0.0,0.0,0.0,0.005004,2162698,2162698,3997706,1114122,32,0,229,1,0,1,0,2,0,0,0,0,0,0,0
415316430,415313978,6.743333e-10,1.2626012e-05,0.00029434968,0.00030740225,0.0005806036,0.0013778514,68289043,0,0.08539871,0.48423198,0.016291555,0.0,0.0,0.0,0.0,0.0,0.0,0.005004,2162698,2162698,3997706,1114122,32,0,229,1,0,1,0,2,0,0,0,0,0,0,0
415516428,415514113,7.4807505e-10,1.4514837e-05,0.00039638657,0.00028285733,0.0005580016,0.00073771575,68289043,0,0.08539754,0.48293027,0.029138029,0.0,0.0,0.0010294357,0.0,0.0,0.0,0.005004,2162698,2162698,3997706,1114122,32,0,229,1,0,1,0,2,0,0,0,0,0,0,0
415717237,415714280,7.1762524e-10,1.5671118e-05,0.00042742206,0.00031761965,0.0005489441,0.00069319736,68289043,0,0.08539684,0.4816484,0.01479159,0.0,0.0,0.0,0.0,0.0,0.0,0.005004,2162698,2162698,3997706,1114122,32,0,229,1,0,1,0,2,0,0,0,0,0,0,0
416117366,416114614,9.290528e-10,1.7506385e-05,0.00049045926,0.000271025,0.00048290752,0.0006824967,68289043,0,0.085395,0.48369578,0.019577833,0.0,0.0,0.0,0.0,0.0,0.0,0.005004,2162698,2162698,3997706,1114122,32,0,229,1,0,1,0,2,0,0,0,0,0,0,0
416316779,416314766,1.1724542e-09,2.0034087e-05,0.00054583873,0.00029680776,0.0012917332,0.0069140135,68289043,0,0.085394464,0.48240307,0.02993339,0.0,0.0,0.014603267,0.0,0.0,0.0,0.005004,2162698,2162698,3997706,1114122,32,0,229,1,0,1,0,2,0,0,0,0,0,0,0
416506692,416504921,1.0899617e-09,1.9762769e-05,0.0005180593,0.0003605729,0.0012346068,0.006815495,68289043,0,0.0846609,0.48486152,0.017625311,0.0,0.0,0.0,0.0,0.0,0.0,0.005004,2162698,2162698,3997706,1114122,32,0,229,1,0,1,0,2,0,0,0,0,0,0,0
416707407,416705101,1.9912543e-09,2.8337261e-05,0.0008246893,0.0004515437,0.0014018478,0.007904745,1180179,0,0.0846603,0.4835584,0.030414447,0.0,0.0,0.020949902,0.0,0.0,0.0,0.005004,2162698,2162698,3997706,1114122,32,0,229,1,0,1,0,2,0,0,0,0,0,0,0
417107706,417105433,2.1491096e-09,2.8940194e-05,0.000862505,0.00044433124,0.0011269633,0.0040581,1180179,0,0.116348594,0.48561975,0.022377828,0.0,0.0,0.010490716,0.0,0.0,0.0,0.005004,2162698,2162698,3997706,1114122,32,0,229,1,0,1,0,2,0,0,0,0,0,0,0
417307421,417305573,2.6516216e-09,3.8306272e-05,0.0009869512,0.00036559778,0.0022443284,0.011677366,1180179,0,0.13435178,0.4843224,0.028600669,0.0,0.0,0.019354856,0.0,0.0,0.0,0.005004,2162698,2162698,3997706,1114122,32,0,229,1,0,1,0,2,0,0,0,0,0,0,0
417507873,417505737,2.8544687e-09,3.6733854e-05,0.0009709377,0.00038715312,0.0012453515,0.0055233645,1180179,0,0.153204,0.4830284,0.02311207,0.0,0.0,0.004380266,0.0,0.0,0.0,0.005004,2162698,2162698,3997706,1114122,32,0,229,1,0,1,0,2,0,0,0,0,0,0,0
417707865,417705900,2.3468167e-09,3.0695446e-05,0.0007860645,0.0003961083,0.0006858532,0.0010533314,1180179,0,0.1723894,0.48173824,0.045362707,0.0,0.0,0.0,0.0,0.0,0.0,0.005004,2162698,2162698,3997706,1114122,32,0,229,1,0,1,0,2,0,0,0,0,0,0,0
417908022,417906063,2.0279858e-09,2.5986528e-05,0.0006181207,0.00037875868,0.00089747785,0.0044190055,1180179,0,0.1913552,0.48506036,0.037612576,0.0,0.0,0.009684816,0.0,0.0,0.0,0.005004,2162698,2162698,3997706,1114122,32,0,229,1,0,1,0,2,0,0,0,0,0,0,0
418108373,418106227,1.665739e-09,2.1686437e-05,0.0005142766,0.00040776,0.0015502556,0.008701009,1180179,0,0.20955049,0.4837575,0.026929585,0.0,0.0,0.012517332,0.0,0.0,0.0,0.005004,2162698,2162698,3997706,1114122,32,0,229,1,0,1,0,2,0,0,0,0,0,0,0
418308369,418306408,1.3776259e-09,1.9869698e-05,0.00043879947,0.00034042538,0.0007629919,0.004378355,1180179,0,0.22647631,0.48247457,0.019636143,0.0,0.0,0.0096045,0.0,0.0,0.0,0.005004,2162698,2162698,3997706,1114122,32,0,229,1,0,1,0,2,0,0,0,0,0,0,0
418508430,418506553,1.6701481e-09,2.0008258e-05,0.0004145681,0.00037048676,0.0006684331,0.0038500957,1180179,0,0.24173532,0.48582447,0.032341328,0.0,0.0,0.013845871,0.0,0.0,0.0,0.005004,2162698,2162698,3997706,1114122,32,0,229,1,0,1,0,2,0,0,0,0,0,0,0
418708751,418706717,1.7578964e-09,2.1781543e-05,0.0004111242,0.0004079606,0.0006422567,0.0036709157,1180179,0,0.255068,0.48452723,0.028592924,0.0,0.0,0.002166835,0.0,0.0,0.0,0.005004,2162698,2162698,3997706,1114122,32,0,229,1,0,1,0,2,0,0,0,0,0,0,0
418909056,418906881,2.040303e-09,2.3016159e-05,0.0004364847,0.00037535722,0.00023264108,0.0010683844,1180179,0,0.26636276,0.48323363,0.024772022,0.0,0.0,0.0044719265,0.0,0.0,0.0,0.005004,2162698,2162698,3997706,1114122,32,0,229,1,0,1,0,2,0,0,0,0,0,0,0
419109255,419107044,2.2589761e-09,2.3626533e-05,0.00044637718,0.00041058374,0.00059026014,0.003269667,1180179,0,0.27564773,0.48192763,0.02073433,0.0,0.0,0.001792023,0.0,0.0,0.0,0.005004,2162698,2162698,3997706,1114122,32,0,229,1,0,1,0,2,0,0,0,0,0,0,0
419309753,419307207,3.0307357e-09,2.537992e-05,0.00042004994,0.00042488918,0.0008083875,0.0047046016,1180179,0,0.28305662,0.48525593,0.034674797,0.0,0.0,0.00013558983,0.0,0.0,0.0,0.005004,2162698,2162698,3997706,1114122,32,0,229,1,0,1,0,2,0,0,0,0,0,0,0
419509400,419507371,3.3105538e-09,2.5864661e-05,0.00040948656,0.0004033043,0.0005409965,0.0031515083,1180179,0,0.28879598,0.48396993,0.018620377,0.0,0.0,0.0,0.0,0.0,0.0,0.005004,2162698,2162698,3997706,1114122,32,0,229,1,0,1,0,2,0,0,0,0,0,0,0
419709722,419707534,2.7493e-09,2.3741786e-05,0.00037929413,0.00035665213,0.00023908625,0.0016967411,1180179,0,0.2931089,0.48268697,0.015725981,0.0,0.0,0.011640855,0.0,0.0,0.0,0.005004,2162698,2162698,3997706,1114122,32,0,229,1,0,1,0,2,0,0,0,0,0,0,0
419910079,419907728,2.5669935e-09,2.2887989e-05,0.0003926014,0.00035580384,0.0006453887,0.0039924337,1180179,0,0.2962442,0.481407,0.019396001,0.0,0.0,0.0,0.0,0.0,0.0,0.005004,2162698,2162698,3997706,1114122,32,0,229,1,0,1,0,2,0,0,0,0,0,0,0
420109741,420107861,2.0552524e-09,1.9992825e-05,0.00036117953,0.00040425066,0.00011567837,0.0010837024,1180179,0,0.29844046,0.48472938,0.03146718,0.0,0.0,0.012135559,0.0,0.0,0.0,0.005004,2162698,2162698,3997706,1114122,32,0,229,1,0,1,0,2,0,0,0,0,0,0,0
420310344,420308024,1.7777594e-09,1.8692162e-05,0.00039044695,0.0003166454,0.00026881092,0.001449203,1180179,0,0.29991093,0.48343605,0.020473426,0.0,0.0,0.00054322503,0.0,0.0,0.0,0.005004,2162698,2162698,3997706,1114122,32,0,229,1,0,1,0,2,0,0,0,0,0,0,0
420510318,420508188,1.4979769e-09,1.8133487e-05,0.0004008515,0.00034788548,0.00012976342,0.0005950486,1180179,0,0.30084065,0.48213047,0.040310018,0.0,0.0,0.0,0.0,0.0,0.0,0.005004,2162698,2162698,3997706,1114122,32,0,229,1,0,1,0,2,0,0,0,0,0,0,0
420710695,420708370,1.5727615e-09,1.8396104e-05,0.0004498775,0.0003941984,0.0019116701,0.004954126,68289043,0,0.1363664,0.4854649,0.009443056,0.0,0.0,0.0,0.0,0.0,0.0,0.005004,2162698,2162698,3997706,1114122,32,0,229,1,0,1,0,2,0,0,0,0,0,0,0
420910827,420908521,1.6593267e-09,1.8391856e-05,0.0004373345,0.00040016594,0.00087852246,0.004010657,68289043,0,0.10713076,0.48417893,0.03274946,0.0,0.0,0.0,0.0,0.0,0.0,0.005004,2162698,2162698,3997706,1114122,32,0,229,1,0,1,0,2,0,0,0,0,0,0,0
421110587,421108678,1.5248761e-09,1.7668752e-05,0.0003965813,0.00041446098,0.00085629546,0.004336491,68289043,0,0.09544747,0.4828958,0.034078855,0.0,0.0,0.0,0.0,0.0,0.0,0.005004,2162698,2162698,3997706,1114122,32,0,229,1,0,1,0,2,0,0,0,0,0,0,0
421311389,421308840,1.3583009e-09,1.6975157e-05,0.00036618608,0.00035199974,0.00095289573,0.0024154224,68289043,0,0.09049878,0.4816159,0.021023905,0.0,0.0,0.019486226,0.0,0.0,0.0,0.005004,2162698,2162698,3997706,1114122,32,0,229,1,0,1,0,2,0,0,0,0,0,0,0
421511093,421509011,1.7260152e-09,2.4174864e-05,0.00065162237,0.00031460534,0.0010725114,0.0021397262,68289043,0,0.088794634,0.48494458,0.033877093,0.0,0.0,0.0,0.0,0.0,0.0,0.005004,2162698,2162698,3997706,1114122,32,0,229,1,0,1,0,2,0,0,0,0,0,0,0
421711337,421709167,2.12571e-09,2.4576108e-05,0.00056410953,0.00029488542,0.001247282,0.004448722,1180179,0,0.105743915,0.48365137,0.029364154,0.0,0.0,0.008419483,0.0,0.0,0.0,0.005004,2162698,2162698,3997706,1114122,32,0,229,1,0,1,0,2,0,0,0,0,0,0,0
421911472,421909335,2.3442432e-09,2.4410723e-05,0.0005113458,0.00026938808,0.001135026,0.0023335672,1180179,0,0.12519197,0.4823617,0.008345304,0.0,0.0,0.0,0.0,0.0,0.0,0.005004,2162698,2162698,3997706,1114122,32,0,229,1,0,1,0,2,0,0,0,0,0,0,0
422112099,422109508,2.7523492e-09,2.6096395e-05,0.00063806126,0.0003731961,0.0010343991,0.0022971204,1180179,0,0.1462783,0.4857019,0.025624325,0.0,0.0,0.002461385,0.0,0.0,0.0,0.005004,2162698,2162698,3997706,1114122,32,0,229,1,0,1,0,2,0,0,0,0,0,0,0
422311729,422309663,2.4406674e-09,2.5591658e-05,0.00068602356,0.00036218303,0.0014711675,0.006323407,1180179,0,0.1681622,0.48441476,0.027966011,0.0,0.0,0.011290219,0.0,0.0,0.0,0.005004,2162698,2162698,3997706,1114122,32,0,229,1,0,1,0,2,0,0,0,0,0,0,0
422512070,422509827,1.9383695e-09,2.219262e-05,0.0005684757,0.0003229287,0.0011932561,0.004612774,1180179,0,0.19000266,0.48313063,0.013757503,0.0,0.0,0.00203388,0.0,0.0,0.0,0.005004,2162698,2162698,3997706,1114122,32,0,229,1,0,1,0,2,0,0,0,0,0,0,0
422712107,422709984,1.8395534e-09,1.9931002e-05,0.00049977447,0.00022224983,0.0013802397,0.00636514,1180179,0,0.21098845,0.48183358,0.019399108,0.0,0.0,0.0135322,0.0,0.0,0.0,0.005004,2162698,2162698,3997706,1114122,32,0,229,1,0,1,0,2,0,0,0,0,0,0,0
422912338,422910147,1.6022397e-09,1.877835e-05,0.00044744666,0.00033068837,0.0025387898,0.013723827,1180179,0,0.23039809,0.4851679,0.015352212,0.0,0.0,0.025291478,0.0,0.0,0.0,0.005004,2162698,2162698,3997706,1114122,32,0,229,1,0,1,0,2,0,0,0,0,0,0,0
423112105,423110310,1.5745774e-09,1.6472632e-05,0.00041093535,0.00031221908,0.0023523162,0.01297063,1180179,0,0.24767235,0.48387375,0.018520478,0.0,0.0,0.018108336,0.0,0.0,0.0,0.005004,2162698,2162698,3997706,1114122,32,0,229,1,0,1,0,2,0,0,0,0,0,0,0
423313024,423310474,1.4833366e-09,1.6675682e-05,0.00041162307,0.00024585926,0.0013392505,0.0066096033,1180179,0,0.2624651,0.4825834,0.018573433,0.0,0.0,0.0024103983,0.0,0.0,0.0,0.005004,2162698,2162698,3997706,1114122,32,0,229,1,0,1,0,2,0,0,0,0,0,0,0
423512828,423510637,1.4380203e-09,1.6715538e-05,0.00041039704,0.00028785688,0.0035924623,0.011739332,68289043,0,0.13496588,0.48131263,0.021982083,0.0,0.0,0.021921085,0.0,0.0,0.0,0.005004,2162698,2162698,3997706,1114122,32,0,229,1,0,1,0,2,0,0,0,0,0,0,0
423713116,423710818,1.5344376e-09,1.8797873e-05,0.0004817545,0.0002971936,0.002074843,0.0072014057,68289043,0,0.107707106,0.48464108,0.009305052,0.0,0.0,0.006080755,0.0,0.0,0.0,0.005004,2162698,2162698,3997706,1114122,32,0,229,1,0,1,0,2,0,0,0,0,0,0,0
423913311,423910982,8.1817335e-09,6.8766516e-05,0.000993525,0.00034965872,0.0016457607,0.008964906,1180179,0,0.1210589,0.48335618,0.025336357,0.0,0.0,0.008176901,0.0,0.0,0.0,0.005004,2162698,2162698,3997706,1114122,32,0,229,1,0,1,0,2,0,0,0,0,0,0,0
424113223,424111126,9.8316715e-09,9.2265815e-05,0.0015069571,0.00044433132,0.0007462315,0.0033571029,1180179,0,0.13617316,0.48205855,0.040380668,0.0,0.0,0.0048483685,0.0,0.0,0.0,0.005004,2162698,2162698,3997706,1114122,32,0,229,1,0,1,0,2,0,0,0,0,0,0,0
424313627,424311290,1.1685182e-08,0.00010666585,0.0018466068,0.00050233497,0.00083769707,0.0036867973,1180179,0,0.15262869,0.48538223,0.01565414,0.0,0.0,0.0,0.0,0.0,0.0,0.005004,2162698,2162698,3997706,1114122,32,0,229,1,0,1,0,2,0,0,0,0,0,0,0
424513606,424511494,1.9125302e-08,0.00015128187,0.0024822613,0.00043705836,0.0015388099,0.008402253,1180179,0,0.16993132,0.48408833,0.021800851,0.0,0.0,0.0,0.0,0.0,0.0,0.005004,2162698,2162698,3997706,1114122,32,0,229,1,0,1,0,2,0,0,0,0,0,0,0
424713623,424711648,2.6562661e-08,0.0001998166,0.0030573856,0.00031193858,0.0018224623,0.010273609,1180179,0,0.18753816,0.482798,0.04224579,0.0,0.0,0.0,0.0,0.0,0.0,0.005004,2162698,2162698,3997706,1114122,32,0,229,1,0,1,0,2,0,0,0,0,0,0,0
424914319,424911779,4.545591e-08,0.00033970235,0.0037429503,0.0005307351,0.001821136,0.010516737,1180179,0,0.20488852,0.48151112,0.029518437,0.0,0.0,0.0,0.0,0.0,0.0,0.005004,2162698,2162698,3997706,1114122,32,0,229,1,0,1,0,2,0,0,0,0,0,0,0
425113848,425111942,1.0639298e-07,0.000548624,0.006896558,0.0008069805,0.0017368792,0.010152871,1180179,0,0.22145054,0.48484606,0.10490729,0.0,0.0,0.0,0.0,0.0,0.0,0.005004,2162698,2162698,3997706,1114122,32,0,229,1,0,1,0,2,0,0,0,0,0,0,0
425314311,425312105,1.1949409e-07,0.00059518556,0.008609628,0.0009339472,0.0016902129,0.00956038,1180179,0,0.23676237,0.48354506,0.050338417,0.0,0.0,0.0,0.0,0.0,0.0,0.005004,2162698,2162698,3997706,1114122,32,0,229,1,0,1,0,2,0,0,0,0,0,0,0
425514367,425512267,1.4140943e-07,0.0006261738,0.010084669,0.00079906214,0.0021590437,0.009349345,1180179,0,0.2504819,0.48224708,0.047942657,0.0,0.0,0.0,0.0,0.0,0.0,0.005004,2162698,2162698,3997706,1114122,32,0,229,1,0,1,0,2,0,0,0,0,0,0,0
425715024,425712429,1.6273587e-07,0.00058438466,0.010663315,0.0008059073,0.004070338,0.010879594,1180179,0,0.26239926,0.48557547,0.07528611,0.0,0.0,0.0,0.0,0.0,0.0,0.005004,2162698,2162698,3997706,1114122,32,0,229,1,0,1,0,2,0,0,0,0,0,0,0
425914685,425912591,2.0372381e-07,0.0005975086,0.011197675,0.0011466471,0.0074747554,0.016448207,1180179,0,0.27244794,0.4842795,0.09158468,0.0,0.0,0.0,0.0,0.0,0.0,0.005004,2162698,2162698,3997706,1114122,32,0,229,1,0,1,0,2,0,0,0,0,0,0,0
426115231,426112756,2.948157e-07,0.0005998671,0.011448909,0.0013978073,0.0130478535,0.027504824,1180179,0,0.28068432,0.48300186,0.08151605,0.0,0.0,0.0,0.0,0.0,0.0,0.005004,2162698,2162698,3997706,1114122,32,0,229,1,0,1,0,2,0,0,0,0,0,0,0
426315203,426312914,3.3689096e-07,0.0006100903,0.011899713,0.0013252622,0.02117196,0.044905886,1180179,0,0.2872419,0.48171,0.1317274,0.0,0.0,0.0,0.0,0.0,0.0,0.005004,2162698,2162698,3997706,1114122,32,0,229,1,0,1,0,2,0,0,0,0,0,0,0
426515535,426513075,3.8216524e-07,0.0006550421,0.011556714,0.002143041,0.031169342,0.067922086,1180179,0,0.29234108,0.4850451,0.13574623,0.0,0.0,0.0,0.0,0.0,0.0,0.005004,2162698,2162698,3997706,1114122,32,0,229,1,0,1,0,2,0,0,0,0,0,0,0
426915743,426913408,5.0697145e-07,0.0007868974,0.01408191,0.003497849,0.058844868,0.13350649,1180179,0,0.29906934,0.4824388,0.28784233,0.0,0.0,0.0,0.0,0.0,0.0,0.005004,2162698,2162698,3997706,1114122,32,0,229,1,0,1,0,2,0,0,0,0,0,0,0
427115784,427113555,6.2311847e-07,0.00077368534,0.014269091,0.0036351231,0.020280663,0.049904365,1213075,0,0.32887965,0.48577696,0.27755177,0.0,0.0,0.02090271,0.0,0.0,0.0,0.005004,2162698,2162698,3997706,1114122,32,0,229,1,0,1,0,2,0,0,0,0,0,0,0
427315961,427313714,7.320541e-07,0.0008667452,0.01676374,0.0037251895,0.014191776,0.024607293,1213075,0,0.36149648,0.48449957,0.2856339,0.0,0.0,0.001553663,0.0,0.0,0.0,0.005004,2162698,2162698,3997706,1114122,32,0,229,1,0,1,0,2,0,0,0,0,0,0,0
427516050,427513899,7.111725e-07,0.00093108515,0.015818315,0.0036063949,0.020104839,0.05016455,1213075,0,0.39805683,0.4832703,0.27519667,0.0,0.0,0.044726986,0.0,0.0,0.0,0.005004,2162698,2162698,3997706,1114122,32,0,229,1,0,1,0,2,0,0,0,0,0,0,0
427716733,427714031,9.508338e-07,0.0011858554,0.018946102,0.0045286953,0.02952657,0.0828183,1213075,0,0.44016236,0.48207483,0.36983946,0.0,0.0,0.062156495,0.0,0.0,0.0,0.005004,2162698,2162698,3997706,1114122,32,0,229,1,0,1,0,2,0,0,0,0,0,0,0
427916174,427914189,7.3302556e-07,0.00095112313,0.017035883,0.005795003,0.03733506,0.08881347,1213075,0,0.4895878,0.48557743,0.45201138,0.0,0.0,0.06303044,0.0,0.0,0.0,0.005004,2162698,2162698,3997706,1114122,32,0,229,1,0,1,0,2,0,0,0,0,0,0,0
428116699,428114346,6.0772805e-07,0.00075164204,0.01381288,0.0065118875,0.04733493,0.116151646,1213075,0,0.54798806,0.48454717,0.47170517,0.0,0.0,0.096265875,0.0,0.0,0.0,0.005004,2162698,2162698,3997706,1114122,32,0,229,1,0,1,0,2,0,0,0,0,0,0,0
428316606,428314543,6.115047e-07,0.00062229676,0.0130377,0.0065074856,0.05285513,0.14000526,1213075,0,0.61674523,0.48365283,0.51938444,0.0,0.0,0.106853664,0.0,0.0,0.0,0.005004,2162698,2162698,3997706,1114122,32,0,229,1,0,1,0,2,0,0,0,0,0,0,0
428516930,428514660,6.407818e-07,0.0005637574,0.012560688,0.0069475947,0.06674816,0.257211,164499,0,0.6969204,0.48295167,0.58492196,0.0,0.0,0.2899374,0.0,0.0,0.0,0.005004,2162698,2162698,3997706,1114122,32,0,229,1,0,1,0,2,0,0,0,0,0,0,0
428717269,428714821,6.5255244e-07,0.0005341968,0.011562825,0.0077462574,0.07330121,0.30050907,164499,0,0.7890478,0.48717535,0.57520837,0.0,0.0,0.28019863,0.0,0.0,0.0,0.005004,2162698,2162698,3997706,1114122,32,0,229,1,0,1,0,2,0,0,0,0,0,0,0
428907155,428904978,5.876563e-07,0.00046433083,0.010855815,0.007868806,0.08354834,0.37536088,164499,0,0.8874252,0.48609355,0.6394544,0.0,0.0,0.28181887,0.0,0.0,0.0,0.005004,2162698,2162698,3997706,1114122,32,0,229,1,0,1,0,2,0,0,0,0,0,0,0
429107265,429105118,7.7986965e-07,0.00046038645,0.011479074,0.007821046,0.07422755,0.30832693,164499,0,1.0020161,0.49113366,0.5857544,0.0,0.0,0.27140236,0.0,0.0,0.0,0.005004,2162698,2162698,3997706,1114122,32,0,229,1,0,1,0,2,0,0,0,0,0,0,0
429307219,429305274,8.277053e-07,0.00043851405,0.011697425,0.0062254956,0.07499183,0.2980531,164499,0,1.1275957,0.49194556,0.4243919,0.0,0.0,0.23378332,0.0,0.0,0.0,0.005004,2162698,2162698,3997706,1114122,32,0,229,1,0,1,0,2,0,0,0,0,0,0,0
429511967,429505426,6.8361174e-07,0.00040198432,0.011041377,0.018559663,0.0768678,0.3056139,8553187,0,1.2631654,0.493345,0.111421436,0.0,0.0,0.23265179,0.0,0.0,0.0,0.005004,2162698,2162698,3997706,1114122,32,0,229,1,0,1,0,3,0,0,0,0,0,0,0
429708342,429705579,5.468243e-07,0.00038594898,0.0105249435,0.0028941208,0.12084715,0.31445423,8553187,0,1.4065856,0.4953493,0.0896225,0.0,0.0,0.20456149,0.0,0.0,0.0,0.005004,2162698,2162698,3997706,1114122,32,0,229,1,0,1,0,3,0,0,0,0,0,0,0
430107897,430105885,3.316486e-07,0.00036583457,0.009973022,0.000243309,0.18180385,0.3601108,8553187,0,1.7132857,0.5066781,0.086973354,0.0,0.0,0.17081182,0.0,0.0,0.0,0.005004,2162698,2162698,3997706,1114122,32,0,229,1,0,1,0,3,0,0,0,0,0,0,0
430312719,430306038,2.827462e-07,0.00040419854,0.010915527,0.00012950192,0.21973337,0.44650748,8553187,0,1.8743248,0.51090604,0.07878337,0.0,0.0,0.16367818,0.0,0.0,0.0,0.005004,2162698,2162698,3997706,1114122,32,0,229,1,0,1,0,3,0,0,0,0,0,0,0
430508999,430506196,2.4085057e-07,0.00039214818,0.010449367,8.912655e-05,0.26201776,0.5622028,8553187,0,2.0387979,0.51587117,0.06216236,0.0,0.0,0.1439393,0.0,0.0,0.0,0.005004,2162698,2162698,3997706,1114122,32,0,229,1,0,1,0,3,0,0,0,0,0,0,0
430712842,430706341,3.7987115e-07,0.00038870686,0.010231548,0.00015938575,0.27785173,0.6420348,8553187,0,2.2058775,0.52744454,0.107781425,0.0,0.0,0.16340737,0.0,0.0,0.0,0.005004,2162698,2162698,3997706,1114122,32,0,229,1,0,1,0,3,0,0,0,0,0,0,0
430908958,430906489,4.9279095e-07,0.00038142904,0.0099358605,0.00027154415,0.29815254,0.73521346,8553187,0,2.3725743,0.53386796,0.18144755,0.0,0.0,0.097670026,0.0,0.0,0.0,0.005004,2162698,2162698,3997706,1114122,32,0,229,1,0,1,0,3,0,0,0,0,0,0,0
431113460,431106654,4.4581097e-07,0.00038552305,0.010009192,0.00026808973,0.32114193,0.8351375,8553187,0,2.5375392,0.54061943,0.24781296,0.0,0.0,0.079048984,0.0,0.0,0.0,0.005004,2162698,2162698,3997706,1114122,32,0,229,1,0,1,0,3,0,0,0,0,0,0,0
431309179,431306830,5.093406e-07,0.00037562437,0.009826073,0.00023593842,0.32897013,0.90672225,8553187,0,2.7006824,0.5542613,0.17614639,0.0,0.0,0.09953844,0.0,0.0,0.0,0.005004,2162698,2162698,3997706,1114122,32,0,229,1,0,1,0,3,0,0,0,0,0,0,0
431513611,431506943,5.541433e-07,0.0003719077,0.010245989,0.0004501876,0.33406255,0.9719297,8553187,0,2.8575635,0.56130534,0.15610991,0.0,0.0,0.04968322,0.0,0.0,0.0,0.005004,2162698,2162698,3997706,1114122,32,0,229,1,0,1,0,3,0,0,0,0,0,0,0
431709543,431707095,5.3428715e-07,0.00037703416,0.009869504,0.0008651295,0.33768648,1.0303134,8553187,0,3.0076156,0.56790924,0.23293053,0.0,0.0,0.058805995,0.0,0.0,0.0,0.005004,2162698,2162698,3997706,1114122,32,0,229,1,0,1,0,3,0,0,0,0,0,0,0
431914239,431907241,4.890794e-07,0.00038665993,0.010097544,0.0013808036,0.322427,1.041875,8553187,0,3.1496015,0.57391924,0.23595476,0.0,0.0,0.030915597,0.0,0.0,0.0,0.005004,2162698,2162698,3997706,1114122,32,0,229,1,0,1,0,3,0,0,0,0,0,0,0
432109672,432107412,4.5402254e-07,0.0003857761,0.009715837,0.0019323252,0.28614753,1.0002253,8553187,0,3.285615,0.58726573,0.24663188,0.0,0.0,0.009998104,0.0,0.0,0.0,0.005004,2162698,2162698,3997706,1114122,32,0,165,1,0,1,0,3,0,0,0,0,0,0,0
432509698,432507692,3.8881723e-07,0.0003396172,0.009248521,0.0031135513,0.19023141,0.82224447,8553187,0,3.521176,0.59524435,0.21813753,0.0,0.0,0.050766632,0.0,0.0,0.0,0.005004,2162698,2162698,3997706,1114122,32,0,165,1,0,1,0,3,0,0,0,0,0,0,0
432714568,432707833,3.3005443e-07,0.0003453702,0.009458524,0.0038642234,0.15796599,0.7521803,8553187,0,3.6268694,0.6066,0.22700909,0.0,0.0,0.06676668,0.0,0.0,0.0,0.005004,2162698,2162698,3997706,1114122,32,0,165,1,0,1,0,3,0,0,0,0,0,0,0
432910067,432907984,2.6288768e-07,0.00033758505,0.009492309,0.0045307353,0.11968499,0.65405387,8553187,0,3.7178302,0.60804355,0.22733118,0.0,0.0,0.07390814,0.0,0.0,0.0,0.005004,2162698,2162698,3997706,1114122,32,0,165,1,0,1,0,3,0,0,0,0,0,0,0
433114758,433108126,2.9072044e-07,0.00035509848,0.009613649,0.0050304765,0.08410466,0.5320746,8553187,0,3.7983563,0.6085026,0.15337752,0.0,0.0,0.0920268,0.0,0.0,0.0,0.005004,2162698,2162698,3997706,1114122,32,0,165,1,0,1,0,3,0,0,0,0,0,0,0
433310600,433308273,3.288808e-07,0.00035615623,0.009622703,0.0056120586,0.07763104,0.4389543,8553187,0,3.8688407,0.6079772,0.121680856,0.0,0.0,0.10219521,0.0,0.0,0.0,0.005004,2162698,2162698,3997706,1114122,32,0,165,1,0,1,0,3,0,0,0,0,0,0,0
433514986,433508415,3.0870322e-07,0.0003571851,0.00984417,0.0062005455,0.07887284,0.3837994,8553187,0,3.9338243,0.6160886,0.20136155,0.0,0.0,0.1216674,0.0,0.0,0.0,0.005004,2162698,2162698,3997706,1114122,32,0,165,1,0,1,0,3,0,0,0,0,0,0,0
433710566,433708564,3.3949271e-07,0.00034005241,0.008458277,0.0066676373,0.09437886,0.3351915,8553187,0,3.9860816,0.6142122,0.13383475,0.0,0.0,0.113382004,0.0,0.0,0.0,0.005004,2162698,2162698,3997706,1114122,32,0,165,1,0,1,0,3,0,0,0,0,0,0,0
434110901,434108865,3.3946486e-07,0.0003852272,0.008547894,0.0074950797,0.113120094,0.2843699,8553187,0,4.071103,0.6186391,0.117643654,0.0,0.0,0.13031049,0.0,0.0,0.0,0.005004,2162698,2162698,3997706,1114122,32,0,165,1,0,1,0,3,0,0,0,0,0,0,0
434315471,434309008,3.9745333e-07,0.00039882696,0.009360147,0.0077785733,0.14643046,0.323913,8553187,0,4.101716,0.6156529,0.11155184,0.0,0.0,0.15548515,0.0,0.0,0.0,0.005004,2162698,2162698,3997706,1114122,32,0,165,1,0,1,0,3,0,0,0,0,0,0,0
434511128,434509145,5.0278555e-07,0.00040285976,0.009937874,0.0054275994,0.17020035,0.36615467,8553187,0,4.1258483,0.61248666,0.25152174,0.0,0.0,0.1296535,0.0,0.0,0.0,0.005004,2162698,2162698,3997706,1114122,32,0,165,1,0,1,0,3,0,0,0,0,0,0,0
434716203,434709295,4.5551113e-07,0.00037248986,0.009334682,0.015147748,0.20879626,0.42719194,8553187,0,4.145124,0.6092597,0.2296031,0.0,0.0,0.105660744,0.0,0.0,0.0,0.005004,2162698,2162698,3997706,1114122,32,0,165,1,0,1,0,3,0,0,0,0,0,0,0
434911364,434909433,4.4598843e-07,0.00035674023,0.009012987,0.023870477,0.1954624,0.35161844,8553187,0,4.163087,0.61544603,0.26836184,0.0,0.0,0.089969136,0.0,0.0,0.0,0.005004,2162698,2162698,3997706,1114122,32,0,165,1,0,1,0,3,0,0,0,0,0,0,0
435116472,435109603,4.4738678e-07,0.000351406,0.008622554,0.02037196,0.21317317,0.41937134,8553187,0,4.174927,0.6121417,0.24092837,0.0,0.0,0.13648766,0.0,0.0,0.0,0.005004,2162698,2162698,3997706,1114122,32,0,165,1,0,1,0,3,0,0,0,0,0,0,0
435311978,435309722,4.837644e-07,0.00036580398,0.008745654,0.01734638,0.22458366,0.4769007,8553187,0,4.1839094,0.60861975,0.304016,0.0,0.0,0.16317467,0.0,0.0,0.0,0.005004,2162698,2162698,3997706,1114122,32,0,165,1,0,1,0,3,0,0,0,0,0,0,0
435512097,435509854,4.381074e-07,0.00037321087,0.008616397,0.029840596,0.25351885,0.55746895,8553187,0,4.190224,0.6050529,0.3277353,0.0,0.0,0.1348802,0.0,0.0,0.0,0.005004,2162698,2162698,3997706,1114122,32,0,165,1,0,1,0,3,0,0,0,0,0,0,0
435712082,435709994,4.4611141e-07,0.0003771093,0.008300123,0.036145844,0.25140467,0.51822245,8553187,0,4.1950636,0.61046463,0.33100224,0.0,0.0,0.13558583,0.0,0.0,0.0,0.005004,2162698,2162698,3997706,1114122,32,0,165,1,0,1,0,3,0,0,0,0,0,0,0
435917278,435910135,4.9767544e-07,0.00038592232,0.007963802,0.038975958,0.27016804,0.5718479,8553187,0,4.1961813,0.60657036,0.37388462,0.0,0.0,0.15445212,0.0,0.0,0.0,0.005004,2162698,2162698,3997706,1114122,32,0,165,1,0,1,0,3,0,0,0,0,0,0,0
436112492,436110275,4.2925498e-07,0.0003572491,0.008148623,0.046907924,0.30227447,0.6447072,8553187,0,4.1953115,0.60266453,0.43577114,0.0,0.0,0.16852829,0.0,0.0,0.0,0.005004,2162698,2162698,3997706,1114122,32,0,165,1,0,1,0,3,0,0,0,0,0,0,0
436312640,436310415,4.0632509e-07,0.00032815326,0.007977159,0.04632271,0.2807995,0.57190216,8553187,0,4.1933093,0.6077089,0.4804037,0.0,0.0,0.13769431,0.0,0.0,0.0,0.005004,2162698,2162698,3997706,1114122,32,0,165,1,0,1,0,3,0,0,0,0,0,0,0
436517143,436510573,4.1386807e-07,0.00032365078,0.007771624,0.02474854,0.2357359,0.5148494,8553187,0,4.1886034,0.6037105,0.36603367,0.0,0.0,0.13965772,0.0,0.0,0.0,0.005004,2162698,2162698,3997706,1114122,32,0,165,1,0,1,0,3,0,0,0,0,0,0,0
436712758,436710700,4.6713777e-07,0.00032179465,0.0082613565,0.010248108,0.20065837,0.4848377,8553187,0,4.182635,0.59982896,0.26734,0.0,0.0,0.17229514,0.0,0.0,0.0,0.005004,2162698,2162698,3997706,1114122,32,0,165,1,0,1,0,3,0,0,0,0,0,0,0
436917545,436910836,5.2592486e-07,0.00033772504,0.008328258,0.013811863,0.21141692,0.51923317,8553187,0,4.1757374,0.596411,0.23005657,0.0,0.0,0.16527498,0.0,0.0,0.0,0.005004,2162698,2162698,3997706,1114122,32,0,165,1,0,1,0,3,0,0,0,0,0,0,0
437113081,437110972,5.184863e-07,0.0003416308,0.008068079,0.01622813,0.20706351,0.50330013,8553187,0,4.168621,0.6025338,0.22460294,0.0,0.0,0.17787872,0.0,0.0,0.0,0.005004,2162698,2162698,3997706,1114122,32,0,165,1,0,1,0,3,0,0,0,0,0,0,0
437313164,437311108,5.7357465e-07,0.00035344178,0.008416444,0.014989347,0.21379413,0.55600595,8553187,0,4.160235,0.6006845,0.27312386,0.0,0.0,0.15198655,0.0,0.0,0.0,0.005004,2162698,2162698,3997706,1114122,32,0,165,1,0,1,0,3,0,0,0,0,0,0,0
437513345,437511245,5.7377e-07,0.00035099345,0.008226394,0.010967112,0.2009485,0.5990388,8553187,0,4.150914,0.5999184,0.18385364,0.0,0.0,0.13971438,0.0,0.0,0.0,0.005004,2162698,2162698,3997706,1114122,32,0,165,1,0,1,0,3,0,0,0,0,0,0,0
437718145,437711404,6.3050413e-07,0.00038515136,0.008688036,0.01460421,0.2115904,0.6590028,8553187,0,4.1408978,0.6092313,0.18286945,0.0,0.0,0.13577297,0.0,0.0,0.0,0.005004,2162698,2162698,3997706,1114122,32,0,165,1,0,1,0,3,0,0,0,0,0,0,0
437918081,437911520,5.9808923e-07,0.00039834558,0.009454982,0.017566122,0.22296259,0.7463828,8553187,0,4.130357,0.6101665,0.15273637,0.0,0.0,0.10731057,0.0,0.0,0.0,0.005004,2162698,2162698,3997706,1114122,32,0,165,1,0,1,0,3,0,0,0,0,0,0,0
438113715,438111656,5.986516e-07,0.00041279834,0.010481981,0.019438285,0.23881213,0.84469455,8553187,0,4.119389,0.61106485,0.19151144,0.0,0.0,0.13715453,0.0,0.0,0.0,0.005004,2162698,2162698,3997706,1114122,32,0,165,1,0,1,0,3,0,0,0,0,0,0,0
438318652,438311792,6.9111235e-07,0.00041867924,0.011392689,0.024148224,0.28935164,0.9667891,8553187,0,4.1078615,0.6115882,0.23445988,0.0,0.0,0.103342995,0.0,0.0,0.0,0.005004,2162698,2162698,3997706,1114122,32,0,165,1,0,1,0,3,0,0,0,0,0,0,0
438514163,438511935,6.657964e-07,0.00044113872,0.01110273,0.026700538,0.30521992,1.024231,8553187,0,4.0964804,0.6214102,0.25164348,0.0,0.0,0.08329035,0.0,0.0,0.0,0.005004,2162698,2162698,3997706,1114122,32,0,165,1,0,1,0,3,0,0,0,0,0,0,0
438718911,438712058,8.232996e-07,0.00044242904,0.010758236,0.02628788,0.32464525,1.0865688,8553187,0,4.084517,0.6212741,0.255545,0.0,0.0,0.06149869,0.0,0.0,0.0,0.005004,2162698,2162698,3997706,1114122,32,0,165,1,0,1,0,3,0,0,0,0,0,0,0
438914249,438912225,7.1475694e-07,0.0004183667,0.010635825,0.02514266,0.33270437,1.1534545,8553187,0,4.0731797,0.6210218,0.2881845,0.0,0.0,0.084968075,0.0,0.0,0.0,0.005004,2162698,2162698,3997706,1114122,32,0,165,1,0,1,0,3,0,0,0,0,0,0,0
439119285,439112333,5.5836296e-07,0.00040110087,0.010324537,0.026895337,0.35941932,1.2282864,8553187,0,4.0621295,0.6204863,0.27432457,0.0,0.0,0.044399105,0.0,0.0,0.0,0.005004,2162698,2162698,3997706,1114122,32,0,165,1,0,1,0,3,0,0,0,0,0,0,0
439314503,439312479,6.9479074e-07,0.00042359397,0.010032532,0.024147507,0.3364566,1.2617143,8553187,0,4.051929,0.6298004,0.30187,0.0,0.0,0.055373464,0.0,0.0,0.0,0.005004,2162698,2162698,3997706,1114122,32,0,165,1,0,1,0,3,0,0,0,0,0,0,0
439519512,439512602,7.498692e-07,0.0004449324,0.010286303,0.024396935,0.3457218,1.2994494,8553187,0,4.0412145,0.62899387,0.29643175,0.0,0.0,0.033065833,0.0,0.0,0.0,0.005004,2162698,2162698,3997706,1114122,32,0,165,1,0,1,0,3,0,0,0,0,0,0,0
439719845,439712735,7.920516e-07,0.00044231047,0.010051032,0.023148708,0.33622813,1.3193473,8553187,0,4.030962,0.6281951,0.2852889,0.0,0.0,0.028364783,0.0,0.0,0.0,0.005004,2162698,2162698,3997706,1114122,32,0,165,1,0,1,0,3,0,0,0,0,0,0,0
439914922,439912869,7.6622626e-07,0.000430476,0.010009282,0.021995947,0.31151253,1.3260176,8553187,0,4.021887,0.6382586,0.2573011,0.0,0.0,0.016820347,0.0,0.0,0.0,0.005004,2162698,2162698,3997706,1114122,32,0,165,1,0,1,0,3,0,0,0,0,0,0,0
440119595,440113014,8.6116785e-07,0.00048775374,0.010851417,0.024834128,0.3294132,1.3634422,8553187,0,4.0116982,0.6375939,0.4835124,0.0,0.0,0.008798345,0.0,0.0,0.0,0.005004,2162698,2162698,3997706,1114122,32,0,165,1,0,1,0,3,0,0,0,0,0,0,0
440315319,440313135,8.58222e-07,0.0004974667,0.009885039,0.0052278657,0.21947102,1.3958306,8553187,0,4.0055556,0.63905144,1.3780481,0.0,0.0,0.10126391,0.0,0.0,0.0,0.005004,2162698,2162698,3997706,1114122,32,16,165,1,0,1,0,3,0,0,0,0,0,0,0
440515723,440513267,9.4435836e-07,0.0005268472,0.009854415,0.001747124,0.25545272,1.4803371,8553187,0,3.9991646,0.64024514,1.3651633,0.0,0.0,0.08429113,0.0,0.0,0.0,0.005004,2162698,2162698,3997706,1114122,32,16,165,1,0,1,0,3,0,0,0,0,0,0,0
440715592,440713405,1.1463436e-06,0.00050703465,0.01019766,0.0015768111,0.28078166,1.5116656,8553187,0,3.993038,0.6522241,1.3478407,0.0,0.0,0.094786115,0.0,0.0,0.0,0.005004,2162698,2162698,3997706,1114122,32,16,165,1,0,1,0,3,0,0,0,0,0,0,0
440915710,440913548,1.5697499e-06,0.00053964346,0.010874627,0.0015596082,0.28414482,1.5270232,8553187,0,3.9859006,0.65298104,1.4029926,0.0,0.0,0.072069034,0.0,0.0,0.0,0.005004,2162698,2162698,3997706,1114122,32,16,165,1,0,1,0,3,0,0,0,0,0,0,0
441116084,441113664,1.418228e-06,0.0005502908,0.011571852,0.0014619599,0.28275096,1.515921,8553187,0,3.9779325,0.6536009,1.422852,0.0,0.0,0.07427447,0.0,0.0,0.0,0.005004,2162698,2162698,3997706,1114122,32,16,165,1,0,1,0,3,0,0,0,0,0,0,0
441315868,441313807,1.0917663e-06,0.0005250419,0.011615064,0.0019275039,0.2816671,1.4812602,8553187,0,3.9696448,0.66555923,1.3962418,0.0,0.0,0.06249848,0.0,0.0,0.0,0.005004,2162698,2162698,3997706,1114122,32,16,165,1,0,1,0,3,0,0,0,0,0,0,0
441516334,441513932,1.0290643e-06,0.0005015108,0.011355889,0.0023829886,0.27121067,1.4433291,8553187,0,3.9599276,0.66535515,1.4086292,0.0,0.0,0.044971723,0.0,0.0,0.0,0.005004,2162698,2162698,3997706,1114122,32,16,165,1,0,1,0,3,0,0,0,0,0,0,0
441716227,441714110,1.0591349e-06,0.00046209482,0.010599087,0.0031257041,0.25965786,1.3949969,8553187,0,3.9493413,0.66509485,1.4067653,0.0,0.0,0.031771235,0.0,0.0,0.0,0.005004,2162698,2162698,3997706,1114122,32,16,165,1,0,1,0,3,0,0,0,0,0,0,0
441916831,441914192,9.1470804e-07,0.00044321708,0.010004844,0.0042686188,0.25113413,1.3380084,8553187,0,3.937665,0.66459936,1.3662319,0.0,0.0,0.014926385,0.0,0.0,0.0,0.005004,2162698,2162698,3997706,1114122,32,16,165,1,0,1,0,3,0,0,0,0,0,0,0
442116522,442114324,9.824308e-07,0.00047143953,0.009926382,0.005475818,0.24683201,1.2755315,8553187,0,3.925484,0.6759944,1.0619427,0.0,0.0,0.001183832,0.0,0.0,0.0,0.005004,2162698,2162698,3997706,1114122,32,16,165,1,0,1,0,3,0,0,0,0,0,0,0
442321402,442314456,1.3533677e-06,0.00048945076,0.009769362,0.012581231,0.13423546,1.1483713,8553187,0,3.905408,0.6703397,0.39243746,0.0,0.0,0.10751304,0.0,0.0,0.0,0.005004,2162698,2162698,3997706,1114122,32,0,165,1,0,1,0,3,0,0,0,0,0,0,0
442516743,442514609,1.3480845e-06,0.00045890245,0.009580192,0.0047583855,0.17505236,1.123922,8553187,0,3.887217,0.66581345,0.2892306,0.0,0.0,0.21119203,0.0,0.0,0.0,0.005004,2162698,2162698,3997706,1114122,32,0,165,1,0,1,0,3,0,0,0,0,0,0,0
442721551,442714747,1.5384907e-06,0.0004707362,0.009837624,0.0029301618,0.18096083,1.1135519,8553187,0,3.8701253,0.6736106,0.32119402,0.0,0.0,0.2429762,0.0,0.0,0.0,0.005004,2162698,2162698,3997706,1114122,32,0,1189,1,0,1,0,3,0,0,0,0,0,0,0
442911332,442904859,1.801433e-06,0.00047862026,0.010555242,0.0032162257,0.20986582,1.1880805,8553187,0,3.845275,0.666152,0.33767918,0.0,0.0,0.22861792,0.0,0.0,0.0,0.005004,2162698,2162698,3997706,1114122,32,0,1189,1,0,1,0,3,0,0,0,0,0,0,0
443107723,443104989,1.8718846e-06,0.00046666228,0.01015788,0.0013202085,0.19829859,1.1432164,8553187,0,3.8252938,0.6594597,0.36810428,0.0,0.0,0.21997675,0.0,0.0,0.0,0.005004,2162698,2162698,3997706,1114122,32,0,1189,1,0,1,0,3,0,0,0,0,0,0,0
443311676,443305104,1.8187969e-06,0.00044173992,0.00953638,0.0046055904,0.17243363,1.068996,8553187,0,3.8055155,0.6633619,0.3455223,0.0,0.0,0.16541581,0.0,0.0,0.0,0.005004,2162698,2162698,3997706,1114122,32,0,1189,1,0,1,0,3,0,0,0,0,0,0,0
443507791,443505234,1.896362e-06,0.00041291665,0.008882559,0.0017553378,0.15507844,1.0196501,8553187,0,3.7908738,0.6573593,0.2056896,0.0,0.0,0.16009662,0.0,0.0,0.0,0.005004,2162698,2162698,3997706,1114122,32,0,1189,1,0,1,0,3,0,0,0,0,0,0,0
443707330,443705363,1.5566362e-06,0.00038864196,0.008730014,0.0046347585,0.16743219,0.9985578,8553187,0,3.777629,0.65173495,0.2778717,0.0,0.0,0.21311755,0.0,0.0,0.0,0.005004,2162698,2162698,3997706,1114122,32,0,1189,1,0,1,0,3,0,0,0,0,0,0,0
443907744,443905514,1.3552161e-06,0.0003954159,0.009761807,0.005573858,0.19050436,0.99865746,8553187,0,3.76513,0.6466221,0.23370935,0.0,0.0,0.17904082,0.0,0.0,0.0,0.005004,2162698,2162698,3997706,1114122,32,0,1189,1,0,1,0,3,0,0,0,0,0,0,0
444107567,444105621,1.2460131e-06,0.00037148973,0.008987318,0.0022179256,0.1530701,0.99933,8553187,0,3.7559855,0.65442294,0.20512167,0.0,0.0,0.2008221,0.0,0.0,0.0,0.005004,2162698,2162698,3997706,1114122,32,0,1189,1,0,1,0,3,0,0,0,0,0,0,0
444307997,444305753,1.1793684e-06,0.0003609166,0.008288259,0.0007905322,0.13635051,1.0192693,8553187,0,3.7474442,0.65150684,0.30636385,0.0,0.0,0.1873371,0.0,0.0,0.0,0.005004,2162698,2162698,3997706,1114122,32,0,1189,1,0,1,0,3,0,0,0,0,0,0,0
444512553,444505878,1.0943753e-06,0.00037636136,0.009127021,0.0037129258,0.13807262,1.0027621,8553187,0,3.739251,0.6488633,0.27244875,0.0,0.0,0.19466715,0.0,0.0,0.0,0.005004,2162698,2162698,3997706,1114122,32,0,1189,1,0,1,0,3,0,0,0,0,0,0,0
444708114,444706006,1.0840257e-06,0.00039511154,0.009764364,0.0035499735,0.11583295,1.0405983,8553187,0,3.7332325,0.6582576,0.31693852,0.0,0.0,0.18610743,0.0,0.0,0.0,0.005004,2162698,2162698,3997706,1114122,32,0,1189,1,0,1,0,3,0,0,0,0,0,0,0
444912900,444906129,9.062364e-07,0.00044578707,0.010834491,0.00066480634,0.11246193,1.0984167,8553187,0,3.7267966,0.65561134,0.2380414,0.0,0.0,0.21055621,0.0,0.0,0.0,0.005004,2162698,2162698,3997706,1114122,32,0,1189,1,0,1,0,3,0,0,0,0,0,0,0
445108964,445106282,7.3223237e-07,0.00042689906,0.010777385,0.0017667558,0.13472909,1.1796222,8553187,0,3.7210975,0.6526175,0.27170944,0.0,0.0,0.15610223,0.0,0.0,0.0,0.005004,2162698,2162698,3997706,1114122,32,0,1189,1,0,1,0,3,0,0,0,0,0,0,0
445313182,445306406,7.5099905e-07,0.00045561584,0.011540291,0.001881422,0.14695802,1.2118922,8553187,0,3.715464,0.6490256,0.2846383,0.0,0.0,0.20961559,0.0,0.0,0.0,0.005004,2162698,2162698,3997706,1114122,32,0,1189,1,0,1,0,3,0,0,0,0,0,0,0
