timestamp,timestamp_sample,baro_device_id,baro_alt_meter,baro_temp_celcius,baro_pressure_pa,rho
394698455,394680745,3997706,186.63759,51.969997,99103.25,1.1269724
394758791,394736103,3997706,186.44736,51.969997,99105.5,1.1273576
394809134,394788909,3997706,186.82785,51.969997,99100.99,1.1265874
394859396,394841723,3997706,186.61647,51.969997,99103.5,1.1266159
394919756,394897013,3997706,186.36281,51.96,99106.5,1.1270094
394970974,394950273,3997706,186.57419,51.969997,99104.0,1.126981
395021194,395003530,3997706,186.63759,51.969997,99103.25,1.1269724
395081604,395058839,3997706,186.48962,51.969997,99104.99,1.1269922
395131939,395111696,3997706,186.65874,51.96,99103.0,1.1269696
395182220,395164493,3997706,186.63759,51.96,99103.25,1.1269724
395242555,395219847,3997706,186.82785,51.96,99101.0,1.1269469
395293821,395273382,3997706,186.67989,51.969997,99102.75,1.1269667
395344092,395326416,3997706,186.2994,51.96,99107.24,1.1270179
395454736,395434516,3997706,186.4685,51.96,99105.25,1.1273547
395505012,395487346,3997706,186.55304,51.949997,99104.25,1.1269839
395565410,395542666,3997706,186.5319,51.96,99104.5,1.1269866
395616776,395596560,3997706,186.61647,51.949997,99103.5,1.1269753
395667045,395649380,3997706,186.61647,51.949997,99103.5,1.1269753
395727407,395704682,3997706,186.5319,51.949997,99104.5,1.1273462
395777832,395757445,3997706,186.70102,51.949997,99102.5,1.1273235
395827926,395810262,3997706,186.95467,51.949997,99099.5,1.1272893
395889280,395865778,3997706,186.74329,51.94,99101.99,1.1273177
395939511,395919296,3997706,186.65874,51.949997,99103.0,1.1269696
395989768,395972070,3997706,186.78558,51.949997,99101.49,1.1269525
396050012,396027330,3997706,186.63759,51.94,99103.25,1.1269724
396100285,396080080,3997706,186.63759,51.94,99103.25,1.127332
396150569,396132887,3997706,186.44736,51.94,99105.49,1.1273575
396210904,396188180,3997706,186.5319,51.94,99104.5,1.1269866
396262062,396241650,3997706,186.42621,51.94,99105.75,1.1270009
396312336,396294678,3997706,186.82785,51.94,99101.0,1.1273065
396372746,396349974,3997706,186.32051,51.94,99106.99,1.1273746
396422918,396402755,3997706,186.82785,51.94,99101.0,1.1273065
396533563,396510780,3997706,186.5319,51.94,99104.5,1.1269866
396584799,396564144,3997706,186.8067,51.94,99101.25,1.1269497
396635143,396617383,3997706,186.61647,51.94,99103.5,1.1269753
396695401,396672662,3997706,186.82785,51.94,99100.99,1.1269468
396745632,396725440,3997706,186.36281,51.93,99106.49,1.1270094
396795920,396778215,3997706,186.87012,51.93,99100.5,1.1269412
396856284,396833544,3997706,186.57419,51.93,99104.0,1.126981
396907613,396886863,3997706,186.8067,51.93,99101.25,1.1269497
396957866,396940165,3997706,186.76443,51.93,99101.74,1.1269553
397018121,396995445,3997706,186.51077,51.93,99104.75,1.1269895
397068436,397048203,3997706,186.72215,51.93,99102.25,1.126961
397118810,397101110,3997706,186.70102,51.93,99102.5,1.1273235
397179081,397156414,3997706,186.48962,51.93,99105.0,1.1269923
397230321,397209658,3997706,186.61647,51.92,99103.5,1.1269753
397280598,397262936,3997706,186.76443,51.93,99101.75,1.1269554
397340910,397318220,3997706,186.59532,51.93,99103.75,1.1269782
397391144,397370982,3997706,186.65874,51.93,99103.0,1.1269696
397714091,397693881,3997706,186.5319,51.92,99104.5,1.1269866
397764341,397746686,3997706,186.55304,51.92,99104.25,1.1269839
397824755,397802010,3997706,186.65874,51.92,99103.0,1.1269696
397875977,397855527,3997706,186.48962,51.91,99104.99,1.1269922
397926234,397908578,3997706,186.67989,51.92,99102.75,1.1269667
397986697,397963948,3997706,186.34166,51.91,99106.75,1.1270123
398036907,398016749,3997706,186.70102,51.91,99102.5,1.126964
398087243,398069508,3997706,186.44736,51.92,99105.5,1.126998
398147601,398124840,3997706,186.4685,51.91,99105.25,1.1269952
398198680,398178512,3997706,186.42621,51.91,99105.75,1.1270009
398249001,398231310,3997706,186.59532,51.91,99103.75,1.1269782
398309338,398286612,3997706,186.89127,51.91,99100.25,1.1269383
398359706,398339389,3997706,186.51077,51.91,99104.75,1.1266301
398409870,398392195,3997706,186.32051,51.91,99107.0,1.1266556
398470126,398447457,3997706,186.57419,51.91,99104.0,1.126981
398521420,398500677,3997706,186.74329,51.91,99102.0,1.1269583
398571589,398553908,3997706,186.55304,51.91,99104.26,1.1266245
398631857,398609153,3997706,186.51077,51.91,99104.75,1.1266301
398682122,398661902,3997706,186.57419,51.899998,99104.0,1.126981
398732388,398714665,3997706,186.74329,51.91,99102.0,1.1269583
398792606,398769928,3997706,186.42621,51.899998,99105.75,1.1270009
398842885,398822697,3997706,186.63759,51.899998,99103.25,1.1269724
398954369,398931687,3997706,186.42621,51.899998,99105.75,1.1270009
399004740,398984501,3997706,186.65874,51.899998,99103.0,1.1269696
399054999,399037291,3997706,186.51077,51.899998,99104.76,1.1269896
399115473,399092624,3997706,186.57419,51.899998,99104.0,1.126981
399165731,399145532,3997706,186.40508,51.899998,99106.0,1.1266443
399217108,399199111,3997706,186.51077,51.899998,99104.75,1.1266301
399327769,399307502,3997706,186.27824,51.899998,99107.49,1.1270207
399377949,399360282,3997706,186.5319,51.89,99104.5,1.1269866
399438211,399415546,3997706,186.5319,51.89,99104.5,1.1266272
399488621,399468310,3997706,186.34166,51.89,99106.75,1.1266528
399539858,399521901,3997706,186.2994,51.899998,99107.25,1.127018
399600143,399577412,3997706,186.40508,51.89,99106.0,1.1270037
399650404,399630203,3997706,186.48962,51.89,99105.0,1.1266329
399700683,399683020,3997706,186.5319,51.89,99104.5,1.1266272
399761046,399738291,3997706,186.21483,51.89,99108.24,1.1266698
399811351,399791110,3997706,186.32051,51.89,99107.0,1.1266556
399862665,399844652,3997706,186.19106,51.89,99108.5,1.1270322
399922850,399900186,3997706,186.36281,51.89,99106.5,1.1270094
400245476,400222753,3997706,186.25446,51.89,99107.75,1.1266642
400346067,400328379,3997706,186.48962,51.879997,99104.99,1.1266328
400406368,400383673,3997706,186.63759,51.879997,99103.25,1.126613
400456627,400436455,3997706,186.44736,51.879997,99105.5,1.126998
400507068,400489245,3997706,186.72215,51.879997,99102.25,1.126961
400568245,400545518,3997706,186.4685,51.879997,99105.25,1.1266358
400618523,400598323,3997706,186.36281,51.879997,99106.5,1.12665
400668831,400651136,3997706,186.25446,51.879997,99107.75,1.1270236
400729140,400706402,3997706,186.59532,51.879997,99103.75,1.1269782
400779395,400759195,3997706,186.27824,51.879997,99107.5,1.1270208
401102096,401081895,3997706,186.15143,51.87,99109.0,1.1270379
401152333,401134668,3997706,185.97968,51.87,99111.0,1.1267011
401213782,401190511,3997706,185.96117,51.87,99111.24,1.1267039
401264069,401243877,3997706,186.21483,51.86,99108.25,1.1270293
401314345,401296645,3997706,186.40508,51.87,99106.0,1.1270037
401374609,401351911,3997706,186.44736,51.86,99105.5,1.126998
401424907,401404706,3997706,186.5319,51.86,99104.5,1.1269866
401475245,401457512,3997706,186.2994,51.86,99107.25,1.127018
401536582,401513757,3997706,186.27824,51.86,99107.49,1.1270207
401586772,401566596,3997706,186.19106,51.86,99108.5,1.1270322
401637049,401619380,3997706,186.27824,51.86,99107.5,1.1266614
401697396,401674661,3997706,186.27824,51.86,99107.49,1.1266613
401747623,401727445,3997706,186.48962,51.85,99105.0,1.1269923
401797866,401780204,3997706,186.21483,51.86,99108.25,1.1270293
401859105,401835937,3997706,186.44736,51.86,99105.5,1.1266385
401909323,401889169,3997706,186.55304,51.85,99104.25,1.1269839
401959575,401941911,3997706,186.44736,51.85,99105.5,1.126998
402019946,401997214,3997706,186.13028,51.85,99109.25,1.1270406
402070140,402049978,3997706,186.5319,51.85,99104.5,1.1269866
402120528,402102777,3997706,186.40508,51.85,99106.0,1.1270037
402180874,402158111,3997706,186.42621,51.85,99105.75,1.1270009
402232104,402211831,3997706,186.21483,51.85,99108.25,1.1270293
402282263,402264605,3997706,186.38394,51.85,99106.25,1.1270065
402342612,402319907,3997706,186.1699,51.85,99108.75,1.1266755
402392935,402372703,3997706,186.32051,51.85,99107.0,1.1266556
402443182,402425502,3997706,186.27824,51.84,99107.49,1.1270207
402503570,402480803,3997706,186.1699,51.84,99108.75,1.1266755
402555089,402534420,3997706,186.02194,51.85,99110.5,1.1266954
402605301,402587572,3997706,186.36281,51.85,99106.5,1.12665
402665667,402642926,3997706,186.1699,51.84,99108.75,1.1266755
402715863,402695700,3997706,186.23596,51.84,99108.0,1.126667
402766157,402748459,3997706,186.36281,51.84,99106.5,1.12665
402827458,402804246,3997706,186.27824,51.84,99107.49,1.1270207
402877816,402857556,3997706,186.25711,51.84,99107.74,1.1270235
402928008,402910347,3997706,186.13028,51.84,99109.25,1.1270406
402988374,402965619,3997706,186.08536,51.84,99109.75,1.1270463
403038771,403018492,3997706,186.40508,51.829998,99106.0,1.1270037
403088968,403071320,3997706,186.19106,51.829998,99108.5,1.1270322
403150237,403127290,3997706,186.04573,51.84,99110.24,1.127052
403200543,403180333,3997706,186.02194,51.829998,99110.49,1.1270548
403250763,403233112,3997706,185.97968,51.84,99111.0,1.1270605
403311081,403288375,3997706,186.19106,51.829998,99108.5,1.1270322
403361353,403341179,3997706,186.06421,51.829998,99110.0,1.1270492
403411624,403393963,3997706,185.83168,51.829998,99112.74,1.1270804
403472916,403449450,3997706,186.27824,51.829998,99107.5,1.1270208
403523361,403503115,3997706,186.38394,51.829998,99106.25,1.1270065
403573638,403555959,3997706,186.04308,51.829998,99110.25,1.127052
403633953,403611242,3997706,185.97968,51.829998,99111.0,1.1270605
403684288,403664010,3997706,186.1699,51.82,99108.74,1.1270349
403734606,403716827,3997706,185.93738,51.829998,99111.51,1.1270664
403795977,403773161,3997706,186.21483,51.82,99108.24,1.1266698
403846257,403826079,3997706,186.04573,51.82,99110.24,1.1266925
403896623,403878901,3997706,186.13028,51.82,99109.25,1.1266812
403956964,403934245,3997706,186.04308,51.809998,99110.25,1.1266925
404007212,403987024,3997706,186.4685,51.82,99105.25,1.1269952
404058520,404040559,3997706,186.25446,51.82,99107.75,1.1270236
404118962,404096151,3997706,186.00343,51.82,99110.74,1.1266983
404169167,404148994,3997706,186.13028,51.82,99109.25,1.1266812
404219441,404201770,3997706,186.2994,51.82,99107.24,1.1270179
404279868,404257097,3997706,186.21483,51.809998,99108.25,1.1270293
404330085,404309883,3997706,186.06421,51.809998,99110.0,1.1270492
404381241,404363583,3997706,186.08536,51.82,99109.75,1.1270463
404441583,404418874,3997706,185.81056,51.809998,99112.99,1.1270832
404491833,404471665,3997706,185.97968,51.809998,99111.0,1.1270605
404542120,404524460,3997706,185.74713,51.809998,99113.74,1.1270918
404602447,404579742,3997706,186.00343,51.809998,99110.74,1.1266983
404652695,404632537,3997706,185.96117,51.809998,99111.24,1.1267039
404703946,404685761,3997706,186.19106,51.8,99108.5,1.1270322
404764283,404741599,3997706,185.70486,51.809998,99114.24,1.1270975
404814750,404794420,3997706,186.21483,51.8,99108.25,1.1270293
404864920,404847264,3997706,185.91624,51.809998,99111.74,1.127069
404925301,404902546,3997706,186.13028,51.8,99109.25,1.1266812
404975474,404955289,3997706,185.97968,51.8,99111.0,1.1270605
405026734,405008795,3997706,185.5569,51.8,99116.0,1.1271175
405087089,405064339,3997706,186.2994,51.789997,99107.25,1.127018
405137408,405117186,3997706,185.83168,51.8,99112.76,1.1270806
405187613,405169953,3997706,186.088,51.8,99109.74,1.1266868
405247931,405225208,3997706,186.13028,51.8,99109.25,1.1266812
405298167,405277993,3997706,185.74713,51.8,99113.74,1.1270918
405349568,405331005,3997706,185.91624,51.8,99111.76,1.1270691
405409832,405387112,3997706,185.726,51.789997,99113.99,1.1270946
405460083,405439918,3997706,186.02194,51.789997,99110.5,1.1270549
405510431,405492713,3997706,186.04308,51.789997,99110.25,1.127052
405570834,405548127,3997706,186.10649,51.789997,99109.5,1.1266841
405621123,405600913,3997706,185.91624,51.789997,99111.74,1.1267096
405672267,405654374,3997706,186.06421,51.789997,99110.0,1.1266898
405732552,405709860,3997706,185.91624,51.78,99111.75,1.1267097
405782871,405762667,3997706,186.04308,51.789997,99110.25,1.127052
405833135,405815470,3997706,186.06685,51.78,99109.99,1.1270491
405893453,405870742,3997706,185.8951,51.789997,99112.0,1.127072
405943862,405923590,3997706,186.21483,51.78,99108.24,1.1270292
405995243,405977232,3997706,185.85283,51.78,99112.5,1.1267182
406055528,406032811,3997706,185.76828,51.78,99113.49,1.1267294
406105779,406085611,3997706,185.97968,51.78,99111.0,1.1267011
406156083,406138385,3997706,185.93738,51.78,99111.5,1.1267068
406216391,406193693,3997706,186.06421,51.78,99110.0,1.1266898
406267715,406246724,3997706,185.726,51.78,99113.99,1.1270946
406317968,406300262,3997706,185.93738,51.77,99111.5,1.1270663
406378223,406355549,3997706,186.10649,51.78,99109.5,1.1266841
406428540,406408335,3997706,185.726,51.78,99113.99,1.1267352
406478769,406461119,3997706,185.91624,51.77,99111.74,1.127069
406539040,406516365,3997706,185.6203,51.77,99115.25,1.1271089
406589456,406569164,3997706,185.95853,51.78,99111.26,1.1270635
406640595,406622687,3997706,186.0008,51.77,99110.75,1.1270577
406700917,406678213,3997706,185.95853,51.77,99111.25,1.126704
406751231,406731002,3997706,185.81056,51.77,99113.0,1.1270833
406801413,406783756,3997706,186.02194,51.77,99110.5,1.1270549
406861740,406839046,3997706,185.95853,51.76,99111.26,1.126704
406911979,406891816,3997706,185.74713,51.76,99113.74,1.1267323
406962245,406944557,3997706,186.02194,51.76,99110.5,1.1270549
407023522,407000776,3997706,185.95853,51.77,99111.26,1.1270635
407073798,407053580,3997706,186.06421,51.76,99110.0,1.1270492
407124019,407106344,3997706,185.8951,51.76,99112.0,1.127072
407184345,407161659,3997706,185.87398,51.76,99112.25,1.1270748
407234666,407214444,3997706,185.85283,51.76,99112.5,1.1270776
407285075,407267248,3997706,185.70486,51.76,99114.24,1.1270975
407346407,407323672,3997706,185.83168,51.76,99112.74,1.1267209
407446947,407429271,3997706,186.02194,51.75,99110.5,1.1270549
407507345,407484599,3997706,185.74713,51.76,99113.74,1.1270918
407557696,407537427,3997706,186.0008,51.75,99110.75,1.1266983
407608980,407591038,3997706,186.04308,51.75,99110.25,1.1266925
407719572,407699374,3997706,185.85283,51.75,99112.5,1.1270776
407769860,407752168,3997706,185.5569,51.75,99116.0,1.126758
407830140,407807468,3997706,185.81056,51.75,99113.0,1.1267239
407880488,407860231,3997706,185.91624,51.739998,99111.74,1.127069
407931614,407913727,3997706,185.47234,51.75,99117.0,1.1267693
407991944,407969226,3997706,185.70486,51.739998,99114.24,1.126738
408042209,408022008,3997706,185.66258,51.739998,99114.75,1.1271032
408092522,408074816,3997706,185.47234,51.739998,99117.0,1.1271288
408152784,408130117,3997706,185.81056,51.739998,99113.0,1.1267239
408203078,408182862,3997706,185.64145,51.739998,99115.0,1.1267467
408254342,408235903,3997706,185.21867,51.739998,99119.99,1.1271628
408314706,408291933,3997706,185.74713,51.739998,99113.74,1.1270918
408364930,408344740,3997706,185.66258,51.739998,99114.75,1.1271032
408415179,408397512,3997706,185.4512,51.73,99117.24,1.1271315
408475587,408452835,3997706,185.74713,51.739998,99113.74,1.1270918
408525843,408505665,3997706,185.74713,51.73,99113.75,1.1270919
408577335,408558946,3997706,185.74713,51.73,99113.75,1.1270919
408637533,408614831,3997706,185.4512,51.73,99117.25,1.1271316
408687846,408667669,3997706,185.70486,51.73,99114.24,1.1270975
408738084,408720431,3997706,185.43005,51.73,99117.49,1.1267749
408798404,408775692,3997706,185.83168,51.73,99112.74,1.1267209
408899899,408882004,3997706,185.1764,51.73,99120.49,1.1271685
408960247,408937509,3997706,185.70486,51.73,99114.24,1.1270975
409010456,408990282,3997706,185.6203,51.73,99115.25,1.1271089
409060692,409043046,3997706,185.5146,51.719997,99116.5,1.1271231
409121180,409098339,3997706,185.13412,51.73,99121.0,1.1271743
409171289,409151120,3997706,185.26094,51.719997,99119.49,1.1271571
409222665,409204129,3997706,185.93738,51.73,99111.5,1.1267068
409282910,409260242,3997706,185.43005,51.719997,99117.49,1.1267749
409333246,409312987,3997706,185.6203,51.719997,99115.25,1.1271089
409383448,409365767,3997706,185.4512,51.719997,99117.25,1.1271316
409443901,409421186,3997706,185.21867,51.719997,99119.99,1.1271628
409494191,409474026,3997706,185.74713,51.719997,99113.74,1.1270918
409545552,409527572,3997706,185.59917,51.71,99115.5,1.1271118
409605894,409583153,3997706,185.57802,51.71,99115.75,1.1271145
409656165,409635979,3997706,185.6203,51.71,99115.25,1.1271089
409706400,409688740,3997706,185.32437,51.71,99118.75,1.1267892
409766864,409744085,3997706,185.5569,51.719997,99116.0,1.126758
409818262,409797136,3997706,185.4089,51.71,99117.74,1.1271373
409868314,409850633,3997706,185.4512,51.71,99117.24,1.1271315
409928665,409905981,3997706,185.53575,51.71,99116.25,1.1271203
409978961,409958753,3997706,185.38779,51.71,99117.99,1.12714
410029195,410011487,3997706,185.70486,51.699997,99114.24,1.1270975
410089471,410066790,3997706,185.1764,51.71,99120.49,1.1271685
410139814,410119592,3997706,185.08919,51.71,99121.5,1.1268204
410191121,410173365,3997706,185.5146,51.699997,99116.49,1.1267636
410301603,410281377,3997706,185.47234,51.699997,99117.0,1.1267693
410351825,410334173,3997706,185.5569,51.699997,99116.0,1.126758
410412104,410389430,3997706,185.23982,51.71,99119.75,1.1271601
410462443,410442193,3997706,185.57802,51.699997,99115.75,1.1271145
410513658,410495477,3997706,185.43005,51.699997,99117.49,1.1267749
410574031,410551233,3997706,185.19753,51.699997,99120.25,1.1268063
410624330,410604117,3997706,185.59917,51.699997,99115.5,1.1271118
410674680,410656956,3997706,185.21867,51.699997,99119.99,1.1271628
410735055,410712307,3997706,185.23982,51.69,99119.74,1.12716
410786392,410765419,3997706,185.04692,51.699997,99122.0,1.1271856
410836627,410818953,3997706,185.30322,51.699997,99118.99,1.126792
410896867,410874199,3997706,184.94122,51.69,99123.25,1.1271999
410947105,410926939,3997706,185.57802,51.69,99115.75,1.1271145
410997438,410979709,3997706,185.49348,51.69,99116.75,1.127126
411057667,411034992,3997706,185.5146,51.699997,99116.49,1.127123
411107939,411087751,3997706,185.28209,51.69,99119.24,1.1267948
411159237,411141046,3997706,185.32437,51.69,99118.74,1.1267892
411219528,411196814,3997706,185.59917,51.69,99115.5,1.1271118
411269818,411249631,3997706,185.36664,51.69,99118.25,1.127143
411320093,411302425,3997706,185.4089,51.69,99117.75,1.1267778
411380365,411357690,3997706,185.1764,51.69,99120.49,1.126809
411430662,411410467,3997706,185.26094,51.68,99119.49,1.1271571
411480910,411463228,3997706,185.08919,51.68,99121.5,1.1268204
411542190,411519475,3997706,185.26094,51.68,99119.49,1.1267977
411592430,411572252,3997706,185.30322,51.69,99118.99,1.1271515
411642656,411625001,3997706,185.19753,51.69,99120.24,1.1271657
411703015,411680243,3997706,185.19753,51.68,99120.25,1.1268063
411753209,411733027,3997706,185.21867,51.68,99119.99,1.1268033
411803476,411785798,3997706,185.38779,51.68,99117.99,1.1267806
411864795,411841314,3997706,185.6203,51.68,99115.25,1.1267494
411915104,411894893,3997706,185.38779,51.68,99118.0,1.1271402
411965371,411947671,3997706,185.47234,51.68,99117.0,1.1271288
412025688,412003006,3997706,185.08919,51.68,99121.5,1.12718
412076018,412055797,3997706,185.32437,51.68,99118.74,1.1271486
412187606,412164928,3997706,185.28209,51.68,99119.24,1.1267948
412237895,412217692,3997706,185.21867,51.67,99119.99,1.1268033
412288138,412270465,3997706,185.3455,51.67,99118.49,1.1271458
412348451,412325757,3997706,185.06807,51.67,99121.75,1.1271828
412398773,412378582,3997706,185.19753,51.67,99120.24,1.1271657
412449058,412431373,3997706,185.23982,51.67,99119.74,1.12716
412510417,412487168,3997706,185.26094,51.67,99119.5,1.1271572
412560690,412540517,3997706,185.32437,51.68,99118.74,1.1271486
412611002,412593283,3997706,184.94122,51.67,99123.25,1.1271999
412671255,412648578,3997706,185.43005,51.67,99117.5,1.1271346
412721581,412701333,3997706,185.4512,51.67,99117.25,1.1271316
412771753,412754107,3997706,185.00464,51.67,99122.5,1.1271914
412833105,412809876,3997706,185.32437,51.67,99118.74,1.1271486
412883316,412863151,3997706,185.19753,51.67,99120.24,1.1268063
412933722,412915954,3997706,185.26094,51.67,99119.49,1.1267977
412993942,412971256,3997706,185.32437,51.67,99118.75,1.1271487
413044198,413024034,3997706,185.19753,51.67,99120.24,1.1271657
413094520,413076839,3997706,185.1764,51.67,99120.49,1.126809
413155853,413132377,3997706,185.3455,51.67,99118.5,1.1267864
413256327,413238672,3997706,184.85667,51.67,99124.25,1.1272112
413367000,413346820,3997706,184.73248,51.67,99125.74,1.1268687
413417298,413399624,3997706,185.06807,51.66,99121.75,1.1268233
413478640,413455410,3997706,185.02579,51.66,99122.25,1.1271884
413528852,413508699,3997706,185.1764,51.66,99120.49,1.1271685
413579202,413561466,3997706,185.1764,51.66,99120.49,1.126809
413639442,413616759,3997706,185.13412,51.66,99121.0,1.1268147
413689709,413669548,3997706,185.23982,51.649998,99119.74,1.12716
413740064,413722296,3997706,185.13412,51.66,99121.0,1.1271743
413801355,413777854,3997706,185.26094,51.66,99119.49,1.1267977
413851593,413831341,3997706,185.26094,51.66,99119.49,1.1267977
413901805,413884143,3997706,184.85667,51.66,99124.25,1.1268517
413962060,413939395,3997706,185.23982,51.66,99119.74,1.12716
414012333,413992166,3997706,185.1764,51.66,99120.49,1.1271685
414062635,414044960,3997706,185.21867,51.66,99119.99,1.1268033
414122947,414100264,3997706,184.83554,51.66,99124.49,1.1268545
414174295,414153548,3997706,185.21867,51.649998,99119.99,1.1271628
414224527,414206871,3997706,185.02579,51.649998,99122.25,1.1271884
414335120,414314954,3997706,185.02579,51.649998,99122.25,1.126829
414385401,414367721,3997706,185.30322,51.649998,99118.99,1.1271515
414445786,414423026,3997706,184.9835,51.649998,99122.75,1.1271942
414497027,414476537,3997706,185.15526,51.649998,99120.74,1.1271714
414547302,414529593,3997706,185.11298,51.649998,99121.25,1.1268177
414607686,414584979,3997706,185.36664,51.649998,99118.25,1.1267835
414657960,414637778,3997706,185.06807,51.649998,99121.75,1.1268233
414708295,414690588,3997706,185.3455,51.649998,99118.5,1.1267864
414769632,414746112,3997706,185.47234,51.64,99117.0,1.1267693
414819869,414799659,3997706,184.8778,51.649998,99124.0,1.1268489
414870086,414852428,3997706,184.96501,51.649998,99123.0,1.1268376
414930415,414907701,3997706,185.3455,51.649998,99118.5,1.1267864
414980680,414960510,3997706,185.04692,51.649998,99122.0,1.1268262
415030917,415013269,3997706,184.8778,51.649998,99124.0,1.1268489
415091220,415068549,3997706,184.9201,51.64,99123.5,1.1268432
415142514,415121811,3997706,185.11298,51.649998,99121.25,1.1268177
415192799,415175114,3997706,184.9835,51.649998,99122.75,1.1268346
415253152,415230441,3997706,185.04692,51.64,99122.0,1.1268262
415303400,415283223,3997706,185.11298,51.64,99121.25,1.1268177
415353842,415335985,3997706,185.06807,51.64,99121.75,1.1268233
415414115,415391314,3997706,185.13412,51.64,99121.0,1.1268147
415465418,415444886,3997706,184.94122,51.64,99123.25,1.1268404
415515650,415497962,3997706,185.21867,51.64,99119.99,1.1268033
415575963,415553266,3997706,184.72984,51.64,99125.75,1.1268687
415626246,415606057,3997706,185.00464,51.64,99122.5,1.1268319
415676516,415658863,3997706,184.96501,51.64,99123.0,1.1268376
415736853,415714114,3997706,185.30322,51.64,99118.99,1.126792
415788105,415767395,3997706,184.89896,51.64,99123.75,1.1268461
415838391,415820707,3997706,184.9835,51.64,99122.75,1.1268346
415898803,415876071,3997706,185.06807,51.64,99121.75,1.1268233
415949019,415928827,3997706,185.02579,51.64,99122.25,1.126829
415999281,415981617,3997706,184.9201,51.629997,99123.5,1.1268432
416059634,416036905,3997706,185.32437,51.629997,99118.74,1.1267892
416110990,416090666,3997706,185.13412,51.64,99121.0,1.1268147
416161344,416143498,3997706,184.9835,51.629997,99122.75,1.1268346
416221617,416198901,3997706,185.30322,51.629997,99118.99,1.1271515
416271881,416251697,3997706,185.06807,51.629997,99121.75,1.1271828
416322202,416304529,3997706,185.38779,51.629997,99117.99,1.1267806
416383659,416360315,3997706,184.98615,51.64,99122.74,1.1268346
416433836,416413661,3997706,184.96501,51.64,99123.0,1.127197
416484076,416466421,3997706,184.96501,51.629997,99123.0,1.127197
416594779,416574560,3997706,185.38779,51.629997,99117.99,1.1267806
416645105,416627339,3997706,184.9835,51.629997,99122.75,1.1268346
416706421,416683353,3997706,185.06807,51.629997,99121.75,1.1268233
416756710,416736441,3997706,185.08919,51.629997,99121.5,1.1268204
416806901,416789255,3997706,184.9835,51.629997,99122.75,1.1268346
416867243,416844500,3997706,184.8778,51.629997,99123.99,1.1268488
416967846,416950110,3997706,185.1764,51.629997,99120.49,1.126809
417029157,417006418,3997706,185.11298,51.629997,99121.25,1.1268177
417190003,417167304,3997706,185.32437,51.629997,99118.74,1.12643
417240237,417220070,3997706,185.08919,51.629997,99121.5,1.12718
417290522,417272836,3997706,184.96501,51.629997,99123.0,1.127197
417351806,417328879,3997706,185.00464,51.629997,99122.5,1.1268319
417402038,417381876,3997706,185.04692,51.629997,99122.0,1.1268262
417452367,417434650,3997706,184.96501,51.629997,99123.0,1.1268376
417512722,417490003,3997706,184.96501,51.629997,99123.0,1.1268376
417563055,417542804,3997706,185.02579,51.629997,99122.25,1.126829
417613301,417595634,3997706,184.85667,51.629997,99124.25,1.1268517
417674691,417651658,3997706,184.9835,51.629997,99122.75,1.1268346
417775286,417757619,3997706,185.11298,51.629997,99121.25,1.1268177
417835592,417812890,3997706,185.08919,51.629997,99121.5,1.1264613
417885836,417865661,3997706,185.3455,51.629997,99118.49,1.1264272
417936066,417918412,3997706,184.8778,51.62,99124.0,1.1268489
417997333,417974390,3997706,185.15526,51.629997,99120.74,1.1271714
418047608,418027425,3997706,184.9201,51.629997,99123.5,1.1272027
418097923,418080224,3997706,185.00464,51.629997,99122.5,1.1271914
418158208,418135536,3997706,184.62415,51.629997,99126.99,1.1268829
418208487,418188278,3997706,185.08919,51.62,99121.5,1.1268204
418258789,418241068,3997706,185.08919,51.629997,99121.5,1.1268204
418320096,418296606,3997706,184.9201,51.62,99123.5,1.1268432
418370370,418350130,3997706,185.15526,51.629997,99120.74,1.1268119
418420659,418402992,3997706,185.02579,51.629997,99122.25,1.126829
418480976,418458298,3997706,185.00464,51.629997,99122.5,1.1268319
418531308,418511091,3997706,185.13412,51.629997,99121.0,1.1268147
418581693,418563911,3997706,184.94122,51.62,99123.25,1.1268404
418642869,418620185,3997706,184.8144,51.629997,99124.75,1.1268574
418693154,418672970,3997706,184.79326,51.629997,99125.0,1.1268603
418743397,418725732,3997706,185.00464,51.62,99122.5,1.1268319
418803762,418781055,3997706,184.96501,51.629997,99123.0,1.1268376
418854028,418833851,3997706,184.89896,51.629997,99123.75,1.1268461
418904284,418886629,3997706,184.8144,51.629997,99124.75,1.1268574
418965622,418942423,3997706,184.70871,51.629997,99126.0,1.1268716
419015888,418995710,3997706,184.89896,51.629997,99123.75,1.1268461
419066148,419048481,3997706,184.94122,51.62,99123.25,1.1268404
419126610,419103804,3997706,184.68756,51.629997,99126.25,1.1268746
419176836,419156604,3997706,184.85667,51.62,99124.25,1.1268517
419227069,419209399,3997706,185.06807,51.629997,99121.75,1.1264641
419288528,419265199,3997706,184.94122,51.62,99123.25,1.1268404
419338752,419318578,3997706,184.6453,51.629997,99126.75,1.1268802
419389088,419371328,3997706,184.77211,51.629997,99125.25,1.1268631
419449328,419426584,3997706,184.62415,51.629997,99127.0,1.126883
419499569,419479390,3997706,184.72984,51.629997,99125.75,1.1268687
419549816,419532151,3997706,184.34935,51.629997,99130.25,1.12692
419611159,419587929,3997706,185.02579,51.62,99122.25,1.126829
419661420,419641229,3997706,184.85667,51.629997,99124.25,1.1268517
419711723,419694024,3997706,184.70871,51.629997,99126.0,1.1268716
419772074,419749381,3997706,184.79326,51.62,99125.0,1.1268603
419822396,419802190,3997706,184.66643,51.62,99126.5,1.1265181
419873738,419855281,3997706,184.47618,51.629997,99128.75,1.1265438
419934070,419911344,3997706,184.85667,51.62,99124.25,1.1268517
419984409,419964147,3997706,185.00464,51.62,99122.5,1.1264727
420034579,420016920,3997706,184.9835,51.62,99122.75,1.1264756
420094930,420072201,3997706,185.06807,51.629997,99121.75,1.1268233
420145182,420124991,3997706,184.6453,51.62,99126.75,1.1268802
420195550,420177806,3997706,184.79326,51.62,99125.0,1.1268603
420256774,420234098,3997706,185.00464,51.62,99122.5,1.1268319
420307036,420286843,3997706,184.72984,51.62,99125.75,1.1265095
420357233,420339582,3997706,184.79326,51.62,99125.0,1.1265011
420417647,420394907,3997706,184.6453,51.62,99126.74,1.12688
420467874,420447716,3997706,184.79326,51.62,99125.0,1.1268603
420518179,420500480,3997706,184.94122,51.62,99123.25,1.1264812
420579400,420556466,3997706,184.66643,51.62,99126.49,1.1268772
420629714,420609492,3997706,184.8144,51.62,99124.75,1.1268574
420679973,420662291,3997706,184.68756,51.62,99126.25,1.1265154
420740267,420717588,3997706,184.60303,51.62,99127.25,1.1265267
420790622,420770376,3997706,184.60303,51.62,99127.25,1.1265267
420840848,420823187,3997706,184.43391,51.62,99129.25,1.1265494
420902214,420878685,3997706,184.79326,51.62,99125.0,1.1268603
420952368,420932170,3997706,184.49733,51.62,99128.5,1.1269001
421002715,420984991,3997706,184.70871,51.62,99126.0,1.1265125
421063064,421040302,3997706,184.68756,51.62,99126.25,1.1268746
421113354,421093142,3997706,184.75099,51.62,99125.5,1.126866
421163688,421146006,3997706,184.66643,51.61,99126.5,1.1265181
421225065,421202065,3997706,185.04692,51.62,99122.0,1.126467
421275282,421255122,3997706,184.77211,51.62,99125.25,1.1268631
421325636,421307915,3997706,184.83554,51.62,99124.5,1.1268547
421385932,421363242,3997706,184.56073,51.62,99127.75,1.1268916
421436165,421416003,3997706,184.8144,51.62,99124.75,1.1268574
421547885,421524803,3997706,184.83554,51.62,99124.5,1.1268547
421598062,421577891,3997706,184.83554,51.61,99124.5,1.1268547
421648329,421630654,3997706,184.70871,51.62,99126.0,1.1268716
421708710,421685996,3997706,184.77211,51.62,99125.25,1.126504
421758973,421738814,3997706,184.60303,51.62,99127.25,1.1268859
421809312,421791570,3997706,184.51846,51.61,99128.25,1.1268972
421870560,421847555,3997706,184.77211,51.61,99125.25,1.126504
421920784,421900601,3997706,184.83554,51.61,99124.5,1.1264955
421971106,421953368,3997706,184.70871,51.62,99126.0,1.1265125
422031356,422008689,3997706,184.8144,51.61,99124.75,1.1264982
422081617,422061442,3997706,184.77211,51.61,99125.25,1.1268631
422131853,422114197,3997706,184.89896,51.61,99123.75,1.1268461
422193304,422170031,3997706,184.85667,51.62,99124.25,1.1264926
422243649,422223411,3997706,184.85667,51.62,99124.25,1.1268517
422293944,422276260,3997706,184.8778,51.61,99124.0,1.1268489
422354346,422331566,3997706,184.51846,51.61,99128.25,1.1268972
422404703,422384436,3997706,184.68756,51.62,99126.25,1.1268746
422455853,422437437,3997706,184.66643,51.61,99126.5,1.1268773
422516177,422493452,3997706,184.60303,51.61,99127.25,1.1268859
422566431,422546210,3997706,184.85667,51.61,99124.25,1.1264926
422616742,422598997,3997706,184.8778,51.61,99124.0,1.1264898
422677012,422654327,3997706,184.8778,51.61,99124.0,1.1268489
422727267,422707098,3997706,185.02579,51.61,99122.25,1.126829
422777631,422759860,3997706,185.08919,51.61,99121.5,1.1264613
422838896,422815950,3997706,185.06807,51.61,99121.75,1.1268233
422889194,422868975,3997706,184.8144,51.61,99124.75,1.1268574
422939416,422921750,3997706,184.6453,51.61,99126.75,1.126521
422999750,422977058,3997706,184.96501,51.61,99123.0,1.1264784
423050058,423029846,3997706,185.06807,51.61,99121.75,1.1268233
423100277,423082620,3997706,184.60303,51.61,99127.25,1.1268859
423161807,423138701,3997706,184.70871,51.61,99125.99,1.1268716
423212059,423191846,3997706,184.68756,51.61,99126.25,1.1268746
423262232,423244583,3997706,184.79326,51.61,99125.0,1.1265011
423322585,423299905,3997706,184.56073,51.61,99127.75,1.1265324
423372906,423352696,3997706,184.89896,51.61,99123.75,1.1264869
423423154,423405454,3997706,185.02579,51.6,99122.25,1.1264699
423484440,423461655,3997706,185.00464,51.61,99122.5,1.1264727
423534650,423514445,3997706,184.77211,51.61,99125.25,1.1268631
423584947,423567261,3997706,184.75099,51.6,99125.5,1.126866
423645218,423622546,3997706,185.15526,51.61,99120.74,1.1268119
423695528,423675309,3997706,184.79326,51.61,99125.0,1.1268603
423745874,423728143,3997706,184.8778,51.61,99124.0,1.1264898
423807245,423784413,3997706,184.79326,51.61,99124.99,1.1265011
423857450,423837237,3997706,184.70871,51.61,99126.0,1.1268716
423907723,423890067,3997706,184.8144,51.61,99124.75,1.1268574
423967984,423945318,3997706,184.75099,51.61,99125.5,1.1265068
424018304,423998094,3997706,184.72984,51.61,99125.75,1.1268687
424068637,424050910,3997706,184.6453,51.61,99126.74,1.12688
424130039,424107303,3997706,184.77211,51.61,99125.25,1.126504
424180455,424160130,3997706,184.43391,51.61,99129.25,1.1265494
424230652,424212965,3997706,184.32822,51.61,99130.5,1.1265637
424290922,424268252,3997706,184.18025,51.6,99132.25,1.1265835
424341292,424321044,3997706,184.2648,51.6,99131.25,1.1265721
424392456,424374306,3997706,184.45503,51.6,99129.0,1.1265465
424452884,424430162,3997706,184.39163,51.61,99129.75,1.1269143
424503208,424483006,3997706,184.24365,51.6,99131.49,1.126934
424553440,424535782,3997706,184.09569,51.61,99133.25,1.126954
424613826,424591052,3997706,184.09569,51.61,99133.24,1.1265948
424664029,424643851,3997706,184.20137,51.6,99132.0,1.1265807
424715284,424697070,3997706,184.0534,51.61,99133.75,1.1266006
424775640,424752931,3997706,184.07191,51.61,99133.5,1.1265978
424825958,424805734,3997706,184.03227,51.6,99134.0,1.1266034
424876202,424858515,3997706,183.9028,51.6,99135.5,1.1266204
424936473,424913795,3997706,183.73369,51.6,99137.5,1.1270025
424986730,424966547,3997706,183.50116,51.6,99140.25,1.1270336
425038013,425019543,3997706,183.56458,51.6,99139.49,1.1266658
425098215,425075549,3997706,183.26865,51.6,99142.99,1.1267055
425148574,425128322,3997706,183.4589,51.59,99140.75,1.1270393
425198824,425181169,3997706,183.26865,51.6,99142.99,1.1270648
425259097,425236429,3997706,183.54346,51.6,99139.75,1.1270279
425309405,425289179,3997706,183.4589,51.59,99140.75,1.12668
425359724,425341974,3997706,183.60686,51.6,99138.99,1.1266601
425421063,425398270,3997706,183.39546,51.6,99141.49,1.1270478
425471304,425451132,3997706,183.22638,51.6,99143.5,1.1270705
425521572,425503903,3997706,183.20523,51.59,99143.74,1.1270733
425581998,425559203,3997706,183.20523,51.59,99143.74,1.1270733
425632175,425612003,3997706,183.16295,51.59,99144.25,1.1270791
425682483,425664775,3997706,183.03612,51.579998,99145.74,1.127096
425743801,425721066,3997706,183.16295,51.59,99144.24,1.127079
425794061,425773845,3997706,182.95157,51.579998,99146.75,1.1271075
425904603,425881911,3997706,182.6107,51.579998,99150.75,1.127153
425954884,425934697,3997706,182.95157,51.57,99146.75,1.1271075
426005228,425987474,3997706,182.9727,51.559998,99146.5,1.1267455
426066653,426043812,3997706,182.505,51.57,99152.0,1.126808
426116875,426096656,3997706,182.7613,51.559998,99149.0,1.1267738
426167114,426149455,3997706,182.505,51.57,99152.0,1.126808
426227516,426204754,3997706,182.95157,51.559998,99146.75,1.1267482
426277972,426257659,3997706,182.505,51.559998,99151.99,1.1268079
426329140,426311219,3997706,182.12451,51.55,99156.5,1.1268591
426389449,426366746,3997706,181.63832,51.55,99162.24,1.1272836
426439837,426419549,3997706,182.01881,51.55,99157.75,1.1272326
426489988,426472320,3997706,181.44809,51.55,99164.5,1.1273093
426550260,426527594,3997706,181.38202,51.539997,99165.25,1.1273179
426600595,426580389,3997706,181.33975,51.539997,99165.75,1.1273235
426651896,426633654,3997706,181.44809,51.53,99164.5,1.1273093
426712089,426689409,3997706,180.79015,51.53,99172.25,1.1270381
426762373,426742177,3997706,181.02531,51.52,99169.49,1.1270068
426812645,426794986,3997706,180.62105,51.52,99174.25,1.1270608
426872968,426850298,3997706,180.68445,51.51,99173.5,1.1270523
426923240,426903062,3997706,179.98422,51.51,99181.74,1.127146
426974537,426956086,3997706,180.15598,51.5,99179.75,1.1271234
427034842,427012148,3997706,179.87854,51.5,99183.0,1.1275196
427085134,427064946,3997706,179.98422,51.489998,99181.75,1.127146
427135370,427117714,3997706,180.21677,51.489998,99179.0,1.1271148
427195773,427173037,3997706,180.47307,51.469997,99176.0,1.1274401
427245987,427225799,3997706,180.07144,51.469997,99180.74,1.127494
427296252,427278548,3997706,179.77284,51.469997,99184.25,1.1275338
427357408,427334489,3997706,179.90233,51.46,99182.74,1.1275166
427407667,427387491,3997706,179.6883,51.449997,99185.25,1.1271858
427457990,427440260,3997706,179.92348,51.449997,99182.49,1.1271545
427518309,427495615,3997706,179.13869,51.43,99191.75,1.1272596
427568636,427548427,3997706,179.4135,51.43,99188.5,1.1272228
427619043,427601311,3997706,179.32895,51.43,99189.5,1.1272342
427680423,427657613,3997706,179.3078,51.42,99189.75,1.1275964
427730612,427710424,3997706,178.8639,51.41,99194.99,1.1276559
427780871,427763211,3997706,179.26553,51.399998,99190.25,1.1272427
427841141,427818472,3997706,178.75821,51.399998,99196.25,1.1273109
427891439,427871234,3997706,178.63136,51.379997,99197.75,1.1273279
427941799,427924087,3997706,179.15984,51.37,99191.5,1.1272569
428003217,427980462,3997706,178.63136,51.37,99197.75,1.1276873
428053466,428033248,3997706,178.56795,51.36,99198.5,1.1276958
428103736,428086067,3997706,178.31165,51.35,99201.49,1.1273704
428164017,428141346,3997706,178.90617,51.34,99194.49,1.1272908
428214324,428194085,3997706,178.43849,51.34,99200.0,1.1273534
428264585,428246839,3997706,178.56795,51.329998,99198.5,1.1273364
428325809,428303105,3997706,179.26553,51.32,99190.25,1.127602
428376093,428355858,3997706,179.13869,51.309998,99191.75,1.1272596
428426403,428408668,3997706,179.28667,51.3,99190.0,1.1272398
428486607,428463925,3997706,179.56412,51.289997,99186.74,1.1275622
428536920,428516695,3997706,179.03299,51.28,99192.99,1.1276332
428587173,428569497,3997706,179.51918,51.28,99187.25,1.127568
428648512,428625513,3997706,179.49806,51.26,99187.49,1.1275706
428698762,428678598,3997706,180.0503,51.25,99180.99,1.1274968
428749004,428731346,3997706,179.8574,51.25,99183.25,1.1275225
428809445,428786706,3997706,179.77284,51.239998,99184.25,1.1271744
428910019,428892297,3997706,180.36737,51.21,99177.25,1.1270949
428971316,428948553,3997706,180.2194,51.199997,99178.99,1.1274741
429021513,429001322,3997706,181.02267,51.19,99169.5,1.1273662
429071815,429054127,3997706,181.06494,51.19,99169.0,1.1270012
429132101,429109422,3997706,180.91698,51.16,99170.74,1.127021
429182429,429162204,3997706,181.38202,51.16,99165.25,1.1273179
429232790,429215051,3997706,181.29747,51.16,99166.25,1.1273292
429294143,429271385,3997706,181.57492,51.14,99162.99,1.1272922
429344428,429324233,3997706,181.59605,51.129997,99162.75,1.1272894
429394784,429377074,3997706,181.93428,51.129997,99158.75,1.127244
429455139,429432416,3997706,182.0611,51.11,99157.24,1.1268675
429505406,429485229,3997706,183.16295,51.1,99144.25,1.1267198
429556674,429538767,3997706,182.82474,51.09,99148.25,1.1267654
429617077,429594357,3997706,183.07838,51.079998,99145.24,1.1267312
429667333,429647116,3997706,183.3532,51.07,99141.99,1.1266942
429717572,429699899,3997706,183.7971,51.059998,99136.76,1.1266347
429777855,429755182,3997706,184.11684,51.039997,99133.0,1.1269512
429828135,429807918,3997706,184.47618,51.05,99128.75,1.1269029
429879600,429860921,3997706,184.24365,51.039997,99131.5,1.126575
429939664,429916979,3997706,184.6453,51.02,99126.75,1.126521
429989956,429969762,3997706,184.89896,51.01,99123.75,1.1268461
430040302,430022553,3997706,185.13412,51.0,99121.0,1.1268147
430100630,430077859,3997706,186.13028,50.989998,99109.25,1.1266812
430150872,430130699,3997706,185.726,50.98,99113.99,1.1267352
430202033,430183916,3997706,185.83168,50.969997,99112.75,1.126721
430262424,430239656,3997706,185.93738,50.95,99111.5,1.1263477
430312671,430292498,3997706,186.51077,50.95,99104.75,1.126271
430363014,430345312,3997706,186.2994,50.95,99107.25,1.1262994
430473573,430453388,3997706,187.25063,50.92,99096.0,1.1261716
430525019,430506676,3997706,187.12378,50.91,99097.5,1.1261885
430635585,430615327,3997706,188.05653,50.89,99086.5,1.1260636
430685779,430668126,3997706,188.0988,50.879997,99086.0,1.126058
430746100,430723404,3997706,188.79903,50.87,99077.75,1.1259642
430847822,430829828,3997706,188.98926,50.85,99075.49,1.1259384
430908101,430885429,3997706,188.94699,50.84,99076.0,1.1259443
430958373,430938193,3997706,189.45695,50.829998,99069.99,1.1258761
431008744,430991031,3997706,189.8586,50.82,99065.25,1.1258221
431069024,431046342,3997706,189.83745,50.8,99065.5,1.1258249
431170729,431153024,3997706,189.83745,50.789997,99065.5,1.1258249
431231124,431208350,3997706,190.00656,50.77,99063.5,1.1258023
431281351,431261142,3997706,190.53766,50.76,99057.24,1.125731
431331583,431313912,3997706,190.85474,50.76,99053.5,1.1256886
431391940,431369182,3997706,191.11104,50.739998,99050.49,1.1256543
431443216,431422721,3997706,190.77019,50.73,99054.5,1.1256999
431493496,431475776,3997706,191.17445,50.719997,99049.75,1.1256459
431553760,431531085,3997706,191.59723,50.71,99044.74,1.125589
431604064,431583895,3997706,191.25902,50.7,99048.75,1.1256346
431654352,431636645,3997706,191.78749,50.7,99042.5,1.1255636
431714701,431691981,3997706,192.02,50.68,99039.75,1.1255323
431765916,431745683,3997706,191.76634,50.66,99042.74,1.1255662
431816118,431798470,3997706,191.95923,50.66,99040.49,1.1255407
431876437,431853747,3997706,191.93546,50.64,99040.75,1.1259025
431926779,431906550,3997706,192.59338,50.64,99032.99,1.1254555
431977021,431959360,3997706,192.78365,50.62,99030.74,1.12543
432037409,432014649,3997706,192.69907,50.61,99031.75,1.1254414
432088689,432068195,3997706,193.14563,50.6,99026.49,1.1253817
432138939,432121284,3997706,193.0373,50.59,99027.75,1.1253959
432249567,432229387,3997706,193.20905,50.57,99025.74,1.1253731
432299841,432282143,3997706,193.31474,50.559998,99024.5,1.1253589
432360141,432337398,3997706,194.0995,50.539997,99015.25,1.1252539
432411403,432390930,3997706,193.84586,50.53,99018.25,1.125288
432461707,432444035,3997706,193.6741,50.53,99020.25,1.1253107
432522028,432499329,3997706,194.28976,50.51,99013.0,1.1252283
432572440,432552130,3997706,194.24747,50.5,99013.5,1.125234
432622725,432605030,3997706,194.05724,50.5,99015.75,1.1252596
432684231,432661123,3997706,193.92775,50.48,99017.25,1.1252766
432734288,432714127,3997706,194.63062,50.469997,99009.0,1.1251829
432784540,432766878,3997706,194.56454,50.469997,99009.75,1.1251913
432844913,432822202,3997706,194.71518,50.45,99008.0,1.1251714
432895240,432875001,3997706,194.98996,50.44,99004.75,1.1251345
432945425,432927763,3997706,194.92656,50.43,99005.5,1.125143
433006775,432983563,3997706,195.05339,50.41,99004.0,1.125126
433057011,433036843,3997706,195.32819,50.41,99000.75,1.1250892
433107398,433089641,3997706,195.22249,50.399998,99002.0,1.1251032
433167703,433144989,3997706,194.77858,50.379997,99007.25,1.125163
433218039,433197810,3997706,195.3916,50.37,99000.0,1.1250806
433268318,433250619,3997706,195.37311,50.36,99000.25,1.1250834
433329671,433306961,3997706,195.7536,50.35,98995.74,1.1250322
433379895,433359737,3997706,195.81702,50.34,98994.99,1.1250237
433430122,433412470,3997706,195.7536,50.329998,98995.74,1.1253909
433490558,433467798,3997706,195.43388,50.309998,98999.5,1.1254336
433540777,433520605,3997706,195.54222,50.3,98998.25,1.1250607
433591073,433573356,3997706,195.81702,50.289997,98994.99,1.1253824
433652299,433629604,3997706,195.6479,50.28,98997.0,1.1254052
433702657,433682408,3997706,195.98613,50.27,98993.0,1.125001
433752998,433735218,3997706,195.81702,50.26,98995.0,1.1250237
433813285,433790596,3997706,196.41154,50.239998,98988.0,1.1249441
433863575,433843371,3997706,195.66905,50.23,98996.75,1.1250436
433975049,433952383,3997706,196.4961,50.21,98987.0,1.1249328
434075603,434057954,3997706,196.89774,50.19,98982.25,1.1248788
434135919,434113218,3997706,196.47496,50.17,98987.24,1.1252942
434186191,434165982,3997706,197.28085,50.17,98977.75,1.1248277
434236432,434218770,3997706,197.17516,50.149998,98979.0,1.1248419
434297765,434275052,3997706,196.83696,50.14,98982.99,1.1248872
434348025,434327857,3997706,197.302,50.129997,98977.5,1.1248249
434398294,434380614,3997706,197.15404,50.12,98979.25,1.1248448
434458701,434435952,3997706,197.66135,50.1,98973.25,1.1247766
434508942,434488772,3997706,197.4526,50.09,98975.74,1.1248049
434560336,434541847,3997706,197.23859,50.079998,98978.25,1.1248335
434620598,434597902,3997706,197.04834,50.059998,98980.49,1.1252176
434670882,434650670,3997706,197.57681,50.05,98974.25,1.1251465
434721162,434703448,3997706,197.38655,50.039997,98976.5,1.1248136
434781397,434758722,3997706,196.96114,50.02,98981.51,1.125229
434831647,434811481,3997706,197.51338,50.02,98975.0,1.1251551
434881952,434864236,3997706,198.00221,50.0,98969.24,1.1247311
434943169,434920240,3997706,197.95995,49.989998,98969.75,1.1247368
434993556,434973311,3997706,198.00221,49.969997,98969.25,1.1247311
435043820,435026149,3997706,198.08676,49.969997,98968.25,1.1247197
435104216,435081453,3997706,197.95995,49.94,98969.74,1.1247368
435154442,435134253,3997706,197.89653,49.93,98970.49,1.1247452
435205733,435187294,3997706,198.55447,49.93,98962.74,1.1246572
435266109,435243351,3997706,198.21361,49.91,98966.75,1.1247027
435316258,435296092,3997706,198.61787,49.89,98962.0,1.1246487
435366521,435348843,3997706,198.38536,49.89,98964.75,1.1246799
435426854,435404168,3997706,198.12904,49.86,98967.75,1.124714
435477160,435456935,3997706,198.59674,49.85,98962.25,1.1246516
435527443,435509722,3997706,198.17133,49.84,98967.25,1.1247084
435588789,435566081,3997706,198.0445,49.82,98968.75,1.1247253
435639053,435618871,3997706,198.53333,49.82,98963.0,1.12466
435689318,435671650,3997706,198.12904,49.8,98967.75,1.124714
435749699,435726940,3997706,197.98108,49.789997,98969.49,1.1247338
435799983,435779791,3997706,198.23473,49.77,98966.5,1.1247
435851256,435833334,3997706,198.55447,49.76,98962.75,1.1246573
435911653,435888933,3997706,198.25587,49.739998,98966.25,1.124697
435961927,435941749,3997706,198.12904,49.73,98967.75,1.124714
436012155,435994504,3997706,198.27966,49.719997,98965.99,1.1246941
436072550,436049818,3997706,197.6825,49.7,98973.0,1.1247736
436122868,436102638,3997706,197.53717,49.69,98974.74,1.1247935
436234294,436211629,3997706,197.66135,49.66,98973.25,1.1251352
436284710,436264384,3997706,197.74857,49.649998,98972.25,1.1251239
436335014,436317230,3997706,197.15404,49.64,98979.25,1.1252034
436395198,436372527,3997706,197.17516,49.62,98979.0,1.1252005
436445596,436425298,3997706,197.302,49.61,98977.5,1.1251835
436496790,436478884,3997706,197.57681,49.59,98974.25,1.1247879
436557113,436534386,3997706,197.13289,49.579998,98979.5,1.1248475
436607334,436587168,3997706,197.38655,49.57,98976.5,1.1248136
436657633,436639960,3997706,196.96378,49.559998,98981.5,1.1248703
436717979,436695238,3997706,197.34427,49.539997,98976.99,1.1251777
436768278,436748039,3997706,197.00343,49.53,98981.0,1.1252233
436819442,436801527,3997706,197.17516,49.51,98979.0,1.1252005
436879744,436857061,3997706,196.62292,49.5,98985.5,1.1249157
436930014,436909833,3997706,197.4077,49.489998,98976.25,1.1248106
436980274,436962614,3997706,197.57681,49.48,98974.25,1.1251465
437040652,437017938,3997706,197.36542,49.46,98976.74,1.1251749
437091012,437070753,3997706,197.74857,49.45,98972.25,1.1247652
437142199,437124260,3997706,197.38655,49.44,98976.49,1.1248134
437202601,437179813,3997706,197.70627,49.42,98972.75,1.1247709
437252815,437232600,3997706,197.81197,49.41,98971.5,1.1247567
437303088,437285382,3997706,198.49104,49.399998,98963.5,1.1246657
437363351,437340679,3997706,197.72478,49.379997,98972.5,1.124768
437413724,437393441,3997706,198.42763,49.37,98964.24,1.1246742
437464861,437446955,3997706,199.10406,49.36,98956.25,1.1245834
437525204,437502443,3997706,199.31808,49.34,98953.75,1.1245549
437575414,437555243,3997706,199.33923,49.34,98953.5,1.1249107
437625668,437608012,3997706,199.40265,49.329998,98952.75,1.1249021
437685975,437663268,3997706,200.44107,49.309998,98940.5,1.1244043
437736263,437716065,3997706,200.25084,49.3,98942.74,1.1244298
437787676,437769120,3997706,200.2931,49.289997,98942.25,1.1247828
437847919,437825247,3997706,200.95105,49.27,98934.5,1.1243361
437898173,437878009,3997706,200.76079,49.26,98936.75,1.1243618
437948501,437930777,3997706,201.52443,49.25,98927.75,1.1242595
438008793,437986118,3997706,202.07402,49.23,98921.25,1.1241856
438059103,438038865,3997706,201.71468,49.219997,98925.5,1.124234
438110276,438091838,3997706,202.60779,49.21,98915.0,1.1241146
438170519,438147824,3997706,202.62627,49.19,98914.75,1.1241118
438220865,438200612,3997706,202.62627,49.18,98914.75,1.1241118
438271091,438253392,3997706,202.79802,49.18,98912.74,1.1244473
438331429,438308715,3997706,202.69234,49.149998,98914.0,1.1244617
438433030,438415119,3997706,202.98827,49.14,98910.5,1.1240635
438493363,438470654,3997706,202.92487,49.12,98911.24,1.124072
438543657,438523468,3997706,202.7346,49.11,98913.5,1.1240975
438593905,438576235,3997706,203.22343,49.1,98907.75,1.1240321
438654210,438631512,3997706,203.26308,49.079998,98907.25,1.1243849
438704451,438684279,3997706,203.86023,49.07,98900.24,1.1243051
438755749,438737276,3997706,203.49825,49.059998,98904.49,1.1239952
438816142,438793414,3997706,204.24074,49.05,98895.74,1.1238958
438866386,438846190,3997706,204.11389,49.039997,98897.25,1.1242713
438916818,438899073,3997706,204.26187,49.03,98895.49,1.1242512
438977171,438954429,3997706,204.47327,49.01,98892.99,1.1242228
439028408,439007454,3997706,204.02934,49.0,98898.25,1.1242826
439078671,439060956,3997706,204.72957,48.98,98890.0,1.1238304
439138984,439116250,3997706,205.07043,48.969997,98886.0,1.1241434
439189214,439169050,3997706,204.51553,48.96,98892.5,1.1242173
439239535,439221837,3997706,204.55782,48.95,98892.0,1.1238532
439351102,439330155,3997706,204.26187,48.92,98895.49,1.1242512
439401363,439383665,3997706,204.39134,48.91,98893.99,1.1242342
439461683,439438984,3997706,204.283,48.899998,98895.25,1.1242484
439511921,439491759,3997706,204.32529,48.89,98894.74,1.1242428
439562221,439544507,3997706,204.21959,48.879997,98896.0,1.124257
439622602,439599839,3997706,204.49438,48.86,98892.75,1.12422
439673839,439653175,3997706,204.30415,48.85,98894.99,1.1242455
439724129,439706475,3997706,203.73076,48.84,98901.75,1.123964
439784428,439761734,3997706,203.88138,48.82,98900.0,1.1239442
439834754,439814558,3997706,204.13504,48.809998,98897.0,1.1242683
439945262,439922585,3997706,204.19846,48.78,98896.25,1.1239015
439996557,439975571,3997706,204.21959,48.77,98896.0,1.1238986
440046855,440029165,3997706,204.56046,48.77,98891.99,1.1242114
440107274,440084510,3997706,205.23952,48.739998,98884.0,1.1241205
440157516,440137334,3997706,205.70459,48.739998,98878.5,1.1236998
440207915,440190129,3997706,206.32024,48.73,98871.25,1.1236174
440268282,440245480,3997706,206.06657,48.71,98874.25,1.1240097
440319540,440299256,3997706,206.32024,48.7,98871.25,1.1239756
440369758,440352113,3997706,206.38629,48.7,98870.49,1.123967
440430044,440407366,3997706,206.1934,48.68,98872.75,1.1236343
440480377,440460110,3997706,206.21454,48.67,98872.5,1.1236316
440530562,440512902,3997706,206.32024,48.66,98871.25,1.1236174
440590885,440568172,3997706,206.42857,48.649998,98870.0,1.1236032
440642143,440621955,3997706,206.04544,48.64,98874.49,1.1236542
440692390,440674729,3997706,206.1934,48.629997,98872.75,1.1236343
440752737,440730010,3997706,206.15112,48.62,98873.25,1.1236402
440853227,440835565,3997706,205.98201,48.6,98875.24,1.124021
440913605,440890835,3997706,205.68344,48.59,98878.75,1.1237026
440964925,440944352,3997706,205.68344,48.59,98878.75,1.1237026
441015090,440997385,3997706,205.96089,48.579998,98875.5,1.1240239
441075331,441052657,3997706,205.4932,48.57,98880.99,1.1240864
441175870,441158208,3997706,205.64117,48.559998,98879.25,1.1237082
441236205,441213515,3997706,205.2184,48.55,98884.25,1.1241235
441287686,441267117,3997706,205.4932,48.539997,98880.99,1.1240864
441337901,441320229,3997706,205.32408,48.539997,98882.99,1.1237508
441398354,441375544,3997706,205.04665,48.52,98886.26,1.1237879
441448638,441428396,3997706,205.0255,48.52,98886.5,1.1237907
441498965,441481218,3997706,204.9198,48.51,98887.75,1.1241632
441560242,441537484,3997706,204.60272,48.5,98891.5,1.1242058
441610446,441590264,3997706,204.49438,48.5,98892.75,1.12422
441660785,441643061,3997706,203.92102,48.489998,98899.5,1.1242968
441721166,441698401,3997706,204.13504,48.48,98897.0,1.1242683
441771397,441751222,3997706,204.30415,48.469997,98894.99,1.1242455
441822741,441804270,3997706,203.83644,48.469997,98900.5,1.1239499
441882981,441860312,3997706,203.83644,48.46,98900.5,1.1239499
441933243,441913067,3997706,203.20229,48.46,98907.99,1.1243933
441983532,441965838,3997706,203.22343,48.45,98907.74,1.124032
442043845,442021128,3997706,203.1151,48.44,98909.0,1.1240464
442094072,442073863,3997706,202.43604,48.44,98916.99,1.1241372
442144437,442126656,3997706,201.6724,48.43,98926.0,1.1242396
442205772,442183015,3997706,200.88763,48.42,98935.25,1.1247032
442256011,442235847,3997706,200.20856,48.42,98943.25,1.1247941
442306308,442288587,3997706,199.06442,48.41,98956.74,1.1249475
442366692,442343941,3997706,198.61787,48.399998,98962.0,1.1250073
442416939,442396771,3997706,198.27702,48.399998,98966.0,1.1246942
442468218,442450009,3997706,198.21361,48.379997,98966.75,1.1247027
442528574,442505853,3997706,197.85425,48.37,98971.0,1.124751
442578915,442558650,3997706,197.02719,48.36,98980.75,1.1252204
442629130,442611443,3997706,196.32698,48.35,98988.99,1.1253141
442689424,442666735,3997706,196.09183,48.34,98991.75,1.1249868
442739704,442719491,3997706,196.02841,48.329998,98992.5,1.1249954
442851314,442828519,3997706,195.90157,48.309998,98993.99,1.1250123
442901663,442881373,3997706,195.88043,48.3,98994.25,1.1250153
442951821,442934168,3997706,196.30585,48.289997,98989.24,1.1249583
443012168,442989458,3997706,195.3916,48.27,99000.0,1.1254393
443062414,443042242,3997706,195.77475,48.26,98995.49,1.125388
443113763,443095783,3997706,195.35197,48.25,99000.49,1.1250861
443174016,443151332,3997706,195.58449,48.23,98997.75,1.125055
443224267,443204097,3997706,194.52228,48.219997,99010.25,1.125197
443274555,443256854,3997706,194.65176,48.21,99008.75,1.1255387
443334833,443312162,3997706,194.63062,48.2,99009.0,1.1255416
443436458,443418524,3997706,194.2052,48.18,99014.0,1.1252396
443496715,443474034,3997706,194.2052,48.16,99013.99,1.1255983
443546983,443526806,3997706,193.39929,48.149998,99023.5,1.1257064
443597221,443579569,3997706,192.88933,48.14,99029.5,1.1257746
443657518,443634825,3997706,193.5684,48.12,99021.5,1.1256837
443707818,443687597,3997706,193.44156,48.11,99023.0,1.1257007
443759008,443740860,3997706,192.72285,48.11,99031.49,1.1257973
443819406,443796605,3997706,192.84706,48.09,99030.01,1.1254215
443869620,443849426,3997706,192.84706,48.079998,99030.01,1.1254215
443919876,443902218,3997706,192.29745,48.07,99036.5,1.1254953
443980287,443957497,3997706,192.14948,48.05,99038.24,1.125874
444030635,444010369,3997706,191.6818,48.039997,99043.75,1.1259366
444081964,444063985,3997706,191.87204,48.02,99041.5,1.1259111
444142255,444119551,3997706,191.72408,48.0,99043.25,1.1259309
444192563,444172335,3997706,192.23402,48.0,99037.25,1.1255039
444242805,444225136,3997706,192.08606,47.989998,99039.0,1.1255237
444303086,444280410,3997706,192.29745,47.969997,99036.5,1.1258543
444353375,444333169,3997706,192.2763,47.96,99036.75,1.1258571
444465026,444442324,3997706,192.97652,47.94,99028.5,1.1257633
444515296,444495126,3997706,192.68059,47.93,99031.99,1.1258029
444565564,444547892,3997706,193.10072,47.92,99027.0,1.1257463
444626025,444603204,3997706,193.25133,47.91,99025.25,1.1257263
444727720,444709890,3997706,193.2936,47.89,99024.74,1.1253617
444787853,444765186,3997706,193.44156,47.87,99023.0,1.1253419
444838123,444817950,3997706,193.77979,47.86,99019.0,1.1252965
444888411,444870706,3997706,193.80357,47.85,99018.75,1.1256524
444949831,444926308,3997706,194.18407,47.84,99014.24,1.1256012
445000027,444979855,3997706,195.03226,47.829998,99004.26,1.1254877
445050267,445032611,3997706,194.39546,47.82,99011.75,1.1255728
445110643,445087887,3997706,194.9477,47.809998,99005.25,1.1254989
445160886,445140698,3997706,194.60684,47.789997,99009.25,1.1251857
445211139,445193474,3997706,194.82088,47.78,99006.75,1.1251572
445272479,445248985,3997706,195.1168,47.77,99003.25,1.1254762
445322706,445302502,3997706,195.07452,47.76,99003.75,1.1254818
445372908,445355255,3997706,195.3916,47.75,99000.0,1.1254393
445433271,445410533,3997706,195.77475,47.73,98995.49,1.125388
445483494,445463314,3997706,195.49994,47.73,98998.75,1.1250663
445594155,445571421,3997706,196.11295,47.7,98991.5,1.1253426
445645445,445625174,3997706,195.71133,47.69,98996.25,1.1253966
445695724,445678018,3997706,195.52107,47.68,98998.5,1.1254222
445756011,445733297,3997706,196.09447,47.66,98991.74,1.1249868
445806306,445786078,3997706,195.41537,47.66,98999.74,1.1250777
445856607,445838934,3997706,195.96498,47.649998,98993.25,1.1253625
445917958,445894469,3997706,196.07068,47.629997,98991.99,1.1253482
445968208,445948006,3997706,196.15523,47.62,98991.0,1.125337
446018523,446000821,3997706,196.26358,47.61,98989.75,1.1253227
446079019,446056144,3997706,196.36928,47.59,98988.5,1.1253086
446129151,446108969,3997706,196.21864,47.579998,98990.25,1.1253284
446179404,446161732,3997706,196.0099,47.579998,98992.74,1.1253568
446240860,446217752,3997706,196.09183,47.559998,98991.75,1.1253455
446290963,446270764,3997706,195.92271,47.55,98993.75,1.1253682
446341242,446323571,3997706,195.90157,47.539997,98994.0,1.125371
446401576,446378862,3997706,195.52107,47.52,98998.5,1.1254222
446451811,446431647,3997706,195.90157,47.52,98993.99,1.125371
446502244,446484397,3997706,196.21864,47.5,98990.25,1.1253284
446563504,446540434,3997706,195.83815,47.489998,98994.74,1.1257385
446613727,446593505,3997706,195.28592,47.48,99001.25,1.1258125
446663975,446646320,3997706,195.77475,47.469997,98995.49,1.125388
446724374,446701586,3997706,195.58449,47.45,98997.75,1.1254137
446774549,446754352,3997706,195.43388,47.44,98999.5,1.1257926
446824910,446807207,3997706,194.75745,47.43,99007.49,1.1258835
446886147,446863412,3997706,194.73631,47.42,99007.75,1.1258864
446936374,446916159,3997706,194.98996,47.41,99004.75,1.1254933
446986630,446968960,3997706,195.69019,47.39,98996.5,1.1253995
447046980,447024278,3997706,195.26477,47.379997,99001.5,1.1258154
447097352,447077113,3997706,194.86314,47.37,99006.24,1.1258694
447148647,447130482,3997706,195.01111,47.36,99004.5,1.1254904
447209009,447186313,3997706,194.79973,47.34,99006.99,1.1255188
447259302,447239115,3997706,195.26477,47.329998,99001.5,1.1258154
447309640,447291908,3997706,194.77858,47.32,99007.25,1.1258808
447369860,447347178,3997706,194.92656,47.309998,99005.49,1.1258608
447420180,447399956,3997706,194.90541,47.3,99005.75,1.1255046
447471355,447453193,3997706,194.50114,47.28,99010.5,1.1255586
447531646,447508938,3997706,194.73631,47.27,99007.74,1.1258864
447581933,447561749,3997706,194.67288,47.26,99008.5,1.1258949
447632184,447614529,3997706,195.24628,47.25,99001.74,1.1254591
447692578,447669856,3997706,194.5857,47.23,99009.5,1.1255472
447742841,447722664,3997706,194.86314,47.23,99006.24,1.1255103
447794137,447775900,3997706,195.22249,47.21,99002.0,1.1254619
447854367,447831675,3997706,194.842,47.2,99006.5,1.1255132
447904635,447884440,3997706,194.82088,47.19,99006.75,1.1255159
447954911,447937200,3997706,194.842,47.18,99006.5,1.1255132
448015237,447992502,3997706,194.54343,47.16,99010.0,1.125912
448065417,448045246,3997706,194.79973,47.149998,99007.0,1.1258779
448115723,448098023,3997706,194.37431,47.149998,99012.0,1.1259348
448176999,448154253,3997706,194.52492,47.129997,99010.24,1.1259148
448227315,448207023,3997706,194.50114,47.12,99010.5,1.1259177
448277524,448259827,3997706,195.03226,47.11,99004.25,1.1258466
448337881,448315187,3997706,194.14178,47.09,99014.75,1.125607
