timestamp,timestamp_sample,device_id,x,y,z,temperature,error_count,clip_counter[0],clip_counter[1],clip_counter[2],samples
394698087,394697129,2162698,1.5650098,-0.41020656,-9.781113,52.765293,1,0,0,0,3
394700560,394699628,2162698,1.5310919,-0.39863458,-9.775525,52.765293,1,0,0,0,2
394798161,394797221,2162698,1.6120958,-0.3774858,-9.772333,52.765293,0,0,0,0,3
394898226,394897292,2162698,1.5801731,-0.3894568,-9.771536,52.765293,0,0,0,0,3
394998318,394997376,2162698,1.5642118,-0.28810227,-9.742007,52.765293,0,0,0,0,3
395098526,395097462,2162698,1.5865577,-0.3750916,-9.77393,52.765293,0,0,0,0,3
395203492,395202537,2162698,1.5602214,-0.45170605,-9.745997,52.765293,0,0,0,0,3
395298562,395297614,2162698,1.5626156,-0.40222588,-9.85214,52.765293,0,0,0,0,3
395498731,395497778,2162698,1.5203182,-0.32002497,-9.786698,52.671177,0,0,0,0,3
395598785,395597860,2162698,1.5777789,-0.39264908,-9.809045,52.671177,0,0,0,0,3
395698878,395697942,2162698,1.5259045,-0.31523657,-9.840169,52.671177,0,0,0,0,3
395796522,395795538,2162698,1.5610195,-0.2825158,-9.716867,52.671177,0,0,0,0,2
395899044,395898107,2162698,1.6320475,-0.25697765,-9.781113,52.671177,0,0,0,0,3
395996680,395995685,2162698,1.4664485,-0.37588966,-9.77792,52.671177,0,0,0,0,2
396096777,396095776,2162698,1.6244658,-0.35075054,-9.836577,52.671177,0,0,0,0,2
396196862,396195857,2162698,1.5562311,-0.37110126,-9.822212,52.671177,0,0,0,0,2
396296871,396295935,2162698,1.5490485,-0.31244332,-9.8677025,52.671177,0,0,0,0,2
396396937,396396013,2162698,1.567005,-0.35075054,-9.844957,52.765293,0,0,0,0,2
396497127,396496102,2162698,1.5011644,-0.34835634,-9.781511,52.765293,0,0,0,0,2
396597226,396596184,2162698,1.5933412,-0.34476504,-9.704897,52.765293,0,0,0,0,2
396697272,396696266,2162698,1.5035586,-0.38067806,-9.797073,52.765293,0,0,0,0,2
396797271,396796341,2162698,1.6244658,-0.2861071,-9.751583,52.765293,0,0,0,0,2
396897366,396896427,2162698,1.4820108,-0.36511576,-9.836577,52.765293,0,0,0,0,2
396997431,396996505,2162698,1.5897499,-0.39863458,-9.824607,52.765293,0,0,0,0,2
397097608,397096587,2162698,1.5370775,-0.260968,-9.797073,52.765293,0,0,0,0,2
397297680,397296754,2162698,1.6208745,-0.31124622,-9.763555,52.765293,0,0,0,0,2
397697999,397697079,2162698,1.5215151,-0.3842694,-9.811439,52.81235,0,0,0,0,2
397798146,397797161,2162698,1.5765818,-0.3196259,-9.810242,52.81235,0,0,0,0,2
397898252,397897249,2162698,1.5478514,-0.25378537,-9.797073,52.81235,0,0,0,0,2
397998265,397997347,2162698,1.5957354,-0.24779987,-9.832987,52.81235,0,0,0,0,2
398098449,398097413,2162698,1.5179238,-0.36391866,-9.832987,52.81235,0,0,0,0,2
398198422,398197489,2162698,1.567005,-0.33159694,-9.846154,52.81235,0,0,0,0,2
398298574,398297571,2162698,1.496376,-0.30885202,-9.76116,52.81235,0,0,0,0,2
398398583,398397653,2162698,1.5646108,-0.24899697,-9.767146,52.718235,0,0,0,0,2
398498663,398497735,2162698,1.5298948,-0.30645782,-9.862914,52.718235,0,0,0,0,2
398598746,398597817,2162698,1.5478514,-0.29448682,-9.80665,52.718235,0,0,0,0,2
398696397,398695408,2162698,1.5650098,-0.41100463,-9.825006,52.718235,0,0,0,0,3
398796435,398795482,2162698,1.5275007,-0.27373707,-9.787497,52.718235,0,0,0,0,3
398896564,398895571,2162698,1.5490485,-0.21468009,-9.718863,52.718235,0,0,0,0,3
398996656,398995646,2162698,1.567404,-0.3343902,-9.825006,52.718235,0,0,0,0,3
399096760,399095731,2162698,1.554635,-0.31284237,-9.788295,52.718235,0,0,0,0,3
399196812,399195806,2162698,1.5322891,-0.21867043,-9.793083,52.718235,0,0,0,0,3
399396906,399395968,2162698,1.5993267,-0.29688102,-9.785901,52.81235,0,0,0,0,3
399497020,399496059,2162698,1.5147316,-0.14844051,-9.859323,52.81235,0,0,0,0,3
399597109,399596145,2162698,1.5522408,-0.31763077,-9.849746,52.81235,0,0,0,0,3
399697183,399696257,2162698,1.6097016,-0.4700616,-9.904015,52.81235,0,0,0,0,3
399797239,399796302,2162698,1.5658079,-0.3463612,-9.817025,52.81235,0,0,0,0,3
399897363,399896402,2162698,1.542664,-0.055864707,-9.771536,52.81235,0,0,0,0,3
400197571,400196632,2162698,1.5051548,-0.21148781,-9.758766,52.81235,0,0,0,0,3
400397742,400396796,2162698,1.5442601,-0.47644615,-9.673373,52.718235,0,0,0,0,3
400497887,400496871,2162698,1.5586253,-0.32561144,-9.743603,52.718235,0,0,0,0,3
400597926,400596958,2162698,1.5203182,-0.4213795,-9.730036,52.718235,0,0,0,0,3
400697984,400697038,2162698,1.566606,-0.21388203,-9.701305,52.718235,0,0,0,0,3
400798118,400797118,2162698,1.5682021,-0.21068975,-9.797073,52.718235,0,0,0,0,3
401098294,401097363,2162698,1.5267026,-0.32481337,-9.816227,52.718235,0,0,0,0,3
401198406,401197462,2162698,1.5099432,-0.3024675,-9.858524,52.718235,0,0,0,0,3
401298523,401297565,2162698,1.6248649,-0.3607264,-9.884861,52.718235,0,0,0,0,3
401398583,401397642,2162698,1.472434,-0.15961345,-9.768343,52.765293,0,0,0,0,3
401496113,401495195,2162698,1.553837,-0.35913026,-9.642648,52.765293,0,0,0,0,2
401598744,401597797,2162698,1.5833654,-0.39823556,-9.853736,52.765293,0,0,0,0,3
401696300,401695360,2162698,1.5406688,-0.2765303,-9.870096,52.765293,0,0,0,0,2
401798879,401797936,2162698,1.517924,-0.2681506,-9.79867,52.765293,0,0,0,0,3
401896449,401895516,2162698,1.5753847,-0.30885202,-9.781511,52.765293,0,0,0,0,2
401996535,401995602,2162698,1.5275006,-0.22864626,-9.8042555,52.765293,0,0,0,0,2
402096679,402095680,2162698,1.541866,-0.18435353,-9.783905,52.765293,0,0,0,0,2
402196683,402195762,2162698,1.5406688,-0.31603462,-9.854534,52.765293,0,0,0,0,2
402296848,402295852,2162698,1.5334862,-0.33279404,-9.720459,52.765293,0,0,0,0,2
402396923,402395925,2162698,1.5957354,-0.2765303,-9.773131,52.718235,0,0,0,0,2
402497011,402496007,2162698,1.4772224,-0.19273324,-9.82341,52.718235,0,0,0,0,2
402597015,402596088,2162698,1.5610195,-0.33877954,-9.710882,52.718235,0,0,0,0,2
402699624,402698679,2162698,1.5793751,-0.24740085,-9.647835,52.718235,0,0,0,0,3
402797169,402796251,2162698,1.5490485,-0.24420857,-9.799467,52.718235,0,0,0,0,2
402897302,402896334,2162698,1.6089035,-0.29568392,-9.928755,52.718235,0,0,0,0,2
402997363,402996445,2162698,1.5394717,-0.29209262,-9.921572,52.718235,0,0,0,0,2
403097434,403096497,2162698,1.5275006,-0.19273324,-9.969456,52.718235,0,0,0,0,2
403197510,403196577,2162698,1.5682021,-0.35793316,-9.844957,52.718235,0,0,0,0,2
403297611,403296678,2162698,1.5610195,-0.46088383,-9.7479925,52.718235,0,0,0,0,2
403397668,403396750,2162698,1.5957354,-0.15442601,-9.890448,52.718235,0,0,0,0,2
403497751,403496824,2162698,1.4927847,-0.2896984,-9.842564,52.718235,0,0,0,0,2
403597921,403596907,2162698,1.602918,-0.427365,-9.882068,52.718235,0,0,0,0,2
403697924,403696996,2162698,1.5717934,-0.34596214,-9.880871,52.718235,0,0,0,0,2
403798000,403797070,2162698,1.5478514,-0.17477672,-9.888053,52.718235,0,0,0,0,2
403898083,403897159,2162698,1.6041151,-0.33159694,-9.816227,52.718235,0,0,0,0,2
403998159,403997233,2162698,1.5945383,-0.36511576,-9.755175,52.718235,0,0,0,0,2
404098239,404097315,2162698,1.5179238,-0.38307226,-9.755175,52.718235,0,0,0,0,2
404198324,404197400,2162698,1.6101006,-0.30526072,-9.767146,52.718235,0,0,0,0,2
404298429,404297481,2162698,1.5646108,-0.32202014,-9.744401,52.718235,0,0,0,0,2
404398506,404397560,2162698,1.5526398,-0.2657564,-9.8042555,52.81235,0,0,0,0,2
404498626,404497642,2162698,1.532289,-0.33877954,-9.775525,52.81235,0,0,0,0,2
404598659,404597724,2162698,1.5682021,-0.33877954,-9.765948,52.81235,0,0,0,0,2
404698742,404697808,2162698,1.5526398,-0.36391866,-9.862914,52.81235,0,0,0,0,2
404798807,404797887,2162698,1.5598224,-0.39504328,-9.791088,52.81235,0,0,0,0,2
404898967,404897968,2162698,1.5310919,-0.30406362,-9.755175,52.81235,0,0,0,0,2
404996523,404995588,2162698,1.5378757,-0.2338337,-9.855332,52.81235,0,0,0,0,3
405096641,405095624,2162698,1.5490485,-0.29688102,-9.882466,52.81235,0,0,0,0,3
405196647,405195722,2162698,1.5642118,-0.48362875,-9.829794,52.81235,0,0,0,0,3
405296748,405295817,2162698,1.578577,-0.32561144,-9.840967,52.81235,0,0,0,0,3
405396903,405395890,2162698,1.529895,-0.22266077,-9.923168,52.624115,0,0,0,0,3
405496898,405495964,2162698,1.5139335,-0.3631206,-9.839371,52.624115,0,0,0,0,3
405596963,405596038,2162698,1.5745866,-0.37429354,-9.770738,52.624115,0,0,0,0,3
405697067,405696119,2162698,1.5514427,-0.34476507,-9.786698,52.624115,0,0,0,0,3
405797152,405796214,2162698,1.5642118,-0.29927522,-9.77792,52.624115,0,0,0,0,3
405897234,405896289,2162698,1.5131356,-0.39743748,-9.750786,52.624115,0,0,0,0,3
405997312,405996365,2162698,1.6081055,-0.32960176,-9.795478,52.624115,0,0,0,0,3
406097484,406096452,2162698,1.4923857,-0.25538152,-9.801862,52.624115,0,0,0,0,3
406197469,406196527,2162698,1.5394717,-0.38865876,-9.77792,52.624115,0,0,0,0,3
406297554,406296609,2162698,1.6216726,-0.24420857,-9.993398,52.624115,0,0,0,0,3
406397621,406396690,2162698,1.5155298,-0.39264908,-9.903216,52.624115,0,0,0,0,3
406497783,406496772,2162698,1.590548,-0.23942018,-9.8728895,52.624115,0,0,0,0,3
406597782,406596857,2162698,1.5697982,-0.34476507,-9.77792,52.624115,0,0,0,0,3
406697880,406696944,2162698,1.541866,-0.3535438,-9.638258,52.624115,0,0,0,0,3
406797953,406797017,2162698,1.5841635,-0.20111294,-9.801064,52.624115,0,0,0,0,3
406898059,406897106,2162698,1.5083472,-0.40541816,-9.759564,52.624115,0,0,0,0,3
406998105,406997180,2162698,1.5825673,-0.3758897,-9.882466,52.624115,0,0,0,0,3
407198268,407197343,2162698,1.6065093,-0.21468009,-9.938332,52.624115,0,0,0,0,3
407298355,407297424,2162698,1.5330871,-0.36711094,-9.847352,52.624115,0,0,0,0,3
407398452,407397506,2162698,1.5913461,-0.28091967,-9.924765,52.624115,0,0,0,0,3
407498532,407497587,2162698,1.5338852,-0.31284237,-9.928755,52.624115,0,0,0,0,3
407598623,407597669,2162698,1.5362794,-0.36471674,-9.89763,52.624115,0,0,0,0,3
407696293,407695253,2162698,1.5370775,-0.4321534,-9.883265,52.624115,0,0,0,0,2
407798765,407797832,2162698,1.517924,-0.29608294,-9.853736,52.624115,0,0,0,0,3
407898852,407897914,2162698,1.506751,-0.31124622,-9.818622,52.624115,0,0,0,0,3
407998921,407997995,2162698,1.5442601,-0.37429354,-9.765151,52.624115,0,0,0,0,3
408096591,408095574,2162698,1.5777789,-0.2765303,-9.830592,52.624115,0,0,0,0,2
408196653,408195656,2162698,1.4856021,-0.31603462,-9.812635,52.624115,0,0,0,0,2
408296739,408295743,2162698,1.5945383,-0.48602295,-9.829395,52.624115,0,0,0,0,2
408396781,408395825,2162698,1.6424223,-0.33997664,-9.877279,52.624115,0,0,0,0,2
408496907,408495900,2162698,1.4748282,-0.25258827,-9.861717,52.624115,0,0,0,0,2
408596914,408595988,2162698,1.5981296,-0.3172317,-9.888053,52.624115,0,0,0,0,2
408696981,408696063,2162698,1.590947,-0.41180268,-9.89763,52.624115,0,0,0,0,2
408797155,408796150,2162698,1.5933412,-0.3196259,-9.90601,52.624115,0,0,0,0,2
408897236,408896230,2162698,1.5478514,-0.2753332,-9.877279,52.624115,0,0,0,0,2
408997236,408996312,2162698,1.5705963,-0.4309563,-9.8042555,52.624115,0,0,0,0,2
409097418,409096401,2162698,1.6065093,-0.34117374,-9.827001,52.624115,0,0,0,0,2
409197407,409196470,2162698,1.4856021,-0.28491,-9.8437605,52.624115,0,0,0,0,2
409297501,409296552,2162698,1.6124948,-0.31124622,-9.859323,52.624115,0,0,0,0,2
409397552,409396634,2162698,1.5251064,-0.35075054,-9.860519,52.624115,0,0,0,0,2
409497663,409496729,2162698,1.5622166,-0.33638534,-9.770737,52.624115,0,0,0,0,2
409597720,409596796,2162698,1.5705963,-0.33518824,-9.783905,52.624115,0,0,0,0,2
409697834,409696884,2162698,1.5370775,-0.37588966,-9.848549,52.624115,0,0,0,0,2
409797996,409796964,2162698,1.5454572,-0.30885202,-9.76954,52.624115,0,0,0,0,2
409897989,409897056,2162698,1.4867992,-0.24779987,-9.7563715,52.624115,0,0,0,0,2
409998048,409997122,2162698,1.555034,-0.29328972,-9.704897,52.624115,0,0,0,0,2
410098133,410097208,2162698,1.5514427,-0.3866636,-9.688137,52.624115,0,0,0,0,2
410198328,410197369,2162698,1.5251064,-0.36391866,-9.759963,52.624115,0,0,0,0,2
410298293,410297366,2162698,1.5777789,-0.35673606,-9.825804,52.624115,0,0,0,0,2
410398378,410397448,2162698,1.5598224,-0.3196259,-9.813833,52.624115,0,0,0,0,2
410498483,410497529,2162698,1.5310919,-0.2621651,-9.793482,52.624115,0,0,0,0,2
410598564,410597617,2162698,1.5586253,-0.33877954,-9.811439,52.624115,0,0,0,0,2
410698643,410697697,2162698,1.5346833,-0.31483752,-9.737218,52.624115,0,0,0,0,2
410798720,410797773,2162698,1.602918,-0.415394,-9.788693,52.624115,0,0,0,0,2
410898820,410897860,2162698,1.590947,-0.39145198,-9.715671,52.624115,0,0,0,0,2
410998868,410997943,2162698,1.5215151,-0.31364042,-9.807847,52.624115,0,0,0,0,2
411096555,411095522,2162698,1.5618176,-0.30885202,-9.814631,52.624115,0,0,0,0,3
411196552,411195602,2162698,1.6168842,-0.32720757,-9.820217,52.624115,0,0,0,0,3
411296611,411295679,2162698,1.4915876,-0.33279404,-9.789891,52.624115,0,0,0,0,3
411396706,411395766,2162698,1.5354815,-0.37429354,-9.889649,52.718235,0,0,0,0,3
411496767,411495842,2162698,1.5474524,-0.32002497,-9.788295,52.718235,0,0,0,0,3
411596931,411595923,2162698,1.5809712,-0.34955347,-9.864909,52.718235,0,0,0,0,3
411696930,411696005,2162698,1.5713944,-0.30406362,-9.821015,52.718235,0,0,0,0,3
411797040,411796091,2162698,1.5586253,-0.38147613,-9.836179,52.718235,0,0,0,0,3
411897228,411896197,2162698,1.5953364,-0.30406362,-9.779516,52.718235,0,0,0,0,3
411997195,411996255,2162698,1.483607,-0.36152446,-9.748391,52.718235,0,0,0,0,3
412097310,412096349,2162698,1.5658079,-0.33359212,-9.770738,52.718235,0,0,0,0,3
412197352,412196419,2162698,1.5618176,-0.28171775,-9.782708,52.718235,0,0,0,0,3
412297431,412296493,2162698,1.5841635,-0.3631206,-9.805055,52.718235,0,0,0,0,3
412397517,412396575,2162698,1.5713944,-0.37429354,-9.763555,52.624115,0,0,0,0,3
412497596,412496660,2162698,1.5107414,-0.3168327,-9.760363,52.624115,0,0,0,0,3
412697745,412696819,2162698,1.6440185,-0.32640952,-9.799468,52.624115,0,0,0,0,3
412797918,412796901,2162698,1.5091451,-0.3343902,-9.767545,52.624115,0,0,0,0,3
412897992,412897027,2162698,1.5658079,-0.37908193,-9.811439,52.624115,0,0,0,0,3
412998021,412997096,2162698,1.5642118,-0.32800564,-9.817823,52.624115,0,0,0,0,3
413098099,413097160,2162698,1.495578,-0.32561144,-9.8274,52.624115,0,0,0,0,3
413198165,413197227,2162698,1.602519,-0.34476507,-9.900024,52.624115,0,0,0,0,3
413298266,413297315,2162698,1.554635,-0.4165911,-9.822612,52.624115,0,0,0,0,3
413398323,413397398,2162698,1.5682021,-0.28331387,-9.904015,52.53,0,0,0,0,3
413498424,413497482,2162698,1.5498466,-0.24261245,-9.886457,52.53,0,0,0,0,3
413598504,413597552,2162698,1.5682021,-0.37189934,-9.83139,52.53,0,0,0,0,3
413698572,413697634,2162698,1.5530388,-0.39344716,-9.911995,52.53,0,0,0,0,3
413796131,413795213,2162698,1.543063,-0.37469256,-9.900024,52.53,0,0,0,0,2
413896224,413895295,2162698,1.5921441,-0.32680854,-9.846154,52.53,0,0,0,0,2
413996414,413995376,2162698,1.5765818,-0.30406362,-9.8916445,52.53,0,0,0,0,2
414096394,414095458,2162698,1.5466543,-0.23343466,-9.794679,52.53,0,0,0,0,2
414196484,414195553,2162698,1.5286977,-0.40462008,-9.767146,52.53,0,0,0,0,2
414296546,414295621,2162698,1.555034,-0.39384618,-9.837775,52.53,0,0,0,0,2
414396624,414395706,2162698,1.5622166,-0.35673606,-9.853337,52.624115,0,0,0,0,2
414496771,414495784,2162698,1.5646108,-0.20470424,-9.846154,52.624115,0,0,0,0,2
414596796,414595865,2162698,1.5741876,-0.38307226,-9.896433,52.624115,0,0,0,0,2
414696872,414695947,2162698,1.5514427,-0.37469256,-10.020931,52.624115,0,0,0,0,2
414797032,414796023,2162698,1.5191209,-0.4177882,-9.799467,52.624115,0,0,0,0,2
414897119,414896128,2162698,1.6077064,-0.34356794,-9.813833,52.624115,0,0,0,0,2
414997164,414996235,2162698,1.5610195,-0.23104046,-9.956287,52.624115,0,0,0,0,2
415097279,415096273,2162698,1.5717934,-0.25019407,-9.850943,52.624115,0,0,0,0,2
415197295,415196354,2162698,1.5705963,-0.37349546,-9.886856,52.624115,0,0,0,0,2
415297362,415296436,2162698,1.5179238,-0.41180268,-9.841366,52.624115,0,0,0,0,2
415397453,415396519,2162698,1.5705963,-0.33638534,-9.88925,52.624115,0,0,0,0,2
415497541,415496606,2162698,1.5442601,-0.36990416,-9.801862,52.624115,0,0,0,0,2
415597604,415596681,2162698,1.5502456,-0.32441434,-9.982624,52.624115,0,0,0,0,2
415700239,415699297,2162698,1.6152881,-0.32002497,-9.864909,52.624115,0,0,0,0,3
415797778,415796854,2162698,1.5286977,-0.34237084,-9.901221,52.624115,0,0,0,0,2
415997955,415997014,2162698,1.6017209,-0.2896984,-9.965864,52.624115,0,0,0,0,2
416098024,416097100,2162698,1.4556746,-0.36990416,-9.743204,52.624115,0,0,0,0,2
416298170,416297251,2162698,1.553837,-0.4333505,-9.913192,52.624115,0,0,0,0,2
416398253,416397333,2162698,1.4987702,-0.49320555,-9.854534,52.624115,0,0,0,0,2
416498349,416497419,2162698,1.6136919,-0.39863458,-9.855731,52.624115,0,0,0,0,2
416698521,416697582,2162698,1.5454572,-0.2777274,-9.975441,52.624115,0,0,0,0,2
416798588,416797659,2162698,1.6891093,-0.25258827,-10.3226,52.624115,0,0,0,0,2
416998758,416997834,2162698,1.543063,-0.39264908,-10.225636,52.624115,0,0,0,0,2
417098820,417097902,2162698,1.6172832,-0.2777274,-9.653421,52.624115,0,0,0,0,2
417198906,417197986,2162698,1.389834,-0.6823475,-9.69532,52.624115,0,0,0,0,2
417296509,417295566,2162698,1.6863161,-0.35513994,-9.871294,52.624115,0,0,0,0,3
417396579,417395647,2162698,1.6296533,-0.5610413,-9.832189,52.624115,0,0,0,0,3
417496659,417495729,2162698,1.495578,-0.40142784,-9.569625,52.624115,0,0,0,0,3
417596754,417595813,2162698,1.6120958,-0.3830723,-9.820217,52.624115,0,0,0,0,3
417696824,417695893,2162698,1.4891934,-0.40302396,-9.832189,52.624115,0,0,0,0,3
417796909,417795977,2162698,1.6041151,-0.34237084,-9.801862,52.624115,0,0,0,0,3
417896992,417896055,2162698,1.5793751,-0.4165911,-9.825804,52.624115,0,0,0,0,3
417997083,417996137,2162698,1.5562311,-0.37189934,-9.756372,52.624115,0,0,0,0,3
418097241,418096222,2162698,1.5530388,-0.28810227,-9.751584,52.624115,0,0,0,0,3
418197232,418196301,2162698,1.5275007,-0.3726974,-9.857727,52.624115,0,0,0,0,3
418297319,418296393,2162698,1.6280572,-0.4995901,-9.59197,52.624115,0,0,0,0,3
418397398,418396464,2162698,1.542664,-0.31124622,-9.722055,52.718235,0,0,0,0,3
418497494,418496545,2162698,1.5306929,-0.3806781,-9.792285,52.718235,0,0,0,0,3
418597557,418596627,2162698,1.5203182,-0.44771573,-9.631874,52.718235,0,0,0,0,3
418697634,418696709,2162698,1.6232688,-0.31763077,-9.820217,52.718235,0,0,0,0,3
418797723,418796798,2162698,1.5570292,-0.4333505,-9.941524,52.718235,0,0,0,0,3
418897809,418896872,2162698,1.5929422,-0.3455631,-9.939928,52.718235,0,0,0,0,3
418997891,418996954,2162698,1.5410678,-0.545878,-9.920774,52.718235,0,0,0,0,3
419097975,419097036,2162698,1.554635,-0.48043647,-9.80665,52.718235,0,0,0,0,3
419198048,419197122,2162698,1.5586253,-0.24979505,-9.821814,52.718235,0,0,0,0,3
419298130,419297199,2162698,1.4668477,-0.26495832,-9.55925,52.718235,0,0,0,0,3
419398206,419397281,2162698,1.5841635,-0.40781236,-9.722055,52.718235,0,0,0,0,3
419498302,419497363,2162698,1.555433,-0.4461196,-9.736421,52.718235,0,0,0,0,3
419598376,419597450,2162698,1.5251065,-0.41260076,-9.750786,52.718235,0,0,0,0,3
419698476,419697526,2162698,1.5650098,-0.391851,-9.801064,52.718235,0,0,0,0,3
419798556,419797608,2162698,1.5187219,-0.34476507,-9.911995,52.718235,0,0,0,0,3
419898649,419897697,2162698,1.5203182,-0.22106463,-9.815429,52.718235,0,0,0,0,3
419998721,419997775,2162698,1.5490485,-0.4261679,-9.709286,52.718235,0,0,0,0,3
420098784,420097853,2162698,1.5713944,-0.48043647,-9.767545,52.718235,0,0,0,0,3
420198874,420197934,2162698,1.5626156,-0.31284237,-9.792285,52.718235,0,0,0,0,3
420298941,420298016,2162698,1.5051548,-0.24181437,-9.723651,52.718235,0,0,0,0,3
420396526,420395596,2162698,1.5598224,-0.272939,-9.8042555,52.718235,0,0,0,0,2
420496616,420495698,2162698,1.5490485,-0.45968673,-9.838972,52.718235,0,0,0,0,2
420596677,420595759,2162698,1.5358804,-0.24061728,-9.856929,52.718235,0,0,0,0,2
420696767,420695841,2162698,1.5143325,-0.21068975,-9.907207,52.718235,0,0,0,0,2
420796870,420795937,2162698,1.578976,-0.33039984,-9.7324295,52.718235,0,0,0,0,2
420896933,420896004,2162698,1.4975731,-0.33638534,-9.896433,52.718235,0,0,0,0,2
420997014,420996085,2162698,1.5251064,-0.36870706,-9.885659,52.718235,0,0,0,0,2
421097197,421096167,2162698,1.5897499,-0.35194764,-9.821015,52.718235,0,0,0,0,2
421197173,421196249,2162698,1.5310919,-0.24181437,-9.800665,52.718235,0,0,0,0,2
421297255,421296330,2162698,1.5658079,-0.33159694,-9.860519,52.718235,0,0,0,0,2
421397345,421396423,2162698,1.543063,-0.37828386,-9.859323,52.718235,0,0,0,0,2
421497443,421496499,2162698,1.5741876,-0.47764325,-10.152613,52.718235,0,0,0,0,2
421597520,421596583,2162698,1.590947,-0.25737667,-10.05445,52.718235,0,0,0,0,2
421697576,421696657,2162698,1.4975731,-0.06943185,-9.858126,52.718235,0,0,0,0,2
421797683,421796745,2162698,1.5622166,-0.34237084,-9.807847,52.718235,0,0,0,0,2
421897769,421896837,2162698,1.5837644,-0.3196259,-9.894038,52.718235,0,0,0,0,2
421997852,421996902,2162698,1.5478514,-0.272939,-10.068815,52.718235,0,0,0,0,2
422097932,422096984,2162698,1.590947,-0.33758244,-9.757569,52.718235,0,0,0,0,2
422198000,422197069,2162698,1.5466543,-0.40222588,-9.676167,52.718235,0,0,0,0,2
422298086,422297143,2162698,1.5310919,-0.16280572,-9.834184,52.718235,0,0,0,0,2
422398178,422397253,2162698,1.553837,-0.32321724,-9.76954,52.624115,0,0,0,0,2
422498260,422497310,2162698,1.5969325,-0.46686932,-9.776723,52.624115,0,0,0,0,2
422598377,422597398,2162698,1.5825673,-0.427365,-9.827001,52.624115,0,0,0,0,2
422698448,422697503,2162698,1.4939818,-0.23463176,-9.812635,52.624115,0,0,0,0,2
422798665,422797627,2162698,1.5634137,-0.3196259,-9.848549,52.624115,0,0,0,0,2
422898611,422897636,2162698,1.6172832,-0.3842694,-9.828198,52.624115,0,0,0,0,2
422998686,422997732,2162698,1.520318,-0.2896984,-9.858126,52.624115,0,0,0,0,2
423098749,423097811,2162698,1.5837644,-0.25139117,-9.846154,52.624115,0,0,0,0,2
423198823,423197885,2162698,1.6208745,-0.272939,-9.797073,52.624115,0,0,0,0,2
423298894,423297963,2162698,1.5298948,-0.30526072,-9.621099,52.624115,0,0,0,0,2
423396484,423395543,2162698,1.5721924,-0.35673606,-9.747594,52.718235,0,0,0,0,3
423496577,423495624,2162698,1.541866,-0.37189934,-9.945514,52.718235,0,0,0,0,3
423596639,423595706,2162698,1.5370775,-0.24021824,-9.981427,52.718235,0,0,0,0,3
423696717,423695788,2162698,1.5881538,-0.3535438,-9.685344,52.718235,0,0,0,0,3
423796799,423795869,2162698,1.5498466,-0.31763077,-9.881669,52.718235,0,0,0,0,3
423896876,423895951,2162698,0.57939684,-0.32401532,-10.010158,52.718235,0,0,0,0,3
423996968,423996033,2162698,1.4556746,-0.47884035,-9.552067,52.718235,0,0,0,0,3
424097140,424096172,2162698,1.7078639,0.037509162,-9.817025,52.718235,0,0,0,0,3
424197162,424196215,2162698,1.7621325,-0.39983168,-9.767545,52.718235,0,0,0,0,3
424297203,424296278,2162698,1.5155298,-0.23064144,-9.705296,52.718235,0,0,0,0,3
424397293,424396359,2162698,1.5777789,-0.0925758,-9.574413,52.624115,0,0,0,0,3
424497371,424496446,2162698,1.3223975,-1.2042835,-9.942322,52.624115,0,0,0,0,3
424597467,424596528,2162698,1.8690735,0.42776406,-8.682174,52.624115,0,0,0,0,3
424697564,424696638,2162698,1.3415511,-0.40062976,-9.565634,52.624115,0,0,0,0,3
424797623,424796693,2162698,1.9241401,-0.64962673,-9.804256,52.624115,0,0,0,0,3
424897703,424896767,2162698,1.6168842,0.43494666,-8.896853,52.624115,0,0,0,0,3
424997777,424996848,2162698,1.4987704,1.0861695,-6.8673687,52.624115,0,0,0,0,3
425097877,425096930,2162698,1.9033904,-1.4341269,-11.924721,52.624115,0,0,0,0,3
425197964,425197016,2162698,2.7126305,-0.557849,-12.232775,52.624115,0,0,0,0,3
425298067,425297093,2162698,2.0079372,0.053470507,-12.271082,52.624115,0,0,0,0,3
425398118,425397181,2162698,2.385423,1.0183338,-9.030131,52.53,0,0,0,0,3
425498186,425497255,2162698,1.269725,0.2290453,-8.473878,52.53,0,0,0,0,3
425598277,425597336,2162698,2.431711,-0.03511496,-10.391634,52.53,0,0,0,0,3
425698358,425697427,2162698,2.32477,-1.5713944,-10.926339,52.53,0,0,0,0,3
425798432,425797498,2162698,2.3590868,0.46208093,-11.553619,52.53,0,0,0,0,3
425898528,425897579,2162698,3.6048698,1.3487337,-7.6271286,52.53,0,0,0,0,3
425998614,425997667,2162698,3.3925838,1.3678873,-7.596004,52.53,0,0,0,0,3
426096156,426095238,2162698,3.5793316,0.90500826,-3.4823663,52.53,0,0,0,0,2
426198817,426197821,2162698,2.1053014,-1.6176823,-15.138537,52.53,0,0,0,0,3
426296348,426295420,2162698,3.0693667,-2.268506,-9.531317,52.53,0,0,0,0,2
426396420,426395487,2162698,3.7217865,-0.770933,-8.280347,52.20059,0,0,0,0,2
426496513,426495571,2162698,3.8007953,0.9504981,-11.647791,52.20059,0,0,0,0,2
426596593,426595667,2162698,3.892972,-1.2258313,-11.525687,52.20059,0,0,0,0,2
426796780,426795802,2162698,3.8402996,1.9716251,-6.8366427,52.20059,0,0,0,0,2
426896814,426895889,2162698,6.2045736,2.0697873,-5.019444,52.20059,0,0,0,0,2
426996885,426995961,2162698,5.261258,-0.47524905,-8.48984,52.20059,0,0,0,0,2
427097055,427096037,2162698,4.2197804,4.0641575,-10.8864355,52.20059,0,0,0,0,2
427197052,427196121,2162698,4.9188876,0.09935937,-12.187684,52.20059,0,0,0,0,2
427297148,427296208,2162698,7.505822,-0.62129533,-4.8638206,52.20059,0,0,0,0,2
427397217,427396293,2162698,6.2632318,-3.6128504,-9.692925,51.824116,0,0,0,0,2
427497303,427496363,2162698,6.077681,-0.45370123,-9.048885,51.824116,0,0,0,0,2
427597362,427596438,2162698,4.975151,5.436035,-4.972757,51.824116,0,0,0,0,2
427697470,427696517,2162698,6.5098343,3.3901896,-1.9405005,51.824116,0,0,0,0,2
427797525,427796596,2162698,4.650737,1.2940661,-12.58153,51.824116,0,0,0,0,2
427897593,427896675,2162698,6.4882865,-0.3196259,-8.267179,51.824116,0,0,0,0,2
427997674,427996754,2162698,6.208165,-1.733402,-15.325285,51.824116,0,0,0,0,2
428097756,428096832,2162698,4.5896845,3.2225955,-8.335413,51.824116,0,0,0,0,2
428197844,428196914,2162698,8.117541,-3.3363202,-12.198458,51.824116,0,0,0,0,2
428297926,428296997,2162698,4.1371803,2.110489,-17.657238,51.824116,0,0,0,0,2
428397996,428397067,2162698,6.25964,1.8375498,-10.511743,51.494705,0,0,0,0,2
428498071,428497146,2162698,6.6642604,-1.7118542,-19.561825,51.494705,0,0,0,0,2
428598159,428597224,2162698,3.0190883,2.5019407,-13.314156,51.494705,0,0,0,0,2
428698220,428697302,2162698,6.6642604,-4.197036,-20.245369,51.494705,0,0,0,0,2
428798318,428797391,2162698,3.7361517,2.3187842,-6.8905125,51.494705,0,0,0,0,2
428898397,428897457,2162698,6.5804634,-3.5470097,-11.0061455,51.494705,0,0,0,0,2
428998531,428997580,2162698,3.3961751,2.1068976,-15.300146,51.494705,0,0,0,0,2
429098548,429097612,2162698,7.620744,-2.9831753,-7.8050976,51.494705,0,0,0,0,2
429198622,429197689,2162698,3.1376014,-0.16519992,-12.325351,51.494705,0,0,0,0,2
429298728,429297780,2162698,5.9926867,-1.2641385,-8.669404,51.494705,0,0,0,0,2
429403774,429402848,2162698,2.6503813,2.7844565,-5.753267,50.88294,0,0,0,0,2
429496363,429495422,2162698,2.6144683,1.8898232,-8.742028,50.88294,0,0,0,0,3
429598919,429597997,2162698,3.3039982,-1.8363527,-14.483724,50.88294,0,0,0,0,2
429696516,429695572,2162698,5.573702,-3.750118,-13.164917,50.88294,0,0,0,0,3
429796579,429795648,2162698,3.6104562,1.0821792,-6.1283584,50.88294,0,0,0,0,3
429996726,429995801,2162698,3.7788484,-0.4533022,-12.21841,50.88294,0,0,0,0,3
430096889,430095877,2162698,4.13319,0.70389533,-5.0150547,50.88294,0,0,0,0,3
430196915,430195960,2162698,3.7054262,-3.3766224,-17.073053,50.88294,0,0,0,0,3
430296955,430296030,2162698,3.0087135,2.7772741,-7.561687,50.88294,0,0,0,0,3
430397049,430396113,2162698,5.283205,-3.5992832,-11.168153,50.647648,0,0,0,0,3
430497128,430496182,2162698,2.101311,1.8810445,-5.0884767,50.647648,0,0,0,0,3
430597183,430596258,2162698,5.280811,-0.95927685,-6.4970655,50.647648,0,0,0,0,3
430697297,430696337,2162698,1.9353131,0.9401232,-8.939949,50.647648,0,0,0,0,3
430797333,430796402,2162698,4.5840983,-0.19792068,-4.891354,50.647648,0,0,0,0,3
430897433,430896487,2162698,3.58412,-0.62009823,-7.8952794,50.647648,0,0,0,0,3
430997500,430996564,2162698,3.5450146,1.0478623,-4.4348598,50.647648,0,0,0,0,3
431097657,431096639,2162698,3.5921006,-3.7565026,-13.098678,50.647648,0,0,0,0,3
431197664,431196711,2162698,2.6503813,2.0462444,-8.144277,50.647648,0,0,0,0,3
431297779,431296817,2162698,4.709395,-3.7588968,-15.748261,50.647648,0,0,0,0,3
431397833,431396897,2162698,2.4468741,2.4181437,-0.79487497,50.224117,0,0,0,0,3
431497911,431496957,2162698,4.010288,-2.4644318,-10.666966,50.224117,0,0,0,0,3
431597979,431597031,2162698,2.5522192,2.5218925,-5.268042,50.224117,0,0,0,0,3
431698034,431697100,2162698,5.2153697,-4.0278454,-11.940682,50.224117,0,0,0,0,3
431798090,431797159,2162698,1.5466543,1.3918293,-7.722099,50.224117,0,0,0,0,3
431898194,431897235,2162698,4.6240015,-0.771731,-7.166644,50.224117,0,0,0,0,3
431998260,431997312,2162698,2.620853,1.0063628,-5.7628436,50.224117,0,0,0,0,3
432098331,432097393,2162698,4.5785117,-1.1587937,-7.934385,50.224117,0,0,0,0,3
432198418,432197470,2162698,1.9297266,1.0462662,-10.571198,50.224117,0,0,0,0,3
432396049,432395109,2162698,2.908955,2.7748797,-4.8973393,49.894707,0,0,0,0,2
432498628,432497678,2162698,3.8171556,0.14045984,-6.4228454,49.894707,0,0,0,0,3
432598688,432597752,2162698,2.1627622,-0.4189853,-12.035652,49.894707,0,0,0,0,3
432696269,432695339,2162698,4.80636,-2.8491,-13.682862,49.894707,0,0,0,0,2
432796342,432795399,2162698,1.982399,4.1132383,-1.9752164,49.894707,0,0,0,0,2
432898912,432897973,2162698,2.4779987,0.86350876,-5.3111377,49.894707,0,0,0,0,3
432996476,432995544,2162698,1.4760253,4.8865657,-4.6722846,49.894707,0,0,0,0,2
433096564,433095630,2162698,5.0996494,-3.5110967,-11.791444,49.894707,0,0,0,0,2
433196614,433195691,2162698,1.1061212,3.1292217,-3.8534677,49.894707,0,0,0,0,2
433296782,433295770,2162698,5.032612,-3.4584243,-9.714474,49.894707,0,0,0,0,2
433396780,433395844,2162698,4.783615,-3.4979286,-15.958551,49.424118,0,0,0,0,2
433496846,433495916,2162698,2.8395233,2.2397757,-6.649895,49.424118,0,0,0,0,2
433596908,433595982,2162698,5.069722,-2.291251,-14.182054,49.424118,0,0,0,0,2
433697006,433696055,2162698,2.6060886,0.18076223,-14.318523,49.424118,0,0,0,0,2
433997191,433996273,2162698,2.6408045,1.2892777,-14.184448,49.424118,0,0,0,0,2
434097423,434096369,2162698,3.1627405,2.4073699,-1.1719618,49.424118,0,0,0,0,2
434197349,434196424,2162698,5.353435,-3.277662,-10.235212,49.424118,0,0,0,0,2
434297418,434296489,2162698,2.1164744,1.6316484,-12.673707,49.424118,0,0,0,0,2
434397490,434396561,2162698,2.980781,1.745373,-3.4572272,49.047646,0,0,0,0,2
434497557,434496633,2162698,4.1838675,-3.4213142,-12.514492,49.047646,0,0,0,0,2
434597622,434596704,2162698,1.7597382,-0.260968,-13.280637,49.047646,0,0,0,0,2
434697762,434696776,2162698,1.4101849,1.0307038,-2.3451207,49.047646,0,0,0,0,2
434797771,434796847,2162698,2.5689783,-3.549404,-11.166556,49.047646,0,0,0,0,2
434897936,434896919,2162698,1.9644425,-1.3215994,-8.306683,49.047646,0,0,0,0,2
434997929,434997001,2162698,0.45010993,2.5917234,-1.3479356,49.047646,0,0,0,0,2
435097977,435097059,2162698,2.944868,-0.17597382,-4.924873,49.047646,0,0,0,0,2
435198046,435197128,2162698,2.9484594,-4.557363,-14.4849205,49.047646,0,0,0,0,2
435298147,435297229,2162698,0.6607997,1.5227122,-9.194932,49.047646,0,0,0,0,2
435398218,435397293,2162698,0.34715924,1.3491327,-1.8387469,48.671177,0,0,0,0,2
435498275,435497346,2162698,2.4061728,-3.1052797,-5.8622026,48.671177,0,0,0,0,2
435698452,435697493,2162698,0.36511576,1.8219875,-2.2050598,48.671177,0,0,0,0,2
435798505,435797556,2162698,2.0602105,-1.246182,-6.5589156,48.671177,0,0,0,0,2
435898562,435897626,2162698,2.2900538,-3.5673606,-12.257115,48.671177,0,0,0,0,2
435998648,435997703,2162698,0.037110128,0.62967503,-10.878056,48.671177,0,0,0,0,2
436098733,436097766,2162698,-0.011971008,1.8375498,0.2861071,48.671177,0,0,0,0,2
436198761,436197837,2162698,1.6663644,-0.59974754,-6.31351,48.671177,0,0,0,0,2
436298843,436297910,2162698,2.0207062,-2.906561,-12.543222,48.671177,0,0,0,0,2
436396425,436395491,2162698,0.972844,-0.14445017,-3.276864,48.247646,0,0,0,0,3
436498977,436498046,2162698,-0.20590134,2.5701754,-9.746795,48.247646,0,0,0,0,2
436599034,436598115,2162698,2.1308396,-1.6112977,-11.439496,48.247646,0,0,0,0,2
436696639,436695689,2162698,0.19073807,2.182714,-20.132044,48.247646,0,0,0,0,3
436796683,436795752,2162698,1.6791335,-0.8555281,-11.382035,48.247646,0,0,0,0,3
436899246,436898323,2162698,0.029927522,2.2697031,-16.591818,48.247646,0,0,0,0,2
436996828,436995897,2162698,1.1093135,2.243367,-22.936453,48.247646,0,0,0,0,3
437096986,437095966,2162698,0.9385271,3.03904,-18.477652,48.247646,0,0,0,0,3
437199475,437198531,2162698,0.36272156,2.3810337,-23.355438,48.247646,0,0,0,0,2
437297024,437296097,2162698,3.177904,-4.0741334,-21.630016,48.247646,0,0,0,0,3
437399611,437398672,2162698,3.4835634,-4.5394063,-20.241777,47.918236,0,0,0,0,2
437497163,437496235,2162698,1.0023725,1.4963762,-16.126545,47.918236,0,0,0,0,3
437597229,437596303,2162698,2.2728956,-3.2074323,-15.910269,47.918236,0,0,0,0,3
437699892,437698967,2162698,2.4947581,-2.2541409,-15.969325,47.918236,0,0,0,0,2
437799939,437798943,2162698,0.2753332,1.9273324,-0.19991584,47.918236,0,0,0,0,2
437899939,437899011,2162698,-0.7745243,3.5242648,-2.7760768,47.918236,0,0,0,0,2
438000009,437999086,2162698,-1.3251907,4.5860934,-5.8705826,47.918236,0,0,0,0,2
438097668,438096654,2162698,3.0757513,-2.1300416,-1.8124107,47.918236,0,0,0,0,3
438197645,438196714,2162698,2.6647465,-1.3870409,-5.568115,47.918236,0,0,0,0,3
438300209,438299284,2162698,-0.40222588,4.2054152,-1.8590976,47.918236,0,0,0,0,2
438397775,438396850,2162698,2.3622792,-3.738945,-5.179456,47.541763,0,0,0,0,3
438497870,438496921,2162698,3.1419907,-4.935248,-13.821727,47.541763,0,0,0,0,3
438600418,438599487,2162698,0.9576807,2.633622,-0.58538234,47.541763,0,0,0,0,2
438700483,438699554,2162698,1.9213469,0.29328972,-2.6910827,47.541763,0,0,0,0,2
438798065,438797142,2162698,2.1308396,-0.23782404,-14.60064,47.541763,0,0,0,0,3
438898125,438897188,2162698,2.5003448,0.14445017,-12.518483,47.541763,0,0,0,0,3
439000683,438999757,2162698,2.6791117,-2.8814218,-4.8865657,47.541763,0,0,0,0,2
439100754,439099827,2162698,3.632004,-3.3207579,-3.821146,47.541763,0,0,0,0,2
439198335,439197398,2162698,1.2186487,-0.23862211,-14.595054,47.541763,0,0,0,0,3
439298418,439297464,2162698,0.96885365,0.355938,-15.194403,47.541763,0,0,0,0,3
439400951,439400026,2162698,4.477157,-4.4879313,-8.069656,47.25941,0,0,0,0,2
439501023,439500093,2162698,4.548983,-5.483919,-15.190013,47.25941,0,0,0,0,2
439598605,439597658,2162698,0.22824724,2.53945,-17.967686,47.25941,0,0,0,0,3
439703668,439702728,2162698,1.7836803,1.4891934,-3.2273839,47.25941,0,0,0,0,3
439801217,439800299,2162698,2.802413,-3.0597897,-18.939333,47.25941,0,0,0,0,2
439896337,439895387,2162698,2.1140802,-3.1711202,-3.5745432,47.25941,0,0,0,0,2
439998862,439997925,2162698,-1.3415511,2.515508,-13.463394,47.25941,0,0,0,0,3
440101432,440100499,2162698,-3.2573113,1.9524715,-10.45907,47.25941,0,0,0,0,2
440196495,440195560,2162698,-3.0921116,-0.33997664,-8.500613,47.25941,0,0,0,0,2
440296560,440295623,2162698,-3.0059202,0.60214174,-9.473856,47.25941,0,0,0,0,2
440396620,440395689,2162698,-2.6204538,-1.4796166,-7.035362,46.88294,0,0,0,0,2
440496680,440495757,2162698,-3.763685,0.22026655,-5.115212,46.88294,0,0,0,0,2
440596780,440595849,2162698,-1.9812019,-1.8423382,-9.498995,46.88294,0,0,0,0,2
440696882,440695888,2162698,-2.9783869,-0.9552865,-13.27944,46.88294,0,0,0,0,2
440796879,440795954,2162698,-2.8658595,-3.7984009,-5.8478374,46.88294,0,0,0,0,2
440896970,440896025,2162698,-3.788824,-0.20949265,-8.544906,46.88294,0,0,0,0,2
440997052,440996087,2162698,-3.2202013,0.2765303,-10.613496,46.88294,0,0,0,0,2
441097081,441096153,2162698,-3.0142999,-0.25498247,-10.563218,46.88294,0,0,0,0,2
441197148,441196219,2162698,-3.181894,-1.555034,-6.39611,46.88294,0,0,0,0,2
441297216,441296285,2162698,-2.445677,0.22146365,-6.7229185,46.88294,0,0,0,0,2
441397299,441396351,2162698,-1.3982137,-0.6691794,-12.774263,46.788822,0,0,0,0,2
441497335,441496417,2162698,-3.3758245,-3.4955344,-10.6637745,46.788822,0,0,0,0,2
441597458,441596500,2162698,-1.389834,0.82480246,-10.893618,46.788822,0,0,0,0,2
441697482,441696549,2162698,-3.0178912,-1.0283096,-10.328587,46.788822,0,0,0,0,2
441797549,441796615,2162698,-1.7441759,0.093373865,-11.293449,46.788822,0,0,0,0,2
441897602,441896685,2162698,-2.96881,0.0035913025,-5.744887,46.788822,0,0,0,0,2
441997691,441996768,2162698,-1.9381063,-2.098518,-5.1583076,46.788822,0,0,0,0,2
442097742,442096813,2162698,-0.5638345,-1.0187328,-9.314642,46.788822,0,0,0,0,2
442197810,442196879,2162698,0.32441434,2.4983494,-7.4603324,46.788822,0,0,0,0,2
442302946,442301948,2162698,3.7349546,-4.8255134,-15.526398,46.788822,0,0,0,0,2
442402956,442402019,2162698,3.4093432,-6.353014,-13.791799,46.788822,0,0,0,0,2
442498001,442497077,2162698,0.79367787,2.9640217,-0.50397944,46.788822,0,0,0,0,2
442598085,442597147,2162698,3.4380736,-5.767632,-14.405911,46.788822,0,0,0,0,2
442703138,442702211,2162698,4.2173862,-7.8422074,-12.998121,46.788822,0,0,0,0,2
442798278,442797273,2162698,1.5047557,-0.48362875,1.0354922,46.788822,0,0,0,0,2
442898267,442897338,2162698,3.1423898,-5.0158525,-23.001095,46.788822,0,0,0,0,2
443003354,443002414,2162698,3.834314,-4.6519337,-11.850101,46.788822,0,0,0,0,2
443098395,443097469,2162698,0.2825158,1.9141643,-8.881291,46.788822,0,0,0,0,2
443198470,443197534,2162698,4.5513773,-4.7680526,-19.285295,46.788822,0,0,0,0,2
443298656,443297606,2162698,0.9564836,1.7058687,-14.197616,46.788822,0,0,0,0,2
443398699,443397664,2162698,1.3838485,2.2529438,-22.862232,46.318233,0,0,0,0,2
443498652,443497728,2162698,3.5577838,-2.3068132,-13.139379,46.318233,0,0,0,0,2
443598732,443597797,2162698,0.21308395,3.9432502,-19.632454,46.318233,0,0,0,0,2
443703784,443702858,2162698,1.6220716,0.7134721,-24.893713,46.318233,0,0,0,0,2
443803845,443802926,2162698,3.1950622,-2.3594859,-14.184448,46.318233,0,0,0,0,2
443898905,443897987,2162698,4.2197804,-5.333084,-19.916166,46.318233,0,0,0,0,2
443996489,443995555,2162698,4.378995,-6.165868,-24.772007,46.318233,0,0,0,0,3
444096618,444095615,2162698,0.88824886,0.5602432,-15.954961,46.318233,0,0,0,0,3
444196622,444195683,2162698,2.3447216,-2.70465,-25.301126,46.318233,0,0,0,0,3
444296669,444295744,2162698,2.811591,-2.7860527,-12.5160885,46.318233,0,0,0,0,3
444396736,444395811,2162698,3.0653763,-1.0470642,-19.160797,46.224117,0,0,0,0,3
444496797,444495872,2162698,0.53789735,0.17477673,-9.91439,46.224117,0,0,0,0,3
444596861,444595936,2162698,0.01755748,0.7294335,-12.409147,46.224117,0,0,0,0,3
444697012,444696000,2162698,1.1244768,-0.54428184,0.35913026,46.224117,0,0,0,0,3
444797015,444796064,2162698,0.5953582,-0.31842884,-7.961519,46.224117,0,0,0,0,3
444897098,444896138,2162698,2.940878,-0.82998997,-10.654198,46.224117,0,0,0,0,3
444997162,444996197,2162698,3.725378,-2.6408045,-13.620614,46.224117,0,0,0,0,3
445097269,445096270,2162698,3.7221856,-2.9823773,-13.109851,46.224117,0,0,0,0,3
445197256,445196323,2162698,3.809175,-4.9320555,-14.282211,46.224117,0,0,0,0,3
445297322,445296391,2162698,-1.0079589,2.6072857,-8.345389,46.224117,0,0,0,0,3
445397424,445396461,2162698,0.83238417,1.9720242,-7.04853,45.847645,0,0,0,0,3
445497560,445496510,2162698,1.1005348,1.9065827,-13.057977,45.847645,0,0,0,0,3
445597511,445596573,2162698,0.016759412,2.0582154,-7.203355,45.847645,0,0,0,0,3
445697651,445696636,2162698,1.5562311,-1.6057113,-6.789956,45.847645,0,0,0,0,3
445797641,445796699,2162698,3.3574688,-4.369418,-7.626331,45.847645,0,0,0,0,3
445897688,445896759,2162698,2.0374658,-4.592877,-12.657347,45.847645,0,0,0,0,3
445997771,445996832,2162698,0.22744916,0.034316894,-8.000625,45.847645,0,0,0,0,3
446097934,446096898,2162698,0.80524987,1.5402699,-6.9719157,45.847645,0,0,0,0,3
446197896,446196951,2162698,3.5889084,-3.1755097,-3.881001,45.847645,0,0,0,0,3
446298027,446297014,2162698,-0.2561796,3.3558729,0.76295227,45.847645,0,0,0,0,3
446398069,446397123,2162698,1.9081788,0.30166942,-11.25594,45.565292,0,0,0,0,3
446498065,446497140,2162698,2.3550966,-2.5306714,-11.461842,45.565292,0,0,0,0,3
446598128,446597203,2162698,0.343967,1.0710063,-7.586427,45.565292,0,0,0,0,3
446698190,446697265,2162698,2.4851813,-3.8059828,-15.734694,45.565292,0,0,0,0,3
446798259,446797327,2162698,2.6631503,-1.803632,-9.006987,45.565292,0,0,0,0,3
446898468,446897421,2162698,0.48283067,2.253742,-8.788317,45.565292,0,0,0,0,3
446998521,446997469,2162698,2.551421,-1.5338852,-14.994885,45.565292,0,0,0,0,3
447098562,447097515,2162698,2.8602731,-2.5250847,-6.682217,45.565292,0,0,0,0,3
447196055,447195118,2162698,2.847903,-3.9995139,-8.754398,45.565292,0,0,0,0,2
447296058,447295137,2162698,-0.93613285,3.537433,-10.766725,45.565292,0,0,0,0,2
447398676,447397715,2162698,2.1404164,-1.1699666,-7.0046363,45.377056,0,0,0,0,3
447498715,447497763,2162698,-0.58657944,2.2234154,-12.803393,45.377056,0,0,0,0,3
447596257,447595324,2162698,-0.90141696,2.6898856,-11.6585655,45.377056,0,0,0,0,2
447696332,447695396,2162698,2.5438392,-3.6367924,-17.00362,45.377056,0,0,0,0,2
447798980,447797953,2162698,-0.01755748,1.5801731,-10.6637745,45.377056,0,0,0,0,3
447896533,447895517,2162698,-0.9864111,3.5673606,-11.463438,45.377056,0,0,0,0,2
447996510,447995579,2162698,3.2453403,-4.5884876,-14.654908,45.377056,0,0,0,0,2
448096567,448095632,2162698,1.0965444,0.34117374,-3.4093432,45.377056,0,0,0,0,2
448196625,448195694,2162698,-0.19752164,1.8938135,-14.217967,45.377056,0,0,0,0,2
448296758,448295755,2162698,3.0370448,-5.009867,-14.310143,45.377056,0,0,0,0,2
448396740,448395816,2162698,0.7230489,0.12689269,-3.6104562,45.047646,0,0,0,0,2
448496892,448495878,2162698,-0.16639702,1.5119383,-13.336901,45.047646,0,0,0,0,2
448596864,448595939,2162698,3.0478187,-3.608062,-13.139379,45.047646,0,0,0,0,2
448696920,448696000,2162698,0.78290397,0.40342298,-5.483919,45.047646,0,0,0,0,2
448797100,448796068,2162698,-1.1911154,3.1435869,-16.102203,45.047646,0,0,0,0,2
448897170,448896135,2162698,2.743755,-4.6040497,-14.686033,45.047646,0,0,0,0,2
448997120,448996184,2162698,0.17238252,0.32441434,-7.047333,45.047646,0,0,0,0,2
449097235,449096244,2162698,-0.1592144,0.33997664,-15.514427,45.047646,0,0,0,0,2
449197231,449196307,2162698,3.0933087,-4.5537715,-6.88333,45.047646,0,0,0,0,2
449297303,449296366,2162698,-0.9588778,2.6803088,-6.215348,45.047646,0,0,0,0,2
449497422,449496489,2162698,2.1619642,-2.1655555,-5.949591,44.81235,0,0,0,0,2
449597563,449596551,2162698,-1.2138603,3.752911,-12.522872,44.81235,0,0,0,0,2
449697531,449696603,2162698,1.1731589,-2.148796,-14.185645,44.81235,0,0,0,0,2
449797604,449796677,2162698,0.6488287,-1.3634979,-5.445612,44.81235,0,0,0,0,2
449897731,449896778,2162698,0.09696517,-0.80086046,-14.970943,44.81235,0,0,0,0,2
449997817,449996793,2162698,2.6647465,-5.29358,-17.58182,44.81235,0,0,0,0,2
450097776,450096850,2162698,0.60812724,-0.7182605,-5.499481,44.81235,0,0,0,0,2
450197847,450196910,2162698,-0.8690952,2.9999347,-15.07988,44.81235,0,0,0,0,2
450298029,450296974,2162698,2.0685902,-4.175488,-10.742783,44.81235,0,0,0,0,2
450397957,450397031,2162698,-0.5758055,2.31639,-6.075287,44.53,0,0,0,0,2
450498015,450497091,2162698,0.29807812,-0.089782566,-17.386692,44.53,0,0,0,0,2
450598158,450597151,2162698,1.3551182,-2.2038627,-7.08564,44.53,0,0,0,0,2
450698203,450697215,2162698,-1.7645266,2.8993783,-14.032416,44.53,0,0,0,0,2
450898336,450897330,2162698,-0.39264908,0.6500258,-5.9148755,44.53,0,0,0,0,2
450998415,450997398,2162698,-0.36750996,0.020350715,-15.620969,44.53,0,0,0,0,2
451098487,451097452,2162698,2.0590134,-3.9803603,-7.586028,44.53,0,0,0,0,2
451198464,451197512,2162698,-1.9153614,3.5446155,-12.376825,44.53,0,0,0,0,2
451298510,451297568,2162698,2.1990743,-3.1842883,-12.477382,44.53,0,0,0,0,2
451398653,451397627,2162698,-0.11971009,0.16160862,-3.2513258,44.341763,0,0,0,0,2
451498659,451497710,2162698,-1.7166426,3.3087866,-13.043611,44.341763,0,0,0,0,2
451598692,451597751,2162698,1.8950106,-3.9995139,-10.231621,44.341763,0,0,0,0,2
451698736,451697808,2162698,-1.3802572,2.753332,-5.243302,44.341763,0,0,0,0,2
451798795,451797872,2162698,0.2837129,0.031124622,-14.268245,44.341763,0,0,0,0,2
451898847,451897924,2162698,1.7405846,-2.3834279,-8.269572,44.341763,0,0,0,0,2
452098966,452098042,2162698,1.5334862,-2.4959552,-10.09156,44.341763,0,0,0,0,2
452196527,452195599,2162698,1.3239936,-2.1180706,-14.380374,44.341763,0,0,0,0,3
452296590,452295658,2162698,-0.2585738,1.0279106,-0.87787396,44.341763,0,0,0,0,3
452396657,452395728,2162698,-0.34237084,1.9209479,-10.364499,44.05941,0,0,0,0,3
452499195,452498277,2162698,-2.0518308,2.8455088,-10.912771,44.05941,0,0,0,0,2
452599260,452598336,2162698,1.757344,-4.8482585,-16.734272,44.05941,0,0,0,0,2
452696920,452695893,2162698,0.35673606,-1.5211161,-12.923103,44.05941,0,0,0,0,3
452796898,452795957,2162698,0.81482667,-2.4995465,-7.866549,44.05941,0,0,0,0,3
452899531,452898511,2162698,1.0749966,-3.2609026,-13.47337,44.05941,0,0,0,0,2
452997005,452996068,2162698,1.3662912,-1.3726757,-11.861673,44.05941,0,0,0,0,3
453097157,453096122,2162698,0.11571975,-1.0007763,-8.882488,44.05941,0,0,0,0,3
453202226,453201194,2162698,0.20909362,1.4325308,-2.7820625,44.05941,0,0,0,0,3
453299677,453298747,2162698,0.25977087,1.7956513,-2.6013002,44.05941,0,0,0,0,2
453397254,453396305,2162698,0.02314395,-0.005586471,-7.2991233,43.73,0,0,0,0,3
453497316,453496367,2162698,-1.3910313,2.787649,-13.93186,43.73,0,0,0,0,3
453599843,453598920,2162698,-0.61052144,1.2078748,-3.2465374,43.73,0,0,0,0,2
453699917,453698984,2162698,-1.2641385,4.261679,-12.861651,43.73,0,0,0,0,2
453897530,453896592,2162698,1.351926,-3.6120524,-11.841722,43.73,0,0,0,0,3
453997575,453996650,2162698,0.1292869,-1.1069193,-4.0765276,43.73,0,0,0,0,3
454097767,454096747,2162698,-1.1875241,2.7349765,-6.195396,43.73,0,0,0,0,3
454200207,454199278,2162698,-1.4341269,0.4297592,-6.6067996,43.73,0,0,0,0,2
454300262,454299325,2162698,-2.5761611,3.5446155,-11.976994,43.73,0,0,0,0,2
454497978,454496940,2162698,1.531491,-2.3471158,-12.301409,43.68294,0,0,0,0,3
454600511,454599497,2162698,-2.1212628,2.9173348,-9.312247,43.68294,0,0,0,0,2
454700490,454699559,2162698,1.0749966,-2.5570073,-16.982073,43.68294,0,0,0,0,2
454798120,454797112,2162698,-0.25937185,0.76055807,-15.192806,43.68294,0,0,0,0,3
454898111,454897185,2162698,2.8538885,-4.189853,-9.070034,43.68294,0,0,0,0,3
455000709,454999781,2162698,-1.1994951,1.6304513,-15.173253,43.68294,0,0,0,0,2
455100716,455099784,2162698,1.9692309,-3.715801,-14.539987,43.68294,0,0,0,0,2
455198347,455197340,2162698,0.5123592,-0.81722087,-16.383522,43.68294,0,0,0,0,3
455298330,455297404,2162698,2.4253263,-3.630408,-6.3510194,43.68294,0,0,0,0,3
455400892,455399962,2162698,-1.5562311,1.3611037,-15.59583,43.40059,0,0,0,0,2
455500935,455500012,2162698,2.2385786,-4.7620673,-13.608643,43.40059,0,0,0,0,2
455596028,455595104,2162698,-1.6639702,2.6791117,-9.288305,43.40059,0,0,0,0,2
455701176,455700142,2162698,-0.7745243,-0.009576807,-13.196839,43.40059,0,0,0,0,2
455801129,455800183,2162698,0.020350715,-0.055066638,-12.295423,43.40059,0,0,0,0,2
455898680,455897738,2162698,-1.2210429,3.2984118,-10.833763,43.40059,0,0,0,0,3
455996310,455995301,2162698,1.9273324,-2.2002714,-2.9999347,43.40059,0,0,0,0,2
456101296,456100364,2162698,-0.2873042,-0.053869538,-11.179725,43.40059,0,0,0,0,2
456201411,456200410,2162698,-1.4401124,3.454833,-12.263102,43.40059,0,0,0,0,2
456296437,456295495,2162698,-0.46327803,0.90261406,-15.018827,43.40059,0,0,0,0,2
456396523,456395521,2162698,-2.493561,3.1603463,-9.440337,43.212353,0,0,0,0,2
456496588,456495578,2162698,-1.922544,2.741361,-4.301183,43.212353,0,0,0,0,2
456601648,456600647,2162698,2.397793,-5.103241,-10.181343,43.212353,0,0,0,0,2
456701622,456700693,2162698,0.077811554,-2.741361,-16.456545,43.212353,0,0,0,0,2
456796740,456795747,2162698,0.62249243,-4.794389,-12.418724,43.212353,0,0,0,0,2
456896807,456895803,2162698,0.80684596,-1.412579,-14.15452,43.212353,0,0,0,0,2
457001786,457000862,2162698,-1.9093759,2.859874,-11.52449,43.212353,0,0,0,0,2
457096838,457095915,2162698,2.5031378,-4.086902,-3.4213142,43.212353,0,0,0,0,2
457196890,457195972,2162698,-2.372654,1.9500773,-8.913613,43.212353,0,0,0,0,2
457296954,457296028,2162698,1.7609353,-3.4284968,-21.894974,43.212353,0,0,0,0,2
457404599,457403588,2162698,-0.08619127,1.2880806,-19.404207,43.118233,0,0,0,0,3
457502065,457501144,2162698,0.9588778,0.25378537,-26.11715,43.118233,0,0,0,0,2
457597210,457596204,2162698,-1.0833763,3.6475663,-24.867376,43.118233,0,0,0,0,2
457702209,457701254,2162698,2.3942018,-4.477157,-22.18587,43.118233,0,0,0,0,2
457802239,457801314,2162698,-1.9895816,1.9536686,-22.616827,43.118233,0,0,0,0,2
457897296,457896363,2162698,-1.5179238,1.5215151,-17.693151,43.118233,0,0,0,0,2
457997437,457996419,2162698,2.457648,-5.019444,-18.596962,43.118233,0,0,0,0,2
458102429,458101502,2162698,1.3156139,-1.839944,-17.27656,43.118233,0,0,0,0,2
458202458,458201532,2162698,2.5019407,2.4289176,-31.951818,43.118233,0,0,0,0,2
458297527,458296594,2162698,-0.40462008,4.8817773,-20.312407,43.118233,0,0,0,0,2
458397574,458396644,2162698,3.2680852,-7.2592196,-13.700819,43.024117,0,0,0,0,2
458502641,458501701,2162698,1.7310078,-4.9679685,-8.288726,43.024117,0,0,0,0,2
458602700,458601761,2162698,0.56982,0.41299978,-13.833697,43.024117,0,0,0,0,2
458697733,458696809,2162698,1.0737995,-4.1024647,-9.441534,43.024117,0,0,0,0,2
458797785,458796865,2162698,1.210269,0.22146365,-5.759252,43.024117,0,0,0,0,2
458902845,458901923,2162698,0.33279404,3.751714,-10.800244,43.024117,0,0,0,0,2
459097963,459097031,2162698,-1.8339585,4.489128,-20.396204,43.024117,0,0,0,0,2
459203015,459202090,2162698,3.1866825,-5.568913,-9.194932,43.024117,0,0,0,0,2
459298120,459297142,2162698,3.0023289,-7.037756,-16.903065,43.024117,0,0,0,0,2
459398126,459397207,2162698,-1.9033904,0.24420857,-9.758766,42.788822,0,0,0,0,2
459503188,459502261,2162698,-0.7170634,0.700304,-11.953052,42.788822,0,0,0,0,2
459598226,459597308,2162698,-1.8267759,3.2273839,-2.372654,42.788822,0,0,0,0,2
459698295,459697363,2162698,-3.2752678,4.7919946,-3.4165258,42.788822,0,0,0,0,2
459803344,459802418,2162698,0.7098808,-1.2749124,-2.220622,42.788822,0,0,0,0,2
459903418,459902483,2162698,-0.8810662,0.6356605,-3.132813,42.788822,0,0,0,0,2
459998485,459997529,2162698,-0.22864626,-1.8650831,-9.419987,42.788822,0,0,0,0,2
460098635,460097584,2162698,0.7146692,-3.9947255,-12.237962,42.788822,0,0,0,0,2
460203583,460202641,2162698,-2.183512,0.4249708,-7.9726915,42.788822,0,0,0,0,2
460303627,460302702,2162698,-1.0618285,-0.62488663,-11.292253,42.788822,0,0,0,0,2
460398697,460397756,2162698,0.37469256,-2.5342624,-5.357026,42.647648,0,0,0,0,2
460498828,460497815,2162698,-1.6352397,1.055843,-4.5022964,42.647648,0,0,0,0,2
460603783,460602861,2162698,2.2254105,-3.3243492,-10.020931,42.647648,0,0,0,0,2
460698831,460697913,2162698,-2.6539726,2.1188686,-12.594698,42.647648,0,0,0,0,2
460798894,460797968,2162698,-0.5530606,-1.0486604,-9.094376,42.647648,0,0,0,0,2
460896492,460895548,2162698,-2.9400797,2.7134287,-3.2864408,42.647648,0,0,0,0,3
460996539,460995578,2162698,-2.6080837,2.2752898,-9.178572,42.647648,0,0,0,0,3
461196629,461195686,2162698,-1.2433888,-3.7173972,-9.109139,42.647648,0,0,0,0,3
461296684,461295753,2162698,-3.1874807,-0.94411355,-11.292651,42.647648,0,0,0,0,3
461396720,461395795,2162698,-1.1955048,-2.2465594,-7.0150113,42.553528,0,0,0,0,3
461496774,461495849,2162698,-3.015098,-1.448492,-10.931925,42.553528,0,0,0,0,3
461596829,461595904,2162698,-1.0111512,-3.0494149,-15.388332,42.553528,0,0,0,0,3
461696884,461695958,2162698,-2.7373707,0.29688102,-9.811439,42.553528,0,0,0,0,3
461796948,461796013,2162698,-1.9776107,-1.4532804,-11.658167,42.553528,0,0,0,0,3
461897003,461896067,2162698,-0.7302315,-0.8651049,-8.987833,42.553528,0,0,0,0,3
461997081,461996145,2162698,-3.5314476,-0.50118625,-8.422004,42.553528,0,0,0,0,3
462097150,462096182,2162698,-0.8403648,-0.1731806,-17.427395,42.553528,0,0,0,0,3
462197187,462196240,2162698,-1.4963762,-1.910573,-16.750633,42.553528,0,0,0,0,3
462297244,462296285,2162698,-1.3806564,-1.1699666,-20.983582,42.553528,0,0,0,0,3
462397307,462396344,2162698,-1.4325308,-3.8658378,-22.92528,42.36529,0,0,0,0,3
462497353,462496409,2162698,-2.5641901,-0.23064144,-16.338034,42.36529,0,0,0,0,3
462597402,462596447,2162698,0.11971009,-4.2098045,-21.283655,42.36529,0,0,0,0,3
462697452,462696501,2162698,-1.9161595,0.010374874,-20.11768,42.36529,0,0,0,0,3
462797489,462796556,2162698,-2.1212628,0.61131954,-19.277315,42.36529,0,0,0,0,3
462897548,462896612,2162698,-1.1228806,-0.060653113,-17.791313,42.36529,0,0,0,0,3
462997595,462996664,2162698,-0.91538316,0.6592035,-23.631569,42.36529,0,0,0,0,3
463097645,463096718,2162698,0.051076304,-3.4867558,-22.033041,42.36529,0,0,0,0,3
463197699,463196773,2162698,-0.31763077,-2.648785,-11.275892,42.36529,0,0,0,0,3
463297772,463296847,2162698,-3.288037,-0.025538152,-10.648611,42.36529,0,0,0,0,3
463397893,463396880,2162698,-0.7406064,-1.7868726,-10.95507,42.271175,0,0,0,0,3
463497886,463496938,2162698,-2.8690517,0.9185754,-8.773952,42.271175,0,0,0,0,3
463597948,463597001,2162698,-0.54188764,-2.1404164,-9.324617,42.271175,0,0,0,0,3
463697989,463697053,2162698,-2.2824724,1.6671625,-7.6231384,42.271175,0,0,0,0,3
463798054,463797128,2162698,-1.6344417,-1.185928,-8.143478,42.271175,0,0,0,0,3
463898089,463897151,2162698,-0.6416461,-0.2362279,-4.143565,42.271175,0,0,0,0,3
463998142,463997211,2162698,-2.5657861,1.6950948,-5.6982,42.271175,0,0,0,0,3
464098266,464097258,2162698,-1.4572709,-2.6791117,-9.990206,42.271175,0,0,0,0,3
464198243,464197312,2162698,-0.7565678,-0.3455631,-5.0158525,42.271175,0,0,0,0,3
464298311,464297366,2162698,-2.4580472,-1.9504764,-8.830614,42.271175,0,0,0,0,3
464398351,464397420,2162698,-1.2505714,-1.5849615,-8.7771435,42.129997,0,0,0,0,3
464498411,464497474,2162698,-2.8179755,0.9552865,-10.000581,42.129997,0,0,0,0,3
464598487,464597528,2162698,-1.1332555,-1.7701131,-4.9927087,42.129997,0,0,0,0,3
464698630,464697581,2162698,-1.6535953,-0.462879,-10.681332,42.129997,0,0,0,0,3
464898627,464897688,2162698,-2.7916393,3.5689569,-9.280725,42.129997,0,0,0,0,3
464998713,464997747,2162698,0.6440403,-3.5043132,-11.453861,42.129997,0,0,0,0,3
465098846,465097816,2162698,0.19792068,-4.9528055,-15.543158,42.129997,0,0,0,0,3
465196290,465195348,2162698,-0.6584055,0.8798691,-8.593987,42.129997,0,0,0,0,2
465298843,465297907,2162698,-0.090979666,-0.035913028,-7.5169954,42.129997,0,0,0,0,3
465396394,465395458,2162698,-2.2864625,0.7290344,-11.473015,42.17706,0,0,0,0,2
465496525,465495516,2162698,-2.2290018,1.9608512,-8.991425,42.17706,0,0,0,0,2
465596498,465595562,2162698,1.3120226,-4.677073,-17.209522,42.17706,0,0,0,0,2
465696545,465695615,2162698,0.22744916,-2.124854,-21.50113,42.17706,0,0,0,0,2
465796594,465795668,2162698,-1.6220716,0.2896984,-10.289082,42.17706,0,0,0,0,2
465896653,465895722,2162698,-3.4488475,2.4193408,-4.5884876,42.17706,0,0,0,0,2
465996698,465995780,2162698,-2.005144,1.2246342,-4.295198,42.17706,0,0,0,0,2
466096761,466095843,2162698,1.5586253,-5.4432178,-1.9177556,42.17706,0,0,0,0,2
466196819,466195898,2162698,-1.567005,0.35913026,-11.112687,42.17706,0,0,0,0,2
466296862,466295935,2162698,-3.702633,3.9959226,-9.070433,42.17706,0,0,0,0,2
466396913,466395988,2162698,-0.15203181,-0.06823475,-9.518148,41.894703,0,0,0,0,2
466496971,466496041,2162698,1.3467385,-5.792771,-14.738706,41.894703,0,0,0,0,2
466597029,466596095,2162698,-2.4169466,-0.051475335,-14.911088,41.894703,0,0,0,0,2
466697085,466696148,2162698,-2.2182279,2.6982653,-21.511902,41.894703,0,0,0,0,2
466797138,466796208,2162698,0.025139118,-1.0402806,-25.04335,41.894703,0,0,0,0,2
466897177,466896259,2162698,0.46806642,-5.8813562,-24.024616,41.894703,0,0,0,0,2
466997225,466996307,2162698,0.8750807,-1.8842367,-30.29503,41.894703,0,0,0,0,2
467097299,467096364,2162698,-2.2469583,3.9264908,-12.849681,41.894703,0,0,0,0,2
467197334,467196413,2162698,0.17597382,1.5693992,-9.762358,41.894703,0,0,0,0,2
467297398,467296466,2162698,0.11731588,2.3894134,-26.916813,41.894703,0,0,0,0,2
467397446,467396519,2162698,0.59495914,1.532289,-19.376274,41.800587,0,0,0,0,2
467497527,467496579,2162698,1.2773066,-2.135628,-18.182764,41.800587,0,0,0,0,2
467597550,467596632,2162698,0.038307227,-4.4687777,-3.821146,41.800587,0,0,0,0,2
467697605,467696678,2162698,-2.2601264,-3.9109285,-8.9124155,41.800587,0,0,0,0,2
467797662,467796730,2162698,-0.50996494,-5.222951,-14.4933,41.800587,0,0,0,0,2
467897706,467896783,2162698,-1.9812019,0.8762778,-9.52174,41.800587,0,0,0,0,2
467997787,467996842,2162698,-0.17597382,-1.7166426,-7.7907324,41.800587,0,0,0,0,2
468097880,468096890,2162698,-0.6332663,3.4703953,-4.4364557,41.800587,0,0,0,0,2
468197871,468196942,2162698,-2.1057005,2.2828712,-8.072051,41.800587,0,0,0,0,2
468297963,468297019,2162698,-1.9021933,-0.427365,-8.887277,41.800587,0,0,0,0,2
468397980,468397047,2162698,-1.6220716,-0.61291564,-6.8091097,41.894703,0,0,0,0,2
468498025,468497100,2162698,-1.1803415,-1.1695676,-12.656947,41.894703,0,0,0,0,2
468598075,468597152,2162698,-1.8531121,-1.1324574,-8.765172,41.894703,0,0,0,0,2
468698156,468697221,2162698,-1.7513585,-1.685518,-5.5605335,41.894703,0,0,0,0,2
468798244,468797257,2162698,-2.2182279,0.025139118,-6.83784,41.894703,0,0,0,0,2
468898237,468897310,2162698,-2.220622,2.6013002,-0.20709845,41.894703,0,0,0,0,2
468998287,468997359,2162698,-1.5622166,-0.2777274,-5.2277393,41.894703,0,0,0,0,2
469098390,469097462,2162698,-1.6244658,-0.4405331,-7.4591355,41.894703,0,0,0,0,2
469198409,469197475,2162698,-2.255338,-2.5210943,-2.31639,41.894703,0,0,0,0,2
469298470,469297523,2162698,-2.5366566,-2.5605986,0.32441434,41.894703,0,0,0,0,2
469398525,469397575,2162698,-2.4660277,-3.0945058,3.3183637,41.70647,0,0,0,0,2
469498571,469497626,2162698,-3.252523,-1.13964,0.8391677,41.70647,0,0,0,0,2
469598608,469597685,2162698,-2.055422,-2.0685902,1.1360487,41.70647,0,0,0,0,2
469698683,469697735,2162698,-2.1021092,1.2090719,-0.93972415,41.70647,0,0,0,0,2
469798720,469797783,2162698,-1.827973,1.5682021,-6.706159,41.70647,0,0,0,0,2
469898766,469897836,2162698,-0.25977087,-0.45130703,-12.388797,41.70647,0,0,0,0,2
469998813,469997888,2162698,-2.5342624,0.01436521,-19.590555,41.70647,0,0,0,0,2
470098862,470097941,2162698,-2.0721815,-2.7509377,-7.914034,41.70647,0,0,0,0,2
470198912,470197993,2162698,-2.0099323,-3.2932243,-13.763068,41.70647,0,0,0,0,2
470296505,470295544,2162698,0.8228073,-1.4812129,-22.802378,41.70647,0,0,0,0,3
470396538,470395597,2162698,0.13327724,1.6424224,-24.313118,41.847645,0,0,0,0,3
470499071,470498151,2162698,1.2162545,-1.6675615,-20.387825,41.847645,0,0,0,0,2
470599125,470598198,2162698,-0.7529764,-2.232593,-15.462952,41.847645,0,0,0,0,2
470796732,470795807,2162698,-2.480393,-2.1539836,-8.378908,41.847645,0,0,0,0,3
470899293,470898361,2162698,-1.8950106,0.2633622,-8.428787,41.847645,0,0,0,0,2
470996837,470995912,2162698,-3.5442166,-0.7086837,-9.069236,41.847645,0,0,0,0,3
471099490,471098470,2162698,-1.6663644,-0.23223756,-10.123882,41.847645,0,0,0,0,2
471199453,471198518,2162698,-1.2689269,0.8379706,-11.317391,41.847645,0,0,0,0,2
471297005,471296070,2162698,-0.44532153,0.93932515,-18.132887,41.847645,0,0,0,0,3
471397079,471396143,2162698,0.053470507,-2.2689052,-9.499394,41.70647,0,0,0,0,3
471499608,471498676,2162698,-1.0941502,-2.8526914,-2.554613,41.70647,0,0,0,0,2
471599647,471598728,2162698,-0.5542577,-3.6140475,-11.933898,41.70647,0,0,0,0,2
471697211,471696279,2162698,-1.1348516,-0.76534647,-8.724471,41.70647,0,0,0,0,3
471899804,471898886,2162698,0.63206923,-4.4568067,-9.623494,41.70647,0,0,0,0,2
471999865,471998938,2162698,-0.18076223,-3.9384618,-6.0130377,41.70647,0,0,0,0,2
472097470,472096516,2162698,-1.5131356,1.377464,-13.409126,41.70647,0,0,0,0,3
472197553,472196542,2162698,-0.09975841,0.4700616,-11.851298,41.70647,0,0,0,0,3
472300020,472299100,2162698,-1.5310919,-1.0307038,-2.1906946,41.70647,0,0,0,0,2
472397572,472396647,2162698,-0.9864111,-2.3894134,-6.2720103,41.70647,0,0,0,0,3
472497624,472496699,2162698,0.22585303,-1.0231222,-12.571954,41.70647,0,0,0,0,3
472600269,472599253,2162698,-1.352724,-0.2717419,-10.126276,41.70647,0,0,0,0,2
472700244,472699313,2162698,-1.6065093,-0.60094464,-11.36767,41.70647,0,0,0,0,2
472797817,472796869,2162698,-0.89782566,0.47085968,-10.522516,41.70647,0,0,0,0,3
472900355,472899411,2162698,-0.59136784,-1.3551182,-6.7887588,41.70647,0,0,0,0,2
473000466,472999463,2162698,-0.21667525,-2.337938,-6.232107,41.70647,0,0,0,0,2
473098047,473097024,2162698,-1.365493,-0.6855398,-3.0613859,41.70647,0,0,0,0,3
473198003,473197072,2162698,0.5538587,-4.082912,-10.609506,41.70647,0,0,0,0,3
473300541,473299620,2162698,0.2885013,-1.5801731,-9.785102,41.70647,0,0,0,0,2
