timestamp,timestamp_sample,ref_timestamp,ref_lat,ref_lon,x,y,z,delta_xy[0],delta_xy[1],delta_z,vx,vy,vz,z_deriv,delta_vxy[0],delta_vxy[1],delta_vz,ax,ay,az,heading,delta_heading,ref_alt,dist_bottom,eph,epv,evh,evv,vxy_max,vz_max,hagl_min,hagl_max,xy_valid,z_valid,v_xy_valid,v_z_valid,xy_reset_counter,z_reset_counter,vxy_reset_counter,vz_reset_counter,heading_reset_counter,xy_global,z_global,dist_bottom_valid,dist_bottom_sensor_bitfield
394709333,394707136,0,nan,nan,-0.0054858224,-0.004806905,-0.41018534,0.0,0.0,0.0,-0.010057716,-0.00777637,0.14728339,0.11935772,-0.00071485934,-0.0009356753,0.0,-0.02061227,-0.0076354076,0.02965995,-0.22222945,-2.2562287,nan,0.1,0.08612803,0.4840542,0.09485677,0.11357508,inf,inf,inf,inf,0,1,0,1,1,0,1,0,2,0,0,1,0
394809285,394807213,0,nan,nan,-0.0054285214,-0.0046473993,-0.40078846,0.0,0.0,0.0,-0.0074435873,-0.006175146,0.14736784,0.11697878,-0.00071485934,-0.0009356753,0.0,-0.025997099,-0.06742699,0.010784345,-0.22295095,-2.2562287,nan,0.1,0.07901289,0.483414,0.09009531,0.11348821,inf,inf,inf,inf,0,1,0,1,1,0,1,0,2,0,0,1,0
394909219,394907296,0,nan,nan,-0.0052780025,-0.0046478235,-0.3903727,0.0,0.0,0.0,-0.007510463,-0.0083791865,0.14725049,0.11566501,-0.00071485934,-0.0009356753,0.0,-0.030450374,-0.038373627,0.04923884,-0.22282286,-2.2562287,nan,0.1,0.08612775,0.48276627,0.09485296,0.11339918,inf,inf,inf,inf,0,1,0,1,1,0,1,0,2,0,0,1,0
395009521,395007377,0,nan,nan,-0.005157128,-0.0048004603,-0.3803736,0.0,0.0,0.0,-0.00733805,-0.00847357,0.1469854,0.11397563,-0.00071485934,-0.0009356753,0.0,0.0147951115,0.06618002,0.05611521,-0.22249565,-2.2562287,nan,0.1,0.079012774,0.4821273,0.09009616,0.113312,inf,inf,inf,inf,0,1,0,1,1,0,1,0,2,0,0,1,0
395109631,395107470,0,nan,nan,-0.0050301203,-0.00468504,-0.36843547,0.0,0.0,0.0,-0.0077192714,-0.006273582,0.14656024,0.114100195,-0.00071485934,-0.0009356753,0.0,0.016424933,-0.010334844,0.02039503,-0.22273614,-2.2562287,nan,0.1,0.08612776,0.48611927,0.09485732,0.113852,inf,inf,inf,inf,0,1,0,1,1,0,1,0,2,0,0,1,0
395219877,395217553,0,nan,nan,-0.004775541,-0.004426356,-0.35561985,0.0,0.0,0.0,-0.0069438242,-0.0077520544,0.14642046,0.114275314,-0.00071485934,-0.0009356753,0.0,-0.0048978296,-0.10180624,-0.0018230878,-0.22225729,-2.2562287,nan,0.1,0.07969643,0.48170087,0.09057381,0.11325255,inf,inf,inf,inf,0,1,0,1,1,0,1,0,2,0,0,1,0
395309558,395307622,0,nan,nan,-0.0046872213,-0.004580919,-0.3455566,0.0,0.0,0.0,-0.0077801244,-0.010918567,0.14654014,0.11414897,-0.00071485934,-0.0009356753,0.0,-0.024497587,-0.056666188,-0.007799457,-0.222173,-2.2562287,nan,0.1,0.086128004,0.4848166,0.09486052,0.11367397,inf,inf,inf,inf,0,1,0,1,1,0,1,0,2,0,0,1,0
395509518,395507797,0,nan,nan,-0.00424016,-0.0047666044,-0.326382,0.0,0.0,0.0,-0.007143453,-0.0041091545,0.14761075,0.11197016,-0.00071485934,-0.0009356753,0.0,-0.04429976,0.01363924,0.042813893,-0.22128186,-2.2562287,nan,0.1,0.08612842,0.48351744,0.09486204,0.11349601,inf,inf,inf,inf,0,1,0,1,1,0,1,0,2,0,0,1,0
395609864,395607868,0,nan,nan,-0.0042141653,-0.004465106,-0.3160516,0.0,0.0,0.0,-0.0072322153,-0.007282871,0.14585528,0.1094875,-0.00071485934,-0.0009356753,0.0,0.018657926,-0.07574319,-0.059132185,-0.22197461,-2.2562287,nan,0.1,0.07901341,0.48286504,0.090097904,0.11340622,inf,inf,inf,inf,0,1,0,1,1,0,1,0,2,0,0,1,0
395710334,395707950,0,nan,nan,-0.003988482,-0.004452015,-0.3055894,0.0,0.0,0.0,-0.004992163,-0.007821121,0.14492184,0.10819074,-0.00071485934,-0.0009356753,0.0,-0.035422627,-0.033904854,-0.045518942,-0.22121577,-2.2562287,nan,0.1,0.08612853,0.48222175,0.09486073,0.11331834,inf,inf,inf,inf,0,1,0,1,1,0,1,0,2,0,0,1,0
395810202,395808032,0,nan,nan,-0.003911617,-0.004392225,-0.29575607,0.0,0.0,0.0,-0.0072044437,-0.0053714034,0.14615019,0.10847579,-0.00071485934,-0.0009356753,0.0,0.047975056,-0.007242857,0.05065742,-0.22139321,-2.2562287,nan,0.1,0.0790137,0.48621202,0.09010481,0.113857575,inf,inf,inf,inf,0,1,0,1,1,0,1,0,2,0,0,1,0
395910109,395908114,0,nan,nan,-0.0037488707,-0.0043751835,-0.2865086,0.0,0.0,0.0,-0.0030530272,-0.007086639,0.1447682,0.1056626,-0.00071485934,-0.0009356753,0.0,0.03249696,0.015620363,0.0112537695,-0.22130632,-2.2562287,nan,0.1,0.08612929,0.4855519,0.09486286,0.113767095,inf,inf,inf,inf,0,1,0,1,1,0,1,0,2,0,0,1,0
396010274,396008206,0,nan,nan,-0.0034120798,-0.004378007,-0.280888,0.0,0.0,0.0,-0.005707719,-0.0076283556,0.144546,0.10071003,-0.00071485934,-0.0009356753,0.0,-0.045367014,0.026713386,0.034453347,-0.22113569,-2.2562287,nan,0.1,0.07901417,0.4849009,0.0901071,0.113677986,inf,inf,inf,inf,0,1,0,1,1,0,1,0,2,0,0,1,0
396110024,396108278,0,nan,nan,-0.0033427423,-0.004413408,-0.2761675,0.0,0.0,0.0,-0.005763254,-0.008827412,0.14417627,0.09518785,-0.00071485934,-0.0009356753,0.0,0.0017045429,-0.02354733,0.007035046,-0.22145343,-2.2562287,nan,0.1,0.08612982,0.48425916,0.09486436,0.11359133,inf,inf,inf,inf,0,1,0,1,1,0,1,0,2,0,0,1,0
396210168,396208362,0,nan,nan,-0.0031552585,-0.004545672,-0.27175102,0.0,0.0,0.0,-0.004154773,-0.00827567,0.14165293,0.08792249,-0.00071485934,-0.0009356753,0.0,0.008249298,-0.047125313,0.0013814517,-0.22089542,-2.2562287,nan,0.1,0.07901439,0.4836099,0.09010295,0.11350249,inf,inf,inf,inf,0,1,0,1,1,0,1,0,2,0,0,1,0
396310515,396308442,0,nan,nan,-0.0030301267,-0.0047224057,-0.26603395,0.0,0.0,0.0,-0.005173433,-0.0076906593,0.14259233,0.08605604,-0.00071485934,-0.0009356753,0.0,-0.0015558293,0.07029231,-0.021356137,-0.22130127,-2.2562287,nan,0.1,0.0861299,0.48296958,0.094866306,0.11341551,inf,inf,inf,inf,0,1,0,1,1,0,1,0,2,0,0,1,0
396410837,396408538,0,nan,nan,-0.0028846145,-0.0048195194,-0.258824,0.0,0.0,0.0,-0.0043565226,-0.011384515,0.14146517,0.0838741,-0.00071485934,-0.0009356753,0.0,-0.009696689,-0.057285015,-0.026774686,-0.22120692,-2.2562287,nan,0.1,0.07901469,0.48232177,0.09010256,0.11332657,inf,inf,inf,inf,0,1,0,1,1,0,1,0,2,0,0,1,0
396510700,396508608,0,nan,nan,-0.0028220597,-0.0052179135,-0.25206694,0.0,0.0,0.0,-0.006644524,-0.009800611,0.14249517,0.08360126,-0.00071485934,-0.0009356753,0.0,-0.03041741,0.11505596,0.027014125,-0.22116384,-2.2562287,nan,0.1,0.08613032,0.48168314,0.09486322,0.11323962,inf,inf,inf,inf,0,1,0,1,1,0,1,0,2,0,0,1,0
396610467,396608703,0,nan,nan,-0.0030488141,-0.0052668406,-0.24610734,0.0,0.0,0.0,-0.00344084,-0.0036815805,0.14073895,0.07997485,-0.00071485934,-0.0009356753,0.0,0.03719883,-0.0426201,0.0043457192,-0.22045769,-2.2562287,nan,0.1,0.09309243,0.48566243,0.09913682,0.11377778,inf,inf,inf,inf,0,1,0,1,1,0,1,0,2,0,0,1,0
396710754,396708770,0,nan,nan,-0.0032338044,-0.0057151304,-0.24042392,0.0,0.0,0.0,-0.0057614925,-0.010922281,0.13954459,0.076849185,-0.00071485934,-0.0009356753,0.0,-0.05464886,-0.014451675,0.011808329,-0.2213793,-2.2562287,nan,0.1,0.10134632,0.48500687,0.103949726,0.11368786,inf,inf,inf,inf,0,1,0,1,1,0,1,0,2,0,0,1,0
396811008,396808852,0,nan,nan,-0.0037919853,-0.006763147,-0.23664448,0.0,0.0,0.0,-0.0049460162,-0.013367997,0.13757375,0.07151164,-0.00071485934,-0.0009356753,0.0,0.061853264,0.04927158,0.05740182,-0.22053164,-2.2562287,nan,0.1,0.10894903,0.48436058,0.10796371,0.113600075,inf,inf,inf,inf,0,1,0,1,1,0,1,0,2,0,0,1,0
396910733,396908940,0,nan,nan,-0.0041893674,-0.007741119,-0.23253743,0.0,0.0,0.0,-0.0052755405,-0.010763925,0.13831311,0.06953821,-0.00071485934,-0.0009356753,0.0,-0.044847876,-0.033080157,0.04742854,-0.21986784,-2.2562287,nan,0.1,0.118250616,0.48370695,0.112838626,0.11351037,inf,inf,inf,inf,0,1,0,1,1,0,1,0,2,0,0,1,0
397010760,397009020,0,nan,nan,-0.004968782,-0.008724482,-0.22928207,0.0,0.0,0.0,-0.00797833,-0.011546124,0.1370018,0.064962834,-0.00071485934,-0.0009356753,0.0,0.04120131,-0.055654738,0.035872005,-0.22098522,-2.2562287,nan,0.1,0.12618251,0.48306236,0.11645463,0.1134225,inf,inf,inf,inf,0,1,0,1,1,0,1,0,2,0,0,1,0
397111344,397109127,0,nan,nan,-0.005661555,-0.009992702,-0.22737376,0.0,0.0,0.0,-0.004607012,-0.013403618,0.13551801,0.05944327,-0.00071485934,-0.0009356753,0.0,0.0066290493,-0.003204842,0.051941536,-0.22076754,-2.2562287,nan,0.1,0.13644375,0.48241046,0.121389434,0.11333297,inf,inf,inf,inf,0,1,0,1,1,0,1,0,2,0,0,1,0
397211511,397209178,0,nan,nan,-0.006385766,-0.011299491,-0.22519732,0.0,0.0,0.0,-0.007931404,-0.013362097,0.13474126,0.05541662,-0.00071485934,-0.0009356753,0.0,-0.0098783495,-0.012562912,0.051172845,-0.2208373,-2.2562287,nan,0.1,0.14433514,0.4817677,0.124479026,0.11324496,inf,inf,inf,inf,0,1,0,1,1,0,1,0,2,0,0,1,0
397311066,397309268,0,nan,nan,-0.007241431,-0.0126656415,-0.22284554,0.0,0.0,0.0,-0.0063499683,-0.01496349,0.13194807,0.050061863,-0.00071485934,-0.0009356753,0.0,0.02001602,0.01082305,0.011275482,-0.22120343,-2.2562287,nan,0.1,0.1554678,0.48574543,0.12947528,0.11378271,inf,inf,inf,inf,0,1,0,1,1,0,1,0,2,0,0,1,0
397711364,397709593,0,nan,nan,-0.010476056,-0.018874535,-0.21037087,0.0,0.0,0.0,-0.0095755905,-0.018753523,0.12646636,0.041339055,-0.00071485934,-0.0009356753,0.0,-0.014796146,-0.036810808,-0.042770386,-0.22117415,-2.2562287,nan,0.1,0.19390595,0.48316133,0.14359139,0.11343159,inf,inf,inf,inf,0,1,0,1,1,0,1,0,2,0,0,1,0
397811725,397809676,0,nan,nan,-0.009984202,-0.01830559,-0.20419765,0.0,0.0,0.0,-0.008882327,-0.019275522,0.12571853,0.04303763,-0.00071485934,-0.0009356753,0.0,-0.04587692,-0.020212233,-0.030529223,-0.2208277,-2.2562287,nan,0.1,0.118862435,0.48252138,0.101207145,0.11334424,inf,inf,inf,inf,0,1,0,1,1,0,1,0,2,0,0,1,0
397912330,397909753,0,nan,nan,-0.008676819,-0.016268542,-0.19867192,0.0,0.0,0.0,-0.010013203,-0.017118651,0.12399905,0.043024264,-0.00071485934,-0.0009356753,0.0,0.0074660177,0.035925705,0.042247232,-0.22060649,-2.2562287,nan,0.1,0.12690939,0.4818741,0.10592649,0.113255434,inf,inf,inf,inf,0,1,0,1,1,0,1,0,2,0,0,1,0
398011600,398009835,0,nan,nan,-0.007447923,-0.014159574,-0.19389294,0.0,0.0,0.0,-0.007435702,-0.014208507,0.12359123,0.043447595,-0.00071485934,-0.0009356753,0.0,0.002234297,0.013326175,0.020023776,-0.22028908,-2.2562287,nan,0.1,0.09907305,0.4858504,0.09323567,0.11379245,inf,inf,inf,inf,0,1,0,1,1,0,1,0,2,0,0,1,0
398111740,398109921,0,nan,nan,-0.0063928105,-0.012107796,-0.18951364,0.0,0.0,0.0,-0.010183142,-0.013935105,0.123361886,0.043593552,-0.00071485934,-0.0009356753,0.0,-0.048376113,-0.0800629,-0.011025217,-0.2208573,-2.2562287,nan,0.1,0.105936825,0.48520297,0.09796772,0.11370467,inf,inf,inf,inf,0,1,0,1,1,0,1,0,2,0,0,1,0
398211756,398209999,0,nan,nan,-0.0056477105,-0.010547496,-0.18539588,0.0,0.0,0.0,-0.007006504,-0.013839215,0.12229686,0.042726062,-0.00071485934,-0.0009356753,0.0,0.0072453707,-0.060331363,0.0030768602,-0.22011557,-2.2562287,nan,0.1,0.089421615,0.48454812,0.091438234,0.113615125,inf,inf,inf,inf,0,1,0,1,1,0,1,0,2,0,0,1,0
398312240,398310081,0,nan,nan,-0.0049642315,-0.009382068,-0.18056342,0.0,0.0,0.0,-0.007821901,-0.01063532,0.12252609,0.043893375,-0.00071485934,-0.0009356753,0.0,-0.03581375,0.06568911,0.00021785684,-0.21969637,-2.2562287,nan,0.1,0.09594804,0.4839024,0.09621067,0.11352731,inf,inf,inf,inf,0,1,0,1,1,0,1,0,2,0,0,1,0
398412421,398410170,0,nan,nan,-0.004635465,-0.008235867,-0.17636289,0.0,0.0,0.0,-0.008190683,-0.00915141,0.12134322,0.04292235,-0.00071485934,-0.0009356753,0.0,0.012844711,-0.00043017048,0.0019422343,-0.22035895,-2.2562287,nan,0.1,0.08416633,0.48324934,0.091694064,0.11343768,inf,inf,inf,inf,0,1,0,1,1,0,1,0,2,0,0,1,0
398512271,398510251,0,nan,nan,-0.0043554506,-0.007557931,-0.17402151,0.0,0.0,0.0,-0.007773776,-0.013561061,0.11849107,0.038661417,-0.00071485934,-0.0009356753,0.0,-0.0045725186,0.06998554,-0.070304826,-0.2203517,-2.2562287,nan,0.1,0.09070702,0.48260552,0.09649594,0.113350175,inf,inf,inf,inf,0,1,0,1,1,0,1,0,2,0,0,1,0
398612353,398610329,0,nan,nan,-0.0042844773,-0.007015422,-0.170635,0.0,0.0,0.0,-0.008960078,-0.010393287,0.11853948,0.038575534,-0.00071485934,-0.0009356753,0.0,-0.011773275,0.009041178,-0.00043589744,-0.22062486,-2.2562287,nan,0.1,0.08131772,0.48195437,0.09259159,0.11326051,inf,inf,inf,inf,0,1,0,1,1,0,1,0,2,0,0,1,0
398712877,398710409,0,nan,nan,-0.004353522,-0.0065923287,-0.1687793,0.0,0.0,0.0,-0.009367061,-0.012905344,0.1175722,0.036049936,-0.00071485934,-0.0009356753,0.0,-0.006088121,-0.11544064,-0.010768176,-0.22104055,-2.2562287,nan,0.1,0.08802428,0.4859456,0.09740882,0.11380099,inf,inf,inf,inf,0,1,0,1,1,0,1,0,2,0,0,1,0
398812416,398810491,0,nan,nan,-0.0044955257,-0.0067809904,-0.16688678,0.0,0.0,0.0,-0.009424799,-0.01446426,0.11549934,0.03281267,-0.00071485934,-0.0009356753,0.0,-0.0101210335,0.037870638,0.07938697,-0.21956989,-2.2562287,nan,0.1,0.07990773,0.485294,0.093497396,0.11371238,inf,inf,inf,inf,0,1,0,1,1,0,1,0,2,0,0,1,0
398912619,398910573,0,nan,nan,-0.004752016,-0.006746529,-0.16603267,0.0,0.0,0.0,-0.00936356,-0.008067659,0.1158697,0.031215696,-0.00071485934,-0.0009356753,0.0,0.020103775,0.055736355,0.09011074,-0.21950702,-2.2562287,nan,0.1,0.086823516,0.48465145,0.0983284,0.11362571,inf,inf,inf,inf,0,1,0,1,1,0,1,0,2,0,0,1,0
399012814,399010655,0,nan,nan,-0.004818863,-0.006304806,-0.16538434,0.0,0.0,0.0,-0.007283892,-0.009048965,0.11403689,0.027398616,-0.00071485934,-0.0009356753,0.0,-0.011535537,-0.07198386,0.03191824,-0.22124058,-2.2562287,nan,0.1,0.079353094,0.48401773,0.09414197,0.11354082,inf,inf,inf,inf,0,1,0,1,1,0,1,0,2,0,0,1,0
399112731,399110737,0,nan,nan,-0.0049222573,-0.006376072,-0.16459693,0.0,0.0,0.0,-0.008902432,-0.013602572,0.11160793,0.023582308,-0.00071485934,-0.0009356753,0.0,0.008482902,0.03984797,-0.031120706,-0.22047888,-2.2562287,nan,0.1,0.086461104,0.48337644,0.098966554,0.113453805,inf,inf,inf,inf,0,1,0,1,1,0,1,0,2,0,0,1,0
399212742,399210818,0,nan,nan,-0.0049993414,-0.0064847763,-0.16387907,0.0,0.0,0.0,-0.008536868,-0.010214673,0.10934299,0.020259384,-0.00071485934,-0.0009356753,0.0,-0.028146978,0.088987425,0.06961205,-0.2192263,-2.2562287,nan,0.1,0.07926667,0.48272765,0.09443175,0.11336498,inf,inf,inf,inf,0,1,0,1,1,0,1,0,2,0,0,1,0
399412956,399410982,0,nan,nan,-0.0051748725,-0.005846572,-0.15976259,0.0,0.0,0.0,-0.008064281,-0.01198917,0.10575261,0.017589455,-0.00071485934,-0.0009356753,0.0,0.037708346,-0.068391204,0.030987578,-0.22026522,-2.2562287,nan,0.1,0.0793929,0.48607773,0.09437059,0.11381766,inf,inf,inf,inf,0,1,0,1,1,0,1,0,2,0,0,1,0
399513351,399511064,0,nan,nan,-0.0051118657,-0.006354175,-0.15576899,0.0,0.0,0.0,-0.007823202,-0.014067783,0.104301035,0.018650146,-0.00071485934,-0.0009356753,0.0,-0.03301733,0.14141563,0.10432201,-0.21847233,-2.2562287,nan,0.1,0.0867407,0.485421,0.09918889,0.113727845,inf,inf,inf,inf,0,1,0,1,1,0,1,0,2,0,0,1,0
399613438,399611146,0,nan,nan,-0.005601256,-0.006476016,-0.15215847,0.0,0.0,0.0,-0.011174499,-0.0061648753,0.10492158,0.021196885,-0.00071485934,-0.0009356753,0.0,0.06754591,0.03453601,0.08304676,-0.21935216,-2.2562287,nan,0.1,0.0939708,0.48477346,0.10349517,0.113639936,inf,inf,inf,inf,0,1,0,1,1,0,1,0,2,0,0,1,0
399713253,399711228,0,nan,nan,-0.006073893,-0.00640078,-0.1469698,0.0,0.0,0.0,-0.007018156,-0.007887912,0.10264377,0.022227366,-0.00071485934,-0.0009356753,0.0,0.0020545635,-0.20474091,0.079083234,-0.22030951,-2.2562287,nan,0.1,0.10255527,0.48411852,0.10835191,0.113550425,inf,inf,inf,inf,0,1,0,1,1,0,1,0,2,0,0,1,0
399813386,399811310,0,nan,nan,-0.0066824886,-0.0072385166,-0.14254053,0.0,0.0,0.0,-0.009565791,-0.013890758,0.102112174,0.024091845,-0.00071485934,-0.0009356753,0.0,-0.045225576,-0.1663957,0.08581392,-0.21987154,-2.2562287,nan,0.1,0.110475264,0.4834729,0.11236351,0.11346236,inf,inf,inf,inf,0,1,0,1,1,0,1,0,2,0,0,1,0
399913652,399911407,0,nan,nan,-0.0075853583,-0.008501899,-0.13742469,0.0,0.0,0.0,-0.010623518,-0.0082033025,0.10215978,0.027027974,-0.00071485934,-0.0009356753,0.0,-0.005042914,0.18114717,0.024813224,-0.21808948,-2.2562287,nan,0.1,0.12016864,0.48281994,0.11729153,0.11337279,inf,inf,inf,inf,0,1,0,1,1,0,1,0,2,0,0,1,0
400213773,400211643,0,nan,nan,-0.01067525,-0.01094062,-0.116700314,0.0,0.0,0.0,-0.012452318,-0.009383916,0.10305233,0.039387114,-0.00071485934,-0.0009356753,0.0,-0.059853975,0.050734647,0.06137589,-0.21676856,-2.2562287,nan,0.1,0.14725864,0.48552015,0.12882191,0.113737434,inf,inf,inf,inf,0,1,0,1,1,0,1,0,2,0,0,1,0
400413570,400411808,0,nan,nan,-0.013079289,-0.01178237,-0.110311165,0.0,0.0,0.0,-0.014170686,-0.010406343,0.09966289,0.03504058,-0.00071485934,-0.0009356753,0.0,-0.049823627,-0.087279536,0.043879777,-0.22114195,-2.2562287,nan,0.1,0.16643323,0.48424172,0.13608629,0.11356561,inf,inf,inf,inf,0,1,0,1,1,0,1,0,2,0,0,1,0
400513627,400511894,0,nan,nan,-0.014298962,-0.012934691,-0.10800999,0.0,0.0,0.0,-0.0126712145,-0.01362554,0.09928304,0.033537965,-0.00071485934,-0.0009356753,0.0,0.022523487,0.011901274,0.12211124,-0.21888082,-2.2562287,nan,0.1,0.17878231,0.4835912,0.14119637,0.11347671,inf,inf,inf,inf,0,1,0,1,1,0,1,0,2,0,0,1,0
400614024,400611970,0,nan,nan,-0.015248203,-0.013779591,-0.10723819,0.0,0.0,0.0,-0.01321708,-0.010679517,0.09812681,0.030034753,-0.00071485934,-0.0009356753,0.0,-0.071510755,-0.17260426,0.08364062,-0.21756552,-2.2562287,nan,0.1,0.18534145,0.48294964,0.14248995,0.11338953,inf,inf,inf,inf,0,1,0,1,1,0,1,0,2,0,0,1,0
400714282,400712048,0,nan,nan,-0.01643741,-0.014787941,-0.10744144,0.0,0.0,0.0,-0.0145074455,-0.010669412,0.09702409,0.025909353,-0.00071485934,-0.0009356753,0.0,0.026134694,-0.033460315,0.026381992,-0.22032993,-2.2562287,nan,0.1,0.19834638,0.4823007,0.14763303,0.11330054,inf,inf,inf,inf,0,1,0,1,1,0,1,0,2,0,0,1,0
400814509,400812129,0,nan,nan,-0.017364092,-0.015635027,-0.106129974,0.0,0.0,0.0,-0.011579995,-0.009720426,0.0951991,0.023065113,-0.00071485934,-0.0009356753,0.0,0.008626172,0.038586535,0.030230537,-0.21776539,-2.2562287,nan,0.1,0.20340295,0.48166093,0.14789239,0.113213606,inf,inf,inf,inf,0,1,0,1,1,0,1,0,2,0,0,1,0
401114231,401112395,0,nan,nan,-0.019896941,-0.0170986,-0.0964259,0.0,0.0,0.0,-0.012650884,-0.008178658,0.09383145,0.024788085,-0.00071485934,-0.0009356753,0.0,-0.04955734,0.017432222,-0.109446995,-0.21810815,-2.2562287,nan,0.1,0.23404339,0.4843346,0.15743655,0.11357364,inf,inf,inf,inf,0,1,0,1,1,0,1,0,2,0,0,1,0
401214631,401212510,0,nan,nan,-0.020583339,-0.017183388,-0.089427345,0.0,0.0,0.0,-0.016801372,-0.0086847525,0.094570704,0.029966058,-0.00071485934,-0.0009356753,0.0,-0.032435387,-0.06491356,-0.019056715,-0.21985929,-2.2562287,nan,0.10306462,0.23505986,0.48368,0.15554342,0.11348357,inf,inf,inf,inf,0,1,0,1,1,0,1,0,2,0,0,1,0
401314897,401312553,0,nan,nan,-0.021201741,-0.017593617,-0.07962693,0.0,0.0,0.0,-0.013057771,-0.014883136,0.09560739,0.037702743,-0.00071485934,-0.0009356753,0.0,0.04131066,-0.044534534,0.0039374423,-0.21913086,-2.2562287,nan,0.11139642,0.24927448,0.4830345,0.1607416,0.113396056,inf,inf,inf,inf,0,1,0,1,1,0,1,0,2,0,0,1,0
401414888,401412636,0,nan,nan,-0.0214779,-0.018069739,-0.06861364,0.0,0.0,0.0,-0.014572485,-0.008773541,0.09835036,0.04747794,-0.00071485934,-0.0009356753,0.0,-0.028363584,0.1363858,0.14013878,-0.21786991,-2.2562287,nan,0.10516016,0.24802268,0.48239803,0.15787634,0.113309845,inf,inf,inf,inf,0,1,0,1,1,0,1,0,2,0,0,1,0
401515101,401512712,0,nan,nan,-0.021989655,-0.01753448,-0.060223676,0.0,0.0,0.0,-0.01658504,-0.0030937765,0.09868033,0.05142423,-0.00071485934,-0.0009356753,0.0,0.0024938385,-0.046395775,0.006459624,-0.21937393,-2.2562287,nan,0.1,0.2624005,0.48175412,0.16306552,0.11322208,inf,inf,inf,inf,0,1,0,1,1,0,1,0,2,0,0,1,0
401614926,401612788,0,nan,nan,-0.022328094,-0.017244218,-0.05436063,0.0,0.0,0.0,-0.015285611,-0.011510598,0.09730211,0.05082688,-0.00071485934,-0.0009356753,0.0,0.011267836,-0.08634631,-0.024527907,-0.21981254,-2.2562287,nan,0.1,0.25891057,0.48574674,0.15936217,0.11376317,inf,inf,inf,inf,0,1,0,1,1,0,1,0,2,0,0,1,0
401714838,401712873,0,nan,nan,-0.022441572,-0.017316403,-0.048232257,0.0,0.0,0.0,-0.014995199,-0.009979702,0.09609424,0.05065094,-0.00071485934,-0.0009356753,0.0,-0.029956467,0.06523694,-0.029547656,-0.21867403,-2.2562287,nan,0.1,0.27335197,0.48510218,0.1645468,0.11367604,inf,inf,inf,inf,0,1,0,1,1,0,1,0,2,0,0,1,0
401814825,401812952,0,nan,nan,-0.02263241,-0.016837062,-0.041924167,0.0,0.0,0.0,-0.01758984,-0.0049490696,0.09644706,0.052114505,-0.00071485934,-0.0009356753,0.0,-0.031606946,-0.01574395,-0.054504298,-0.21949562,-2.2562287,nan,0.1,0.2677781,0.48445007,0.16019405,0.11358691,inf,inf,inf,inf,0,1,0,1,1,0,1,0,2,0,0,1,0
401915504,401913030,0,nan,nan,-0.022857916,-0.016293973,-0.03704235,0.0,0.0,0.0,-0.01535938,-0.0076070013,0.09549328,0.050841384,-0.00071485934,-0.0009356753,0.0,0.031256605,-0.056422018,0.045028545,-0.22029164,-2.2562287,nan,0.1,0.28220394,0.48380703,0.16535941,0.11350002,inf,inf,inf,inf,0,1,0,1,1,0,1,0,2,0,0,1,0
402015501,402013116,0,nan,nan,-0.020040208,-0.014188057,-0.033317264,0.0,0.0,0.0,-0.012246892,-0.009866784,0.093071125,0.04715864,-0.00071485934,-0.0009356753,0.0,-0.020483123,0.011778345,-0.06120506,-0.21852767,-2.2562287,nan,0.1,0.12987684,0.48315656,0.102527075,0.11341019,inf,inf,inf,inf,0,1,0,1,1,0,1,0,2,0,0,1,0
402115320,402113194,0,nan,nan,-0.015555328,-0.010621687,-0.03147145,0.0,0.0,0.0,-0.012517676,-0.0042127566,0.093022145,0.04423733,-0.00071485934,-0.0009356753,0.0,0.018421913,0.05799894,0.02662049,-0.21822387,-2.2562287,nan,0.1,0.13697736,0.4825153,0.10729874,0.113323,inf,inf,inf,inf,0,1,0,1,1,0,1,0,2,0,0,1,0
402215487,402213275,0,nan,nan,-0.011889182,-0.007399026,-0.029477209,0.0,0.0,0.0,-0.008264943,-0.0024448067,0.0927262,0.04151045,-0.00071485934,-0.0009356753,0.0,0.04099262,-0.024502115,0.03913735,-0.21881345,-2.2562287,nan,0.1,0.102292754,0.48186666,0.097390175,0.11323408,inf,inf,inf,inf,0,1,0,1,1,0,1,0,2,0,0,1,0
402315908,402313357,0,nan,nan,-0.008906592,-0.004754973,-0.02871509,0.0,0.0,0.0,-0.007858309,-0.001949249,0.09089485,0.036497768,-0.00071485934,-0.0009356753,0.0,0.03075178,-0.054089807,0.056943662,-0.21901192,-2.2562287,nan,0.1,0.108441845,0.4858578,0.10223142,0.11377436,inf,inf,inf,inf,0,1,0,1,1,0,1,0,2,0,0,1,0
402415816,402413439,0,nan,nan,-0.0066099362,-0.00293171,-0.027264187,0.0,0.0,0.0,-0.0051816176,-0.002860197,0.0875815,0.031184215,-0.00071485934,-0.0009356753,0.0,0.039461352,0.0031653624,0.02546459,-0.21855465,-2.2562287,nan,0.1,0.09027372,0.4852086,0.097774684,0.11368628,inf,inf,inf,inf,0,1,0,1,1,0,1,0,2,0,0,1,0
402515690,402513553,0,nan,nan,-0.004739063,-0.0013758347,-0.024704812,0.0,0.0,0.0,-0.0056919465,0.0036785067,0.0887702,0.031717114,-0.00071485934,-0.0009356753,0.0,-0.064090885,0.06157697,-0.060348723,-0.21791776,-2.2562287,nan,0.1,0.09645708,0.4845521,0.102673985,0.1135962,inf,inf,inf,inf,0,1,0,1,1,0,1,0,2,0,0,1,0
402615809,402613603,0,nan,nan,-0.0035433471,2.5274865e-05,-0.021460978,0.0,0.0,0.0,-0.005881226,0.0016712345,0.08928173,0.032280035,-0.00071485934,-0.0009356753,0.0,0.019901058,0.011483149,-0.074618496,-0.2187788,-2.2562287,nan,0.1,0.08432819,0.48390463,0.09928051,0.11350813,inf,inf,inf,inf,0,1,0,1,1,0,1,0,2,0,0,1,0
402716641,402713689,0,nan,nan,-0.0025782934,0.0009229998,-0.017079575,0.0,0.0,0.0,-0.0032922837,-0.00031038641,0.08973698,0.033994924,-0.00071485934,-0.0009356753,0.0,-0.022701818,-0.018581372,0.001443127,-0.2183203,-2.2562287,nan,0.1,0.09088065,0.4832663,0.104192756,0.11342204,inf,inf,inf,inf,0,1,0,1,1,0,1,0,2,0,0,1,0
402816141,402813766,0,nan,nan,-0.0018901107,0.00149904,-0.012336598,0.0,0.0,0.0,-0.0049731727,0.0016670993,0.089166135,0.03482317,-0.00071485934,-0.0009356753,0.0,-0.033339523,-0.033721615,-0.025208516,-0.21855582,-2.2562287,nan,0.1,0.081537224,0.48262045,0.1006254,0.113333695,inf,inf,inf,inf,0,1,0,1,1,0,1,0,2,0,0,1,0
402916023,402913854,0,nan,nan,-0.0015687885,0.0020350597,-0.0078901425,0.0,0.0,0.0,-0.005738254,0.0010843329,0.086743854,0.033315334,-0.00071485934,-0.0009356753,0.0,0.043881703,-0.051215127,-0.08462397,-0.21904221,-2.2562287,nan,0.1,0.08853342,0.48198348,0.10554768,0.11324758,inf,inf,inf,inf,0,1,0,1,1,0,1,0,2,0,0,1,0
403016249,403013935,0,nan,nan,-0.0012232728,0.0019556193,-0.0038461993,0.0,0.0,0.0,-0.0028707266,-0.0037019819,0.087369904,0.034548253,-0.00071485934,-0.0009356753,0.0,-0.028169677,0.08155152,0.074213974,-0.21750195,-2.2562287,nan,0.1,0.0804969,0.48597318,0.101337396,0.113787346,inf,inf,inf,inf,0,1,0,1,1,0,1,0,2,0,0,1,0
403116315,403114024,0,nan,nan,-0.0011410074,0.0020872147,0.0015651229,0.0,0.0,0.0,-0.0070507703,0.004087827,0.08789101,0.03688707,-0.00071485934,-0.0009356753,0.0,0.024769269,0.07633281,-0.044419806,-0.21722536,-2.2562287,nan,0.1,0.087877356,0.4853193,0.10624917,0.11369796,inf,inf,inf,inf,0,1,0,1,1,0,1,0,2,0,0,1,0
403216296,403214093,0,nan,nan,-0.0010468563,0.0028265587,0.006127565,0.0,0.0,0.0,-0.002328962,0.0060749333,0.08775319,0.037560206,-0.00071485934,-0.0009356753,0.0,0.0059915255,-0.11190766,8.769784e-05,-0.21979897,-2.2562287,nan,0.1,0.08035834,0.48467436,0.10127954,0.11361091,inf,inf,inf,inf,0,1,0,1,1,0,1,0,2,0,0,1,0
403316498,403314175,0,nan,nan,-0.0008870329,0.0030087077,0.011957086,0.0,0.0,0.0,-0.0037751114,-0.0026436043,0.088230155,0.039978262,-0.00071485934,-0.0009356753,0.0,-0.025043858,-0.100152075,-0.18574888,-0.22022843,-2.2562287,nan,0.1,0.08800483,0.4840221,0.10616605,0.11352142,inf,inf,inf,inf,0,1,0,1,1,0,1,0,2,0,0,1,0
403416543,403414274,0,nan,nan,-0.0007432282,0.0025565112,0.018609166,0.0,0.0,0.0,-0.00057246024,0.0016605934,0.087054655,0.041460454,-0.00071485934,-0.0009356753,0.0,0.020801065,0.12266176,-0.0003182496,-0.21858855,-2.2562287,nan,0.1,0.080583476,0.48337898,0.100544095,0.11343413,inf,inf,inf,inf,0,1,0,1,1,0,1,0,2,0,0,1,0
403516426,403514339,0,nan,nan,-0.0005719286,0.0025583783,0.025724748,0.0,0.0,0.0,-0.0048205364,0.0012898642,0.0862953,0.04354755,-0.00071485934,-0.0009356753,0.0,-0.052393857,-0.0066828122,-0.05762465,-0.21967115,-2.2562287,nan,0.10067157,0.088370845,0.48272854,0.10540816,0.11334482,inf,inf,inf,inf,0,1,0,1,1,0,1,0,2,0,0,1,0
403617030,403614421,0,nan,nan,-0.0006584063,0.0025563184,0.032343697,0.0,0.0,0.0,-0.003749197,-0.00088724773,0.08577289,0.04513857,-0.00071485934,-0.0009356753,0.0,0.022408077,-0.110186,-0.10597302,-0.21974756,-2.2562287,nan,0.1,0.08086003,0.48208708,0.09934578,0.113257654,inf,inf,inf,inf,0,1,0,1,1,0,1,0,2,0,0,1,0
403716754,403714502,0,nan,nan,-0.0005374238,0.0021913818,0.03760809,0.0,0.0,0.0,-0.001293862,-0.0026935977,0.08573112,0.04582619,-0.00071485934,-0.0009356753,0.0,-0.03549865,-0.08226382,-0.037457157,-0.21908896,-2.2562287,nan,0.1,0.0886832,0.48607534,0.10416891,0.11379689,inf,inf,inf,inf,0,1,0,1,1,0,1,0,2,0,0,1,0
403817223,403814584,0,nan,nan,-0.0005050103,0.0017815747,0.04378881,0.0,0.0,0.0,-0.0035596231,0.0025487163,0.08583244,0.047403384,-0.00071485934,-0.0009356753,0.0,0.013983929,0.12926668,0.030934867,-0.21918096,-2.2562287,nan,0.1,0.08103759,0.48541698,0.097883545,0.11370647,inf,inf,inf,inf,0,1,0,1,1,0,1,0,2,0,0,1,0
403917311,403914666,0,nan,nan,-0.00056766684,0.0018589542,0.050277635,0.0,0.0,0.0,-0.003387218,0.001286045,0.087057956,0.050168596,-0.00071485934,-0.0009356753,0.0,0.03556705,0.006475934,0.06404435,-0.22050385,-2.2562287,nan,0.1,0.08882177,0.4847679,0.10267684,0.11361849,inf,inf,inf,inf,0,1,0,1,1,0,1,0,2,0,0,1,0
404017095,404014748,0,nan,nan,-0.0004717767,0.0016140236,0.05688177,0.0,0.0,0.0,-0.001483342,-0.003685509,0.08711614,0.05173993,-0.00071485934,-0.0009356753,0.0,-0.018880507,0.010856714,-0.027943231,-0.22022876,-2.2562287,nan,0.1,0.08106965,0.4841279,0.096358925,0.11353213,inf,inf,inf,inf,0,1,0,1,1,0,1,0,2,0,0,1,0
404106882,404104827,0,nan,nan,-0.00028458494,0.0012959581,0.06269393,0.0,0.0,0.0,-0.0012611557,-0.002069642,0.08881396,0.054514583,-0.00071485934,-0.0009356753,0.0,-0.0034352683,-0.04385531,0.056004625,-0.21971148,-2.2562287,nan,0.1,0.08797053,0.48262045,0.10064904,0.113327205,inf,inf,inf,inf,0,1,0,1,1,0,1,0,2,0,0,1,0
404206955,404204910,0,nan,nan,-0.00023767329,0.0011370294,0.06718591,0.0,0.0,0.0,-0.0018365742,0.0015042558,0.086914,0.051721375,-0.00071485934,-0.0009356753,0.0,0.02480542,-0.019690653,0.055251572,-0.21968895,-2.2562287,nan,0.1,0.080244176,0.4819669,0.09444389,0.11323697,inf,inf,inf,inf,0,1,0,1,1,0,1,0,2,0,0,1,0
404307062,404304985,0,nan,nan,-0.00012256397,0.0010438063,0.07232592,0.0,0.0,0.0,-0.0010863653,-0.00019280263,0.08706327,0.051706325,-0.00071485934,-0.0009356753,0.0,0.032755837,-0.02832072,0.053588144,-0.22010493,-2.2562287,nan,0.1,0.087776266,0.4859561,0.09919818,0.11377677,inf,inf,inf,inf,0,1,0,1,1,0,1,0,2,0,0,1,0
404406903,404405066,0,nan,nan,-2.8864139e-05,0.00083722314,0.0761946,0.0,0.0,0.0,-0.0011493996,-0.0018696525,0.08598519,0.049341165,-0.00071485934,-0.0009356753,0.0,0.029196281,0.021175362,0.034962665,-0.21982133,-2.2562287,nan,0.1,0.08005532,0.4853021,0.09318911,0.11368754,inf,inf,inf,inf,0,1,0,1,1,0,1,0,2,0,0,1,0
404507185,404505148,0,nan,nan,7.468103e-05,0.0005025543,0.08086382,0.0,0.0,0.0,-0.0020985964,-0.0038746893,0.08581478,0.048856556,-0.00071485934,-0.0009356753,0.0,0.014830686,0.07307655,0.1014052,-0.21979874,-2.2562287,nan,0.1,0.087482505,0.48465717,0.09793057,0.11360035,inf,inf,inf,inf,0,1,0,1,1,0,1,0,2,0,0,1,0
404607272,404605230,0,nan,nan,7.3693824e-05,0.0002620389,0.08672744,0.0,0.0,0.0,-0.0015239426,-0.0019935467,0.085486054,0.04941798,-0.00071485934,-0.0009356753,0.0,0.04146259,-0.025069673,0.09394271,-0.21992987,-2.2562287,nan,0.1,0.07981046,0.4840048,0.092151485,0.113511145,inf,inf,inf,inf,0,1,0,1,1,0,1,0,2,0,0,1,0
404707077,404705311,0,nan,nan,0.00010849578,6.2331426e-05,0.09369638,0.0,0.0,0.0,-0.0026204488,-0.0035839668,0.08561,0.0513261,-0.00071485934,-0.0009356753,0.0,-0.020116368,-0.063736394,0.0062063136,-0.22017305,-2.2562287,nan,0.1,0.087140776,0.48336175,0.096888304,0.113424,inf,inf,inf,inf,0,1,0,1,1,0,1,0,2,0,0,1,0
404807145,404805401,0,nan,nan,1.4994074e-05,-0.00028512374,0.10110611,0.0,0.0,0.0,-0.0022554472,-0.0044429647,0.086812094,0.05455548,-0.00071485934,-0.0009356753,0.0,-0.016654242,-0.068628326,0.0027907193,-0.2204598,-2.2562287,nan,0.1,0.07954481,0.4827113,0.091334276,0.113334864,inf,inf,inf,inf,0,1,0,1,1,0,1,0,2,0,0,1,0
404907706,404905475,0,nan,nan,-4.103745e-05,-0.0007266622,0.10802477,0.0,0.0,0.0,-0.0012658947,-0.0028230774,0.086856015,0.05596726,-0.00071485934,-0.0009356753,0.0,0.005234113,-0.010311247,0.021631783,-0.21977817,-2.2562287,nan,0.1,0.086792305,0.48205376,0.09606804,0.11324393,inf,inf,inf,inf,0,1,0,1,1,0,1,0,2,0,0,1,0
405007836,405005556,0,nan,nan,-0.00013908041,-0.0012887971,0.114518695,0.0,0.0,0.0,-0.0028560811,-0.0064803115,0.087359965,0.05723697,-0.00071485934,-0.0009356753,0.0,0.015311751,0.08853839,0.04580353,-0.21994503,-2.2562287,nan,0.1,0.07928577,0.48604143,0.09072603,0.1137831,inf,inf,inf,inf,0,1,0,1,1,0,1,0,2,0,0,1,0
405107497,405105649,0,nan,nan,-0.0002989233,-0.0016662453,0.12100007,0.0,0.0,0.0,-0.003376428,-0.004495406,0.086158305,0.056729414,-0.00071485934,-0.0009356753,0.0,0.016258806,0.08990942,-0.08049841,-0.21987106,-2.2562287,nan,0.1,0.08646699,0.48538366,0.09546379,0.11369333,inf,inf,inf,inf,0,1,0,1,1,0,1,0,2,0,0,1,0
405207444,405205731,0,nan,nan,-0.0004332343,-0.0018895399,0.12734485,0.0,0.0,0.0,-0.003099682,-0.0075954255,0.08646959,0.057587493,-0.00071485934,-0.0009356753,0.0,-0.031653445,-0.12445524,-0.00025487685,-0.22004782,-2.2562287,nan,0.1,0.07905145,0.48473492,0.09029598,0.11360532,inf,inf,inf,inf,0,1,0,1,1,0,1,0,2,0,0,1,0
405307584,405305839,0,nan,nan,-0.000583378,-0.0024842257,0.13318706,0.0,0.0,0.0,-0.002621195,-0.008000807,0.08674656,0.057830065,-0.00071485934,-0.0009356753,0.0,0.016278012,-0.016584113,0.028676767,-0.2200069,-2.2562287,nan,0.1,0.08618302,0.48409542,0.09504006,0.11351933,inf,inf,inf,inf,0,1,0,1,1,0,1,0,2,0,0,1,0
405407866,405405890,0,nan,nan,-0.00067998766,-0.0030147105,0.138872,0.0,0.0,0.0,-0.0026603695,-0.005672442,0.085528284,0.056447092,-0.00071485934,-0.0009356753,0.0,-0.009184431,0.08669341,-0.044877812,-0.21926987,-2.2562287,nan,0.1,0.078852415,0.48344836,0.090013616,0.11343128,inf,inf,inf,inf,0,1,0,1,1,0,1,0,2,0,0,1,0
405507774,405505968,0,nan,nan,-0.0008034712,-0.0032359324,0.14542466,0.0,0.0,0.0,-0.0035769125,-0.006216421,0.08733217,0.0589717,-0.00071485934,-0.0009356753,0.0,-0.0062778946,0.026693672,0.07328238,-0.22016135,-2.2562287,nan,0.1,0.08594865,0.4827941,0.09476211,0.113341466,inf,inf,inf,inf,0,1,0,1,1,0,1,0,2,0,0,1,0
405607969,405606046,0,nan,nan,-0.0009371476,-0.0034802135,0.15245344,0.0,0.0,0.0,-0.002733286,-0.00852686,0.08783978,0.060588785,-0.00071485934,-0.0009356753,0.0,-0.011846409,-0.06672146,0.14583398,-0.2201618,-2.2562287,nan,0.1,0.0786921,0.4821489,0.08983907,0.11325348,inf,inf,inf,inf,0,1,0,1,1,0,1,0,2,0,0,1,0
405708454,405706127,0,nan,nan,-0.0010984357,-0.0038822268,0.1590617,0.0,0.0,0.0,-0.004539402,-0.008509466,0.08779213,0.061047528,-0.00071485934,-0.0009356753,0.0,0.008357362,-0.046057567,0.07884185,-0.21993795,-2.2562287,nan,0.1,0.085765354,0.48151276,0.09459142,0.11316741,inf,inf,inf,inf,0,1,0,1,1,0,1,0,2,0,0,1,0
405807932,405806211,0,nan,nan,-0.0013076606,-0.004163381,0.16572753,0.0,0.0,0.0,-0.0032926393,-0.006960331,0.087163866,0.060942046,-0.00071485934,-0.0009356753,0.0,0.02220713,-0.0072390377,0.01698228,-0.21988575,-2.2562287,nan,0.1,0.07856966,0.48548967,0.08974408,0.11370525,inf,inf,inf,inf,0,1,0,1,1,0,1,0,2,0,0,1,0
405908241,405906291,0,nan,nan,-0.0014216406,-0.004380437,0.17254476,0.0,0.0,0.0,-0.0044585885,-0.00962694,0.08816229,0.06257689,-0.00071485934,-0.0009356753,0.0,-0.028549109,-0.05137068,0.06792002,-0.22012758,-2.2562287,nan,0.1,0.08562925,0.48483667,0.094500855,0.113616265,inf,inf,inf,inf,0,1,0,1,1,0,1,0,2,0,0,1,0
406008421,406006372,0,nan,nan,-0.0016625684,-0.0048898766,0.17905797,0.0,0.0,0.0,-0.004119135,-0.011300236,0.08751387,0.062158827,-0.00071485934,-0.0009356753,0.0,0.0052643567,-0.012766847,-0.03981115,-0.22008526,-2.2562287,nan,0.1,0.078481324,0.4841929,0.0897027,0.11352927,inf,inf,inf,inf,0,1,0,1,1,0,1,0,2,0,0,1,0
406108506,406106461,0,nan,nan,-0.0017418467,-0.0053344923,0.18474385,0.0,0.0,0.0,-0.0039857663,-0.008568626,0.0873013,0.061417975,-0.00071485934,-0.0009356753,0.0,-0.07504083,0.07263595,-0.014478481,-0.21861,-2.2562287,nan,0.1,0.08553425,0.4835418,0.09446001,0.11344038,inf,inf,inf,inf,0,1,0,1,1,0,1,0,2,0,0,1,0
406208230,406206536,0,nan,nan,-0.0021070307,-0.00551429,0.19102743,0.0,0.0,0.0,-0.007940734,-0.009672617,0.087366745,0.06164872,-0.00071485934,-0.0009356753,0.0,-0.022119021,-0.06264068,0.020630877,-0.22008704,-2.2562287,nan,0.1,0.07842159,0.4828835,0.08969399,0.11334955,inf,inf,inf,inf,0,1,0,1,1,0,1,0,2,0,0,1,0
406308739,406306623,0,nan,nan,-0.0025354146,-0.0058738566,0.19779074,0.0,0.0,0.0,-0.0056233415,-0.011297236,0.08512852,0.05997347,-0.00071485934,-0.0009356753,0.0,0.063090295,0.0418291,-0.14139497,-0.2203285,-2.2562287,nan,0.1,0.08547281,0.4822345,0.0944554,0.11326105,inf,inf,inf,inf,0,1,0,1,1,0,1,0,2,0,0,1,0
406409170,406406702,0,nan,nan,-0.0027513448,-0.006330149,0.20428497,0.0,0.0,0.0,-0.005062986,-0.010982094,0.084241085,0.059459254,-0.00071485934,-0.0009356753,0.0,-0.057274617,-0.045058403,-0.11471965,-0.21843375,-2.2562287,nan,0.1,0.09237729,0.48159465,0.09873725,0.113174126,inf,inf,inf,inf,0,1,0,1,1,0,1,0,2,0,0,1,0
406509092,406506787,0,nan,nan,-0.003420186,-0.007105686,0.21082693,0.0,0.0,0.0,-0.009381533,-0.011006195,0.08559446,0.06106301,-0.00071485934,-0.0009356753,0.0,0.011761356,0.04748663,0.0034015728,-0.22010605,-2.2562287,nan,0.1,0.10057193,0.48557022,0.10355319,0.1137114,inf,inf,inf,inf,0,1,0,1,1,0,1,0,2,0,0,1,0
406608740,406606862,0,nan,nan,-0.004096405,-0.007953537,0.21751583,0.0,0.0,0.0,-0.005496616,-0.011649062,0.087032825,0.062892705,-0.00071485934,-0.0009356753,0.0,-0.0010881997,0.00080647593,0.013680717,-0.21948645,-2.2562287,nan,0.1,0.10812491,0.4849301,0.10756608,0.11362589,inf,inf,inf,inf,0,1,0,1,1,0,1,0,2,0,0,1,0
406708816,406706943,0,nan,nan,-0.0048413565,-0.008970194,0.22476426,0.0,0.0,0.0,-0.009849361,-0.0131413285,0.08859023,0.06530315,-0.00071485934,-0.0009356753,0.0,-0.016656274,-0.07296995,0.1003034,-0.21921831,-2.2562287,nan,0.1,0.11737107,0.4842824,0.11243464,0.11353782,inf,inf,inf,inf,0,1,0,1,1,0,1,0,2,0,0,1,0
406809124,406807025,0,nan,nan,-0.005794332,-0.010258024,0.23166838,0.0,0.0,0.0,-0.0073267003,-0.01281919,0.088407725,0.0654978,-0.00071485934,-0.0009356753,0.0,0.056219257,0.12034275,0.050791427,-0.21968383,-2.2562287,nan,0.1,0.12526096,0.4836274,0.11605798,0.11344833,inf,inf,inf,inf,0,1,0,1,1,0,1,0,2,0,0,1,0
406909236,406907106,0,nan,nan,-0.006592838,-0.011291562,0.23864153,0.0,0.0,0.0,-0.010052109,-0.014266308,0.08762017,0.06511083,-0.00071485934,-0.0009356753,0.0,-0.04647222,-0.028354809,-0.036323342,-0.2193131,-2.2562287,nan,0.1,0.13547054,0.48298156,0.12099228,0.113360375,inf,inf,inf,inf,0,1,0,1,1,0,1,0,2,0,0,1,0
407008969,407007188,0,nan,nan,-0.0076488913,-0.012461443,0.24516203,0.0,0.0,0.0,-0.010554692,-0.01414558,0.085561946,0.06301,-0.00071485934,-0.0009356753,0.0,-0.004481996,-0.093298174,-0.063004136,-0.21978945,-2.2562287,nan,0.1,0.14332828,0.48234478,0.12408451,0.11327459,inf,inf,inf,inf,0,1,0,1,1,0,1,0,2,0,0,1,0
407209198,407207351,0,nan,nan,-0.009889009,-0.014791935,0.25721356,0.0,0.0,0.0,-0.010514748,-0.010922862,0.085117035,0.061649963,-0.00071485934,-0.0009356753,0.0,0.049714725,0.020627566,-0.06428238,-0.21955153,-2.2562287,nan,0.1,0.16181754,0.48567486,0.13148603,0.113723606,inf,inf,inf,inf,0,1,0,1,1,0,1,0,2,0,0,1,0
407309525,407307443,0,nan,nan,-0.011008249,-0.015977742,0.26298904,0.0,0.0,0.0,-0.014167339,-0.015820306,0.085799225,0.061803587,-0.00071485934,-0.0009356753,0.0,-0.043081336,0.047053576,-0.054591507,-0.21954969,-2.2562287,nan,0.1,0.17367883,0.48503047,0.13654202,0.11363667,inf,inf,inf,inf,0,1,0,1,1,0,1,0,2,0,0,1,0
407409693,407407514,0,nan,nan,-0.011370684,-0.016131297,0.2697782,0.0,0.0,0.0,-0.0135354055,-0.018389747,0.0856214,0.062064387,-0.00071485934,-0.0009356753,0.0,0.03467048,0.06687813,-0.07182527,-0.2201232,-2.2562287,nan,0.1,0.11406413,0.48437855,0.10063594,0.1135476,inf,inf,inf,inf,0,1,0,1,1,0,1,0,2,0,0,1,0
407509697,407507596,0,nan,nan,-0.010286912,-0.014553719,0.27692288,0.0,0.0,0.0,-0.011349805,-0.014185831,0.08698326,0.06415222,-0.00071485934,-0.0009356753,0.0,-0.05533371,0.09677258,-0.1077926,-0.21928515,-2.2562287,nan,0.1,0.12216516,0.48371962,0.10536521,0.11345702,inf,inf,inf,inf,0,1,0,1,1,0,1,0,2,0,0,1,0
407609703,407607677,0,nan,nan,-0.0094977375,-0.012693292,0.28301513,0.0,0.0,0.0,-0.01353567,-0.009914097,0.08707292,0.06386738,-0.00071485934,-0.0009356753,0.0,0.017235944,-0.0023116749,-0.04824293,-0.2190036,-2.2562287,nan,0.1,0.0969392,0.48306987,0.09278734,0.113368064,inf,inf,inf,inf,0,1,0,1,1,0,1,0,2,0,0,1,0
407709935,407707778,0,nan,nan,-0.008693851,-0.01101301,0.28863308,0.0,0.0,0.0,-0.012203148,-0.016123723,0.0864906,0.06253809,-0.00071485934,-0.0009356753,0.0,0.018285934,-0.05727682,-0.010049307,-0.22028019,-2.2562287,nan,0.1,0.10390343,0.48242941,0.09751921,0.11328163,inf,inf,inf,inf,0,1,0,1,1,0,1,0,2,0,0,1,0
407810281,407807849,0,nan,nan,-0.008017032,-0.0099831335,0.29373544,0.0,0.0,0.0,-0.011343814,-0.012121707,0.08535695,0.060355093,-0.00071485934,-0.0009356753,0.0,-0.05090585,0.03670708,0.019572824,-0.21955495,-2.2562287,nan,0.1,0.088249505,0.48178154,0.09068243,0.11319284,inf,inf,inf,inf,0,1,0,1,1,0,1,0,2,0,0,1,0
407909920,407907922,0,nan,nan,-0.007495138,-0.008482106,0.29977924,0.0,0.0,0.0,-0.012557787,-0.0039624167,0.08612377,0.061112225,-0.00071485934,-0.0009356753,0.0,-0.03910822,-0.0010430485,-0.018289482,-0.21875243,-2.2562287,nan,0.1,0.09484039,0.4857711,0.095447145,0.11373302,inf,inf,inf,inf,0,1,0,1,1,0,1,0,2,0,0,1,0
408010075,408008010,0,nan,nan,-0.007330738,-0.007210481,0.3064731,0.0,0.0,0.0,-0.012981543,-0.00841742,0.08706236,0.06252886,-0.00071485934,-0.0009356753,0.0,0.011051529,-0.05067325,0.007821963,-0.2208074,-2.2562287,nan,0.1,0.08339137,0.48512268,0.090635076,0.113645375,inf,inf,inf,inf,0,1,0,1,1,0,1,0,2,0,0,1,0
408110143,408108084,0,nan,nan,-0.0071108425,-0.006523764,0.3135613,0.0,0.0,0.0,-0.009500243,-0.010224046,0.08613666,0.06244596,-0.00071485934,-0.0009356753,0.0,0.06278547,0.07479453,0.014948537,-0.2196037,-2.2562287,nan,0.1,0.08994228,0.48446706,0.09542075,0.11355582,inf,inf,inf,inf,0,1,0,1,1,0,1,0,2,0,0,1,0
408209920,408208166,0,nan,nan,-0.006772602,-0.005743468,0.3212421,0.0,0.0,0.0,-0.011017461,-0.0047186725,0.08720045,0.06484171,-0.00071485934,-0.0009356753,0.0,-0.059835244,0.027288064,0.04123402,-0.21953046,-2.2562287,nan,0.1,0.08067905,0.4838205,0.09131053,0.113467894,inf,inf,inf,inf,0,1,0,1,1,0,1,0,2,0,0,1,0
408310071,408308248,0,nan,nan,-0.0068348004,-0.0047583343,0.3294018,0.0,0.0,0.0,-0.013591407,-0.005029348,0.0877926,0.06695021,-0.00071485934,-0.0009356753,0.0,-0.0007675238,-0.09528159,-0.056018747,-0.2212898,-2.2562287,nan,0.1,0.08734297,0.483183,0.09611269,0.113382205,inf,inf,inf,inf,0,1,0,1,1,0,1,0,2,0,0,1,0
408410398,408408329,0,nan,nan,-0.0068682116,-0.0044838963,0.337784,0.0,0.0,0.0,-0.0077645597,-0.008874496,0.08665009,0.067466155,-0.00071485934,-0.0009356753,0.0,0.07615652,0.0008641425,0.017293593,-0.22025667,-2.2562287,nan,0.1,0.079273045,0.48253807,0.092093855,0.11329458,inf,inf,inf,inf,0,1,0,1,1,0,1,0,2,0,0,1,0
408510666,408508410,0,nan,nan,-0.006523406,-0.0043791607,0.34644446,0.0,0.0,0.0,-0.010430093,-0.005763687,0.08805191,0.070576094,-0.00071485934,-0.0009356753,0.0,-0.06163582,0.13063061,-0.014833686,-0.21970181,-2.2562287,nan,0.1,0.086103834,0.4818859,0.09691338,0.11320464,inf,inf,inf,inf,0,1,0,1,1,0,1,0,2,0,0,1,0
408610237,408608493,0,nan,nan,-0.006727795,-0.0038010185,0.35533825,0.0,0.0,0.0,-0.01196144,-0.0021915105,0.08631842,0.07052641,-0.00071485934,-0.0009356753,0.0,0.04263408,0.0135076335,-0.09967126,-0.22061494,-2.2562287,nan,0.1,0.07866275,0.48587406,0.092714496,0.11374434,inf,inf,inf,inf,0,1,0,1,1,0,1,0,2,0,0,1,0
408710820,408708573,0,nan,nan,-0.0065827053,-0.003424771,0.36431766,0.0,0.0,0.0,-0.008761863,-0.009132578,0.08798685,0.07381126,-0.00071485934,-0.0009356753,0.0,-0.03382166,-0.09520353,-0.095931716,-0.22104685,-2.2562287,nan,0.1,0.08565772,0.4852215,0.09753123,0.11365588,inf,inf,inf,inf,0,1,0,1,1,0,1,0,2,0,0,1,0
408810405,408808655,0,nan,nan,-0.0065435013,-0.0037018536,0.37335178,0.0,0.0,0.0,-0.00991776,-0.008247967,0.08687975,0.07422285,-0.00071485934,-0.0009356753,0.0,0.011850229,0.04290362,-0.107730694,-0.2199106,-2.2562287,nan,0.1,0.07850601,0.4845617,0.093050085,0.11356504,inf,inf,inf,inf,0,1,0,1,1,0,1,0,2,0,0,1,0
408910603,408908745,0,nan,nan,-0.006419726,-0.0035953491,0.38220596,0.0,0.0,0.0,-0.010056905,-0.0031469595,0.08841154,0.07694838,-0.00071485934,-0.0009356753,0.0,-0.030042201,0.042216893,-0.053031754,-0.22001368,-2.2562287,nan,0.1,0.08563345,0.48391122,0.09786245,0.11347661,inf,inf,inf,inf,0,1,0,1,1,0,1,0,2,0,0,1,0
409010972,409008817,0,nan,nan,-0.0065635475,-0.0033802125,0.3908088,0.0,0.0,0.0,-0.01181141,-0.0070720557,0.088748835,0.078050986,-0.00071485934,-0.0009356753,0.0,0.031280663,-0.04288651,-0.0464558,-0.2211771,-2.2562287,nan,0.1,0.078572586,0.4832698,0.09309709,0.11338995,inf,inf,inf,inf,0,1,0,1,1,0,1,0,2,0,0,1,0
409111212,409108917,0,nan,nan,-0.00647267,-0.0035480675,0.39955246,0.0,0.0,0.0,-0.007742357,-0.0097933505,0.08852994,0.078685805,-0.00071485934,-0.0009356753,0.0,-0.0030751713,-0.027483614,-0.0060112844,-0.22060105,-2.2562287,nan,0.1,0.08578962,0.4826211,0.09789661,0.11330159,inf,inf,inf,inf,0,1,0,1,1,0,1,0,2,0,0,1,0
409210945,409209012,0,nan,nan,-0.0063969814,-0.0037296107,0.40852478,0.0,0.0,0.0,-0.011441532,-0.004831317,0.090885445,0.08192539,-0.00071485934,-0.0009356753,0.0,-0.0745018,0.03538608,0.0040411586,-0.22041382,-2.2562287,nan,0.1,0.07871524,0.48198128,0.09290397,0.11321459,inf,inf,inf,inf,0,1,0,1,1,0,1,0,2,0,0,1,0
409311320,409309062,0,nan,nan,-0.0065629985,-0.0036490976,0.41756862,0.0,0.0,0.0,-0.011282694,-0.0067384965,0.09111212,0.08284733,-0.00071485934,-0.0009356753,0.0,0.018996822,-0.034834936,-0.09181781,-0.22117633,-2.2562287,nan,0.1,0.085980326,0.48135045,0.09768641,0.11313005,inf,inf,inf,inf,0,1,0,1,1,0,1,0,2,0,0,1,0
409410888,409409146,0,nan,nan,-0.0065398086,-0.003902996,0.4252985,0.0,0.0,0.0,-0.009275103,-0.010760274,0.09036697,0.08152323,-0.00071485934,-0.0009356753,0.0,-0.0073276707,0.02473677,-0.0219651,-0.22098133,-2.2562287,nan,0.1,0.07885007,0.4853279,0.092531584,0.113668166,inf,inf,inf,inf,0,1,0,1,1,0,1,0,2,0,0,1,0
409511140,409509225,0,nan,nan,-0.006417571,-0.0042223255,0.43349606,0.0,0.0,0.0,-0.010025665,-0.008738103,0.09165751,0.08274732,-0.00071485934,-0.0009356753,0.0,-0.028915025,0.050084744,-0.027346304,-0.22039443,-2.2562287,nan,0.1,0.08612866,0.48468006,0.09731377,0.11358025,inf,inf,inf,inf,0,1,0,1,1,0,1,0,2,0,0,1,0
409611290,409609307,0,nan,nan,-0.0064453343,-0.004280596,0.4420094,0.0,0.0,0.0,-0.010461862,-0.0064060297,0.09344033,0.08460242,-0.00071485934,-0.0009356753,0.0,0.0016500399,0.026767343,-0.023490747,-0.22088912,-2.2562287,nan,0.1,0.07893865,0.48404124,0.09207984,0.11349433,inf,inf,inf,inf,0,1,0,1,1,0,1,0,2,0,0,1,0
409711500,409709402,0,nan,nan,-0.0063181724,-0.0042552,0.450664,0.0,0.0,0.0,-0.008538294,-0.00940544,0.093473025,0.08475341,-0.00071485934,-0.0009356753,0.0,0.00015465057,-0.05873946,-0.06800813,-0.22119838,-2.2562287,nan,0.1,0.08620637,0.483395,0.09684178,0.113406554,inf,inf,inf,inf,0,1,0,1,1,0,1,0,2,0,0,1,0
409811299,409809469,0,nan,nan,-0.00613484,-0.004506387,0.45954275,0.0,0.0,0.0,-0.007567462,-0.008680582,0.09366805,0.08532067,-0.00071485934,-0.0009356753,0.0,-0.0031971466,-0.011665172,-0.023098709,-0.22050582,-2.2562287,nan,0.1,0.07897045,0.48274145,0.09159626,0.1133166,inf,inf,inf,inf,0,1,0,1,1,0,1,0,2,0,0,1,0
409911569,409909558,0,nan,nan,-0.005867013,-0.0045392304,0.46865764,0.0,0.0,0.0,-0.00822254,-0.005368318,0.09541522,0.08758573,-0.00071485934,-0.0009356753,0.0,-0.0040620365,0.015921846,0.008838965,-0.22010638,-2.2562287,nan,0.1,0.08621235,0.48209703,0.09635732,0.11322873,inf,inf,inf,inf,0,1,0,1,1,0,1,0,2,0,0,1,0
410011673,410009637,0,nan,nan,-0.0057963445,-0.0043546585,0.47805393,0.0,0.0,0.0,-0.00900961,-0.0051321625,0.096957296,0.089722715,-0.00071485934,-0.0009356753,0.0,0.0034582587,0.039971706,0.019305179,-0.22067288,-2.2562287,nan,0.1,0.078952245,0.48608258,0.09113817,0.11376724,inf,inf,inf,inf,0,1,0,1,1,0,1,0,2,0,0,1,0
410111730,410109714,0,nan,nan,-0.005593982,-0.0042843726,0.48761815,0.0,0.0,0.0,-0.0068112114,-0.009544149,0.09589972,0.08929161,-0.00071485934,-0.0009356753,0.0,0.019183597,0.025047725,0.011904346,-0.22071078,-2.2562287,nan,0.1,0.08616096,0.48542145,0.09589042,0.113676734,inf,inf,inf,inf,0,1,0,1,1,0,1,0,2,0,0,1,0
410211732,410209806,0,nan,nan,-0.005326925,-0.004509762,0.4967377,0.0,0.0,0.0,-0.008005119,-0.010018288,0.09566783,0.08922559,-0.00071485934,-0.0009356753,0.0,-0.05410812,-0.00023826133,-0.038554177,-0.21981435,-2.2562287,nan,0.1,0.07889664,0.4847695,0.09073736,0.11358788,inf,inf,inf,inf,0,1,0,1,1,0,1,0,2,0,0,1,0
410311943,410309877,0,nan,nan,-0.0051938742,-0.004524395,0.5061446,0.0,0.0,0.0,-0.008654706,-0.0073963436,0.096874475,0.09075337,-0.00071485934,-0.0009356753,0.0,0.0124673145,-0.076313384,0.026580764,-0.21988277,-2.2562287,nan,0.1,0.08607099,0.4841269,0.09548936,0.11350126,inf,inf,inf,inf,0,1,0,1,1,0,1,0,2,0,0,1,0
410411975,410409958,0,nan,nan,-0.0050949464,-0.004523371,0.5157924,0.0,0.0,0.0,-0.0067085754,-0.0051669283,0.09807448,0.09236417,-0.00071485934,-0.0009356753,0.0,0.015017184,-0.0010551746,0.016195511,-0.21999335,-2.2562287,nan,0.1,0.07881887,0.48347682,0.09040294,0.11341268,inf,inf,inf,inf,0,1,0,1,1,0,1,0,2,0,0,1,0
410512053,410510039,0,nan,nan,-0.0049075955,-0.0043781856,0.525593,0.0,0.0,0.0,-0.0076116,-0.0062028,0.09831749,0.09306706,-0.00071485934,-0.0009356753,0.0,-0.01046821,0.008207808,0.008690191,-0.22022434,-2.2562287,nan,0.1,0.08596098,0.48283577,0.09515037,0.11332589,inf,inf,inf,inf,0,1,0,1,1,0,1,0,2,0,0,1,0
410611956,410610121,0,nan,nan,-0.004811552,-0.004260971,0.53539276,0.0,0.0,0.0,-0.0070678676,-0.0070160106,0.09678535,0.09201409,-0.00071485934,-0.0009356753,0.0,-0.018819312,-0.018724909,0.032365877,-0.22029628,-2.2562287,nan,0.1,0.07873158,0.48220357,0.09014092,0.113240995,inf,inf,inf,inf,0,1,0,1,1,0,1,0,2,0,0,1,0
410712404,410710202,0,nan,nan,-0.004643929,-0.0041013653,0.5451492,0.0,0.0,0.0,-0.007026974,-0.0049927207,0.09625218,0.0919354,-0.00071485934,-0.0009356753,0.0,0.0028890232,0.0082218,0.055965938,-0.22016142,-2.2562287,nan,0.1,0.085846424,0.4815639,0.094896816,0.1131541,inf,inf,inf,inf,0,1,0,1,1,0,1,0,2,0,0,1,0
410812443,410810284,0,nan,nan,-0.004480071,-0.0036907922,0.5547998,0.0,0.0,0.0,-0.0066237454,-0.0028352714,0.0972534,0.09324972,-0.00071485934,-0.0009356753,0.0,-0.025086533,-0.059148103,0.017295826,-0.2200267,-2.2562287,nan,0.1,0.07864574,0.48553863,0.0899563,0.11369105,inf,inf,inf,inf,0,1,0,1,1,0,1,0,2,0,0,1,0
410912221,410910365,0,nan,nan,-0.0043922346,-0.0034371677,0.5645516,0.0,0.0,0.0,-0.0072526443,-0.0065808627,0.09668979,0.093027055,-0.00071485934,-0.0009356753,0.0,0.0019818856,-0.016507087,0.011451814,-0.22040944,-2.2562287,nan,0.1,0.08573916,0.4848986,0.09470483,0.113605134,inf,inf,inf,inf,0,1,0,1,1,0,1,0,2,0,0,1,0
411012408,411010447,0,nan,nan,-0.004239831,-0.003428967,0.57430303,0.0,0.0,0.0,-0.0053578597,-0.0059139887,0.09711118,0.09379749,-0.00071485934,-0.0009356753,0.0,-0.007935862,-0.00021980959,0.070381835,-0.21951824,-2.2562287,nan,0.1,0.07856799,0.484251,0.08982151,0.11351719,inf,inf,inf,inf,0,1,0,1,1,0,1,0,2,0,0,1,0
411112391,411110528,0,nan,nan,-0.004108298,-0.003284229,0.5840525,0.0,0.0,0.0,-0.0073528066,-0.004157547,0.09815492,0.09500494,-0.00071485934,-0.0009356753,0.0,0.02761941,-0.01477797,0.035057537,-0.21985805,-2.2562287,nan,0.1,0.08564521,0.48359615,0.09457623,0.1134273,inf,inf,inf,inf,0,1,0,1,1,0,1,0,2,0,0,1,0
411212764,411210614,0,nan,nan,-0.0040303264,-0.0031627684,0.593803,0.0,0.0,0.0,-0.0038112993,-0.0041593965,0.09779544,0.094824955,-0.00071485934,-0.0009356753,0.0,0.059591077,-0.012831465,0.08543893,-0.22014916,-2.2562287,nan,0.1,0.07850186,0.48295036,0.08973084,0.11333949,inf,inf,inf,inf,0,1,0,1,1,0,1,0,2,0,0,1,0
411312764,411310691,0,nan,nan,-0.0036319655,-0.0030953367,0.60360205,0.0,0.0,0.0,-0.0048072627,-0.0057632984,0.09941923,0.09660595,-0.00071485934,-0.0009356753,0.0,-0.051069926,0.025533509,0.054783978,-0.21978068,-2.2562287,nan,0.1,0.08556755,0.4822974,0.09448948,0.11324959,inf,inf,inf,inf,0,1,0,1,1,0,1,0,2,0,0,1,0
411412979,411410773,0,nan,nan,-0.0035172645,-0.0029421325,0.61311626,0.0,0.0,0.0,-0.0054256916,-0.003525591,0.09926793,0.0962046,-0.00071485934,-0.0009356753,0.0,0.009497568,-0.026431272,0.03330932,-0.22010812,-2.2562287,nan,0.1,0.078448795,0.48165357,0.089678176,0.11316179,inf,inf,inf,inf,0,1,0,1,1,0,1,0,2,0,0,1,0
411512790,411510861,0,nan,nan,-0.003245379,-0.0025723341,0.6227708,0.0,0.0,0.0,-0.003823905,-0.0016636404,0.09915118,0.09603645,-0.00071485934,-0.0009356753,0.0,-0.023471294,-0.033511832,-0.025665503,-0.21990663,-2.2562287,nan,0.1,0.085507,0.485627,0.09443327,0.11369851,inf,inf,inf,inf,0,1,0,1,1,0,1,0,2,0,0,1,0
411612732,411610935,0,nan,nan,-0.003114225,-0.002421598,0.6325483,0.0,0.0,0.0,-0.0054381187,-0.0043989527,0.09882245,0.09578552,-0.00071485934,-0.0009356753,0.0,-0.0022920675,-0.0065422426,0.04041176,-0.22006322,-2.2562287,nan,0.1,0.0784084,0.484983,0.089652084,0.11361163,inf,inf,inf,inf,0,1,0,1,1,0,1,0,2,0,0,1,0
411713150,411711017,0,nan,nan,-0.0029490306,-0.002312475,0.6424017,0.0,0.0,0.0,-0.0036955355,-0.0029428445,0.09859262,0.09571264,-0.00071485934,-0.0009356753,0.0,0.0012209315,0.002123234,-0.023826048,-0.22011195,-2.2562287,nan,0.1,0.08546262,0.48433164,0.09441212,0.11352313,inf,inf,inf,inf,0,1,0,1,1,0,1,0,2,0,0,1,0
411813144,411811105,0,nan,nan,-0.0027957528,-0.002163462,0.6523626,0.0,0.0,0.0,-0.0051123635,-0.0048933183,0.09987524,0.09719704,-0.00071485934,-0.0009356753,0.0,-0.023251057,0.0016198835,0.015235373,-0.22019912,-2.2562287,nan,0.1,0.07837985,0.48368925,0.08964529,0.1134362,inf,inf,inf,inf,0,1,0,1,1,0,1,0,2,0,0,1,0
411913046,411911180,0,nan,nan,-0.0026939714,-0.0020325119,0.66235054,0.0,0.0,0.0,-0.0032148142,-0.0033039444,0.0999222,0.097467735,-0.00071485934,-0.0009356753,0.0,0.059836447,0.005389323,0.026450483,-0.22005008,-2.2562287,nan,0.1,0.08543234,0.48305583,0.09440188,0.1133514,inf,inf,inf,inf,0,1,0,1,1,0,1,0,2,0,0,1,0
412013084,412011261,0,nan,nan,-0.0024522038,-0.0019295398,0.67161,0.0,0.0,0.0,-0.0036434163,-0.0031072933,0.10047251,0.09747478,-0.00071485934,-0.0009356753,0.0,-0.048459917,-0.019974006,0.037876103,-0.21950656,-2.2562287,nan,0.1,0.07836103,0.4824148,0.08964597,0.11326435,inf,inf,inf,inf,0,1,0,1,1,0,1,0,2,0,0,1,0
412113637,412111343,0,nan,nan,-0.002379135,-0.0019084347,0.6807118,0.0,0.0,0.0,-0.004581726,-0.004770221,0.09997224,0.096366264,-0.00071485934,-0.0009356753,0.0,0.035030883,-0.015080431,0.016514886,-0.22008221,-2.2562287,nan,0.1,0.08541328,0.48176646,0.09440375,0.1131755,inf,inf,inf,inf,0,1,0,1,1,0,1,0,2,0,0,1,0
412213492,412211425,0,nan,nan,-0.0022263417,-0.0020146244,0.6900453,0.0,0.0,0.0,-0.0019491408,-0.004051079,0.09961868,0.09569633,-0.00071485934,-0.0009356753,0.0,0.0044837426,0.066615224,-0.043937042,-0.22005041,-2.2562287,nan,0.1,0.07834981,0.48575497,0.08965171,0.113715366,inf,inf,inf,inf,0,1,0,1,1,0,1,0,2,0,0,1,0
412313352,412311506,0,nan,nan,-0.001960604,-0.0019961835,0.69956034,0.0,0.0,0.0,-0.0024569908,-0.0047355257,0.10017276,0.09617797,-0.00071485934,-0.0009356753,0.0,-0.004085063,-0.033023287,0.0454447,-0.21985072,-2.2562287,nan,0.1,0.08540269,0.48510617,0.09441204,0.1136273,inf,inf,inf,inf,0,1,0,1,1,0,1,0,2,0,0,1,0
412413411,412411587,0,nan,nan,-0.0018317013,-0.0020764216,0.7092815,0.0,0.0,0.0,-0.003013563,-0.004497243,0.10000493,0.09609458,-0.00071485934,-0.0009356753,0.0,-0.0048124567,-0.015558973,0.022959698,-0.22049688,-2.2562287,nan,0.1,0.07834415,0.4844499,0.08966099,0.11353747,inf,inf,inf,inf,0,1,0,1,1,0,1,0,2,0,0,1,0
412513672,412511672,0,nan,nan,-0.0016191825,-0.0020615144,0.7190834,0.0,0.0,0.0,-0.0014168739,-0.0019443607,0.099179395,0.09544931,-0.00071485934,-0.0009356753,0.0,0.00037992938,-0.004954313,0.09654973,-0.21952786,-2.2562287,nan,0.1,0.08539804,0.48380288,0.094420925,0.113449626,inf,inf,inf,inf,0,1,0,1,1,0,1,0,2,0,0,1,0
412713683,412711832,0,nan,nan,-0.0015206211,-0.002004521,0.7389745,0.0,0.0,0.0,-0.0021805684,-0.0049621956,0.099667214,0.0964429,-0.00071485934,-0.0009356753,0.0,0.063176215,0.027578948,0.007140036,-0.21996757,-2.2562287,nan,0.1,0.085397206,0.48250356,0.09442668,0.11327217,inf,inf,inf,inf,0,1,0,1,1,0,1,0,2,0,0,1,0
412813931,412811919,0,nan,nan,-0.0012871028,-0.0019006607,0.74875003,0.0,0.0,0.0,-0.0016969579,-0.0014241674,0.100840606,0.097624525,-0.00071485934,-0.0009356753,0.0,-0.037392322,0.00789714,0.085919224,-0.21904461,-2.2562287,nan,0.1,0.07834235,0.48185128,0.08967351,0.1131824,inf,inf,inf,inf,0,1,0,1,1,0,1,0,2,0,0,1,0
412914156,412912002,0,nan,nan,-0.0012996409,-0.0015403911,0.7582325,0.0,0.0,0.0,-0.0045359,-0.00073865475,0.10175116,0.09810851,-0.00071485934,-0.0009356753,0.0,0.007101756,-0.08929441,0.048989132,-0.22011317,-2.2562287,nan,0.1,0.08539833,0.48583847,0.09443348,0.113721795,inf,inf,inf,inf,0,1,0,1,1,0,1,0,2,0,0,1,0
413014271,413012102,0,nan,nan,-0.0012295032,-0.0014002614,0.76803774,0.0,0.0,0.0,3.8172242e-05,-0.0021584348,0.10251101,0.098715425,-0.00071485934,-0.0009356753,0.0,0.017152285,-0.005035807,0.087176345,-0.21962294,-2.2562287,nan,0.1,0.07834344,0.48518583,0.089671075,0.11363331,inf,inf,inf,inf,0,1,0,1,1,0,1,0,2,0,0,1,0
413114220,413112165,0,nan,nan,-0.000980966,-0.0013506307,0.77806854,0.0,0.0,0.0,-0.0027846354,-0.0022340694,0.10273539,0.098963514,-0.00071485934,-0.0009356753,0.0,-0.057716426,0.027943492,-0.021752495,-0.21915987,-2.2562287,nan,0.1,0.08539964,0.48454222,0.094430804,0.11354631,inf,inf,inf,inf,0,1,0,1,1,0,1,0,2,0,0,1,0
413214710,413212239,0,nan,nan,-0.0010788301,-0.0011101991,0.7882078,0.0,0.0,0.0,-0.003507446,2.6450878e-05,0.102095574,0.09846118,-0.00071485934,-0.0009356753,0.0,0.02719963,-0.016737588,0.032432985,-0.21966577,-2.2562287,nan,0.1,0.07834446,0.48390758,0.08966785,0.113461494,inf,inf,inf,inf,0,1,0,1,1,0,1,0,2,0,0,1,0
413314355,413312321,0,nan,nan,-0.0009713604,-0.0007795744,0.79832566,0.0,0.0,0.0,-0.0012341059,-0.0016806409,0.1021288,0.098632365,-0.00071485934,-0.0009356753,0.0,-0.03461138,-0.094794765,0.014110493,-0.21955095,-2.2562287,nan,0.1,0.08540098,0.48326537,0.09443209,0.11337471,inf,inf,inf,inf,0,1,0,1,1,0,1,0,2,0,0,1,0
413414287,413412443,0,nan,nan,-0.0009083132,-0.00087221037,0.80851936,0.0,0.0,0.0,-0.0018423229,-0.0022487163,0.1025204,0.09921341,-0.00071485934,-0.0009356753,0.0,-0.004151524,0.017901244,0.028831607,-0.21917799,-2.2562287,nan,0.1,0.07834558,0.48261577,0.08967047,0.11328567,inf,inf,inf,inf,0,1,0,1,1,0,1,0,2,0,0,1,0
413515095,413512483,0,nan,nan,-0.0008652944,-0.0008318501,0.8187861,0.0,0.0,0.0,-0.0018915293,0.00021218546,0.10232714,0.09924904,-0.00071485934,-0.0009356753,0.0,0.0088205775,0.057742693,0.027399672,-0.21886493,-2.2562287,nan,0.1,0.08540252,0.48197514,0.094430484,0.113198794,inf,inf,inf,inf,0,1,0,1,1,0,1,0,2,0,0,1,0
413614537,413612565,0,nan,nan,-0.0008747419,-0.0007100429,0.8290612,0.0,0.0,0.0,-0.002377038,-0.0024243675,0.10303893,0.10021023,-0.00071485934,-0.0009356753,0.0,0.03005119,-0.003587691,-0.024117142,-0.21960211,-2.2562287,nan,0.1,0.07834662,0.48596096,0.089669466,0.11373757,inf,inf,inf,inf,0,1,0,1,1,0,1,0,2,0,0,1,0
413714630,413712646,0,nan,nan,-0.0007876886,-0.00080461334,0.8393504,0.0,0.0,0.0,-0.00070525217,-0.00496528,0.103169754,0.100589484,-0.00071485934,-0.0009356753,0.0,0.027810073,-0.0697188,0.25280654,-0.21940272,-2.2562287,nan,0.1,0.085403755,0.48530358,0.09442735,0.11364786,inf,inf,inf,inf,0,1,0,1,1,0,1,0,2,0,0,1,0
413814895,413812732,0,nan,nan,-0.00063803873,-0.0009513128,0.84963214,0.0,0.0,0.0,-0.00079894543,-0.003497318,0.1021434,0.09980021,-0.00071485934,-0.0009356753,0.0,-0.0028106526,-0.057829328,-0.0034221406,-0.21890981,-2.2562287,nan,0.1,0.07834747,0.4846553,0.0896704,0.11355985,inf,inf,inf,inf,0,1,0,1,1,0,1,0,2,0,0,1,0
413915076,413912816,0,nan,nan,-0.0006298215,-0.0011301257,0.8598914,0.0,0.0,0.0,-0.0021052968,-0.0029666168,0.10214302,0.100023374,-0.00071485934,-0.0009356753,0.0,-0.00096770294,0.007368512,-0.0522949,-0.21925318,-2.2562287,nan,0.1,0.085404664,0.48401615,0.09442876,0.11347399,inf,inf,inf,inf,0,1,0,1,1,0,1,0,2,0,0,1,0
414014876,414012891,0,nan,nan,-0.0005906456,-0.0014113544,0.8701282,0.0,0.0,0.0,-0.00095445797,-0.005215711,0.1019498,0.10004032,-0.00071485934,-0.0009356753,0.0,-0.005476747,-0.01816165,-0.04347688,-0.21919341,-2.2562287,nan,0.1,0.07834809,0.4833695,0.08966523,0.113386154,inf,inf,inf,inf,0,1,0,1,1,0,1,0,2,0,0,1,0
414115004,414112976,0,nan,nan,-0.00055345887,-0.001746795,0.880411,0.0,0.0,0.0,-0.0012463456,-0.0039609103,0.10249345,0.10078024,-0.00071485934,-0.0009356753,0.0,0.0018843758,0.029752597,-0.007446469,-0.21889137,-2.2562287,nan,0.1,0.08540533,0.48271567,0.094424404,0.113296345,inf,inf,inf,inf,0,1,0,1,1,0,1,0,2,0,0,1,0
414215426,414213057,0,nan,nan,-0.00054076675,-0.0019140937,0.8908066,0.0,0.0,0.0,-0.0022259469,-0.0054977247,0.10321359,0.101675436,-0.00071485934,-0.0009356753,0.0,0.02590424,-0.026848132,0.045874722,-0.21904956,-2.2562287,nan,0.1,0.0783484,0.48207086,0.08966309,0.11320855,inf,inf,inf,inf,0,1,0,1,1,0,1,0,2,0,0,1,0
414315587,414313140,0,nan,nan,-0.0005459203,-0.002261138,0.90126,0.0,0.0,0.0,-0.0017057889,-0.008090224,0.10417452,0.10279645,-0.00071485934,-0.0009356753,0.0,-0.009092577,-0.054617442,0.012249231,-0.21919893,-2.2562287,nan,0.1,0.08540519,0.48143515,0.09441922,0.113122754,inf,inf,inf,inf,0,1,0,1,1,0,1,0,2,0,0,1,0
414415372,414413217,0,nan,nan,-0.00054853625,-0.002741803,0.9117733,0.0,0.0,0.0,-0.0009917404,-0.0066041113,0.10455735,0.10332679,-0.00071485934,-0.0009356753,0.0,-0.008612997,-0.0057527954,-0.021047348,-0.21817215,-2.2562287,nan,0.1,0.07834792,0.48541015,0.08965563,0.11366003,inf,inf,inf,inf,0,1,0,1,1,0,1,0,2,0,0,1,0
414515424,414513298,0,nan,nan,-0.0005809134,-0.0030044774,0.9220107,0.0,0.0,0.0,-0.002270903,-0.0028684298,0.10474961,0.10330871,-0.00071485934,-0.0009356753,0.0,-0.017513618,0.06315317,-0.0071016983,-0.21835035,-2.2562287,nan,0.1,0.085404254,0.48477402,0.094412096,0.11357506,inf,inf,inf,inf,0,1,0,1,1,0,1,0,2,0,0,1,0
414615633,414613395,0,nan,nan,-0.00071535073,-0.0030892133,0.9321728,0.0,0.0,0.0,-0.0023542417,-0.005470708,0.10541555,0.103613615,-0.00071485934,-0.0009356753,0.0,0.047159202,-0.024773458,0.020811584,-0.21910428,-2.2562287,nan,0.1,0.07834697,0.48413017,0.089650534,0.11348811,inf,inf,inf,inf,0,1,0,1,1,0,1,0,2,0,0,1,0
