timestamp,timestamp_sample,gps_hvel[0],gps_hvel[1],gps_vvel,gps_hpos[0],gps_hpos[1],gps_vpos,ev_hvel[0],ev_hvel[1],ev_vvel,ev_hpos[0],ev_hpos[1],ev_vpos,rng_vpos,baro_vpos,aux_hvel[0],aux_hvel[1],aux_vvel,flow[0],flow[1],heading,mag_field[0],mag_field[1],mag_field[2],drag[0],drag[1],airspeed,beta,hagl
394709502,394707136,0.0,0.0,0.0,0.014110714,0.014113971,0.0,0.0,0.0,0.0,0.0,0.0,0.0,0.0,12.487149,0.0,0.0,nan,0.0,0.0,0.09014509,0.0,0.0,0.0,0.0,0.0,0.0,0.0,0.0
395220157,395217553,0.0,0.0,0.0,0.014110697,0.014113948,0.0,0.0,0.0,0.0,0.0,0.0,0.0,0.0,12.486516,0.0,0.0,nan,0.0,0.0,0.09014498,0.0,0.0,0.0,0.0,0.0,0.0,0.0,0.0
395710538,395707950,0.0,0.0,0.0,0.014110779,0.014114028,0.0,0.0,0.0,0.0,0.0,0.0,0.0,0.0,12.487038,0.0,0.0,nan,0.0,0.0,0.09014511,0.0,0.0,0.0,0.0,0.0,0.0,0.0,0.0
396210438,396208362,0.0,0.0,0.0,0.014110914,0.014114171,0.0,0.0,0.0,0.0,0.0,0.0,0.0,0.0,12.486706,0.0,0.0,nan,0.0,0.0,0.09014512,0.0,0.0,0.0,0.0,0.0,0.0,0.0,0.0
396710918,396708770,0.0,0.0,0.0,0.25411096,0.25411424,0.0,0.0,0.0,0.0,0.0,0.0,0.0,0.0,12.487239,0.0,0.0,nan,0.0,0.0,0.090145126,0.0,0.0,0.0,0.0,0.0,0.0,0.0,0.0
397711487,397709593,0.0,0.0,0.0,0.2665883,0.26661146,0.0,0.0,0.0,0.0,0.0,0.0,0.0,0.0,12.487118,0.0,0.0,nan,0.0,0.0,0.09014504,0.0,0.0,0.0,0.0,0.0,0.0,0.0,0.0
398211864,398209999,0.0,0.0,0.0,0.016086565,0.016089134,0.0,0.0,0.0,0.0,0.0,0.0,0.0,0.0,12.486782,0.0,0.0,nan,0.0,0.0,0.090144925,0.0,0.0,0.0,0.0,0.0,0.0,0.0,0.0
398713123,398710409,0.0,0.0,0.0,0.01450761,0.014510024,0.0,0.0,0.0,0.0,0.0,0.0,0.0,0.0,12.486453,0.0,0.0,nan,0.0,0.0,0.09014493,0.0,0.0,0.0,0.0,0.0,0.0,0.0,0.0
399212903,399210818,0.0,0.0,0.0,0.014144346,0.014147701,0.0,0.0,0.0,0.0,0.0,0.0,0.0,0.0,12.486684,0.0,0.0,nan,0.0,0.0,0.09014496,0.0,0.0,0.0,0.0,0.0,0.0,0.0,0.0
399713422,399711228,0.0,0.0,0.0,0.25418162,0.2541852,0.0,0.0,0.0,0.0,0.0,0.0,0.0,0.0,12.487214,0.0,0.0,nan,0.0,0.0,0.09014519,0.0,0.0,0.0,0.0,0.0,0.0,0.0,0.0
400213993,400211643,0.0,0.0,0.0,0.26061988,0.26063406,0.0,0.0,0.0,0.0,0.0,0.0,0.0,0.0,12.48689,0.0,0.0,nan,0.0,0.0,0.09014531,0.0,0.0,0.0,0.0,0.0,0.0,0.0,0.0
400714456,400712048,0.0,0.0,0.0,0.26737005,0.2673946,0.0,0.0,0.0,0.0,0.0,0.0,0.0,0.0,12.487117,0.0,0.0,nan,0.0,0.0,0.0901452,0.0,0.0,0.0,0.0,0.0,0.0,0.0,0.0
401214792,401212510,0.0,0.0,0.0,0.2794238,0.27946094,0.0,0.0,0.0,0.0,0.0,0.0,0.0,0.0,12.486776,0.0,0.0,nan,0.0,0.0,0.09014521,0.0,0.0,0.0,0.0,0.0,0.0,0.0,0.0
401715007,401712873,0.0,0.0,0.0,0.2867772,0.2868164,0.0,0.0,0.0,0.0,0.0,0.0,0.0,0.0,12.486474,0.0,0.0,nan,0.0,0.0,0.09014533,0.0,0.0,0.0,0.0,0.0,0.0,0.0,0.0
402215702,402213275,0.0,0.0,0.0,0.020014036,0.02001632,0.0,0.0,0.0,0.0,0.0,0.0,0.0,0.0,12.486682,0.0,0.0,nan,0.0,0.0,0.09014521,0.0,0.0,0.0,0.0,0.0,0.0,0.0,0.0
402716817,402713689,0.0,0.0,0.0,0.015054808,0.0150567945,0.0,0.0,0.0,0.0,0.0,0.0,0.0,0.0,12.486363,0.0,0.0,nan,0.0,0.0,0.0901452,0.0,0.0,0.0,0.0,0.0,0.0,0.0,0.0
403216477,403214093,0.0,0.0,0.0,0.014294462,0.014298049,0.0,0.0,0.0,0.0,0.0,0.0,0.0,0.0,12.486908,0.0,0.0,nan,0.0,0.0,0.090145215,0.0,0.0,0.0,0.0,0.0,0.0,0.0,0.0
403716916,403714502,0.0,0.0,0.0,0.014359431,0.014363249,0.0,0.0,0.0,0.0,0.0,0.0,0.0,0.0,12.486583,0.0,0.0,nan,0.0,0.0,0.090145096,0.0,0.0,0.0,0.0,0.0,0.0,0.0,0.0
404207190,404204910,0.0,0.0,0.0,0.014388326,0.014391564,0.0,0.0,0.0,0.0,0.0,0.0,0.0,0.0,12.486782,0.0,0.0,nan,0.0,0.0,0.09014511,0.0,0.0,0.0,0.0,0.0,0.0,0.0,0.0
404707186,404705311,0.0,0.0,0.0,0.0143278595,0.014330784,0.0,0.0,0.0,0.0,0.0,0.0,0.0,0.0,12.486459,0.0,0.0,nan,0.0,0.0,0.09014523,0.0,0.0,0.0,0.0,0.0,0.0,0.0,0.0
405207555,405205731,0.0,0.0,0.0,0.014217384,0.014220243,0.0,0.0,0.0,0.0,0.0,0.0,0.0,0.0,12.486969,0.0,0.0,nan,0.0,0.0,0.090145126,0.0,0.0,0.0,0.0,0.0,0.0,0.0,0.0
405708613,405706127,0.0,0.0,0.0,0.014164421,0.0141673945,0.0,0.0,0.0,0.0,0.0,0.0,0.0,0.0,12.486327,0.0,0.0,nan,0.0,0.0,0.09014535,0.0,0.0,0.0,0.0,0.0,0.0,0.0,0.0
406208406,406206536,0.0,0.0,0.0,0.0141239725,0.014127143,0.0,0.0,0.0,0.0,0.0,0.0,0.0,0.0,12.48684,0.0,0.0,nan,0.0,0.0,0.09014535,0.0,0.0,0.0,0.0,0.0,0.0,0.0,0.0
406708922,406706943,0.0,0.0,0.0,0.2556848,0.25569043,0.0,0.0,0.0,0.0,0.0,0.0,0.0,0.0,12.486518,0.0,0.0,nan,0.0,0.0,0.09014524,0.0,0.0,0.0,0.0,0.0,0.0,0.0,0.0
407209305,407207351,0.0,0.0,0.0,0.2631927,0.2632107,0.0,0.0,0.0,0.0,0.0,0.0,0.0,0.0,12.487045,0.0,0.0,nan,0.0,0.0,0.09014512,0.0,0.0,0.0,0.0,0.0,0.0,0.0,0.0
407710042,407707778,0.0,0.0,0.0,0.018209975,0.018215153,0.0,0.0,0.0,0.0,0.0,0.0,0.0,0.0,12.486386,0.0,0.0,nan,0.0,0.0,0.09014512,0.0,0.0,0.0,0.0,0.0,0.0,0.0,0.0
408210024,408208166,0.0,0.0,0.0,0.014504168,0.014506659,0.0,0.0,0.0,0.0,0.0,0.0,0.0,0.0,12.486917,0.0,0.0,nan,0.0,0.0,0.09014513,0.0,0.0,0.0,0.0,0.0,0.0,0.0,0.0
408710924,408708573,0.0,0.0,0.0,0.0141659435,0.014168972,0.0,0.0,0.0,0.0,0.0,0.0,0.0,0.0,12.486594,0.0,0.0,nan,0.0,0.0,0.09014514,0.0,0.0,0.0,0.0,0.0,0.0,0.0,0.0
409211051,409209012,0.0,0.0,0.0,0.01416025,0.01416374,0.0,0.0,0.0,0.0,0.0,0.0,0.0,0.0,12.486796,0.0,0.0,nan,0.0,0.0,0.09014504,0.0,0.0,0.0,0.0,0.0,0.0,0.0,0.0
409711606,409709402,0.0,0.0,0.0,0.014193969,0.014197385,0.0,0.0,0.0,0.0,0.0,0.0,0.0,0.0,12.486492,0.0,0.0,nan,0.0,0.0,0.09014515,0.0,0.0,0.0,0.0,0.0,0.0,0.0,0.0
410211844,410209806,0.0,0.0,0.0,0.01419137,0.014194557,0.0,0.0,0.0,0.0,0.0,0.0,0.0,0.0,12.487003,0.0,0.0,nan,0.0,0.0,0.090145156,0.0,0.0,0.0,0.0,0.0,0.0,0.0,0.0
410712566,410710202,0.0,0.0,0.0,0.0141685475,0.014171666,0.0,0.0,0.0,0.0,0.0,0.0,0.0,0.0,12.486379,0.0,0.0,nan,0.0,0.0,0.09014505,0.0,0.0,0.0,0.0,0.0,0.0,0.0,0.0
411212936,411210614,0.0,0.0,0.0,0.014135524,0.014138671,0.0,0.0,0.0,0.0,0.0,0.0,0.0,0.0,12.486907,0.0,0.0,nan,0.0,0.0,0.09014505,0.0,0.0,0.0,0.0,0.0,0.0,0.0,0.0
411713310,411711017,0.0,0.0,0.0,0.014121769,0.014124968,0.0,0.0,0.0,0.0,0.0,0.0,0.0,0.0,12.4865675,0.0,0.0,nan,0.0,0.0,0.09014518,0.0,0.0,0.0,0.0,0.0,0.0,0.0,0.0
412213654,412211425,0.0,0.0,0.0,0.014112901,0.014116161,0.0,0.0,0.0,0.0,0.0,0.0,0.0,0.0,12.486266,0.0,0.0,nan,0.0,0.0,0.090145074,0.0,0.0,0.0,0.0,0.0,0.0,0.0,0.0
412713856,412711832,0.0,0.0,0.0,0.0141116325,0.014114908,0.0,0.0,0.0,0.0,0.0,0.0,0.0,0.0,12.486461,0.0,0.0,nan,0.0,0.0,0.090144984,0.0,0.0,0.0,0.0,0.0,0.0,0.0,0.0
413214921,413212239,0.0,0.0,0.0,0.014111916,0.014115196,0.0,0.0,0.0,0.0,0.0,0.0,0.0,0.0,12.486146,0.0,0.0,nan,0.0,0.0,0.090145096,0.0,0.0,0.0,0.0,0.0,0.0,0.0,0.0
413714853,413712646,0.0,0.0,0.0,0.014112225,0.014115501,0.0,0.0,0.0,0.0,0.0,0.0,0.0,0.0,12.486676,0.0,0.0,nan,0.0,0.0,0.090145096,0.0,0.0,0.0,0.0,0.0,0.0,0.0,0.0
414215700,414213057,0.0,0.0,0.0,0.014112495,0.014115761,0.0,0.0,0.0,0.0,0.0,0.0,0.0,0.0,12.486886,0.0,0.0,nan,0.0,0.0,0.09014511,0.0,0.0,0.0,0.0,0.0,0.0,0.0,0.0
414716046,414713461,0.0,0.0,0.0,0.014112331,0.014115587,0.0,0.0,0.0,0.0,0.0,0.0,0.0,0.0,12.486576,0.0,0.0,nan,0.0,0.0,0.090145,0.0,0.0,0.0,0.0,0.0,0.0,0.0,0.0
415215924,415213875,0.0,0.0,0.0,0.014111886,0.014115142,0.0,0.0,0.0,0.0,0.0,0.0,0.0,0.0,12.486256,0.0,0.0,nan,0.0,0.0,0.090145014,0.0,0.0,0.0,0.0,0.0,0.0,0.0,0.0
415717258,415714280,0.0,0.0,0.0,0.014111636,0.014114894,0.0,0.0,0.0,0.0,0.0,0.0,0.0,0.0,12.486464,0.0,0.0,nan,0.0,0.0,0.090145014,0.0,0.0,0.0,0.0,0.0,0.0,0.0,0.0
416707428,416705101,0.0,0.0,0.0,0.014111267,0.014114527,0.0,0.0,0.0,0.0,0.0,0.0,0.0,0.0,12.486655,0.0,0.0,nan,0.0,0.0,0.09014495,0.0,0.0,0.0,0.0,0.0,0.0,0.0,0.0
417207355,417205492,0.0,0.0,0.0,0.25769636,0.25770527,0.0,0.0,0.0,0.0,0.0,0.0,0.0,0.0,12.48635,0.0,0.0,nan,0.0,0.0,0.090144955,0.0,0.0,0.0,0.0,0.0,0.0,0.0,0.0
417707886,417705900,0.0,0.0,0.0,0.26317996,0.2631978,0.0,0.0,0.0,0.0,0.0,0.0,0.0,0.0,12.486553,0.0,0.0,nan,0.0,0.0,0.09014508,0.0,0.0,0.0,0.0,0.0,0.0,0.0,0.0
418209003,418206308,0.0,0.0,0.0,0.2742622,0.27429485,0.0,0.0,0.0,0.0,0.0,0.0,0.0,0.0,12.486218,0.0,0.0,nan,0.0,0.0,0.09014508,0.0,0.0,0.0,0.0,0.0,0.0,0.0,0.0
418708772,418706717,0.0,0.0,0.0,0.28202245,0.28206092,0.0,0.0,0.0,0.0,0.0,0.0,0.0,0.0,12.486763,0.0,0.0,nan,0.0,0.0,0.090144984,0.0,0.0,0.0,0.0,0.0,0.0,0.0,0.0
419209045,419207125,0.0,0.0,0.0,0.29126248,0.2913,0.0,0.0,0.0,0.0,0.0,0.0,0.0,0.0,12.4864235,0.0,0.0,nan,0.0,0.0,0.09014499,0.0,0.0,0.0,0.0,0.0,0.0,0.0,0.0
419709743,419707534,0.0,0.0,0.0,0.29510182,0.29513484,0.0,0.0,0.0,0.0,0.0,0.0,0.0,0.0,12.486644,0.0,0.0,nan,0.0,0.0,0.090145,0.0,0.0,0.0,0.0,0.0,0.0,0.0,0.0
420209799,420207943,0.0,0.0,0.0,0.29796207,0.29798833,0.0,0.0,0.0,0.0,0.0,0.0,0.0,0.0,12.486324,0.0,0.0,nan,0.0,0.0,0.09014502,0.0,0.0,0.0,0.0,0.0,0.0,0.0,0.0
420710719,420708370,0.0,0.0,0.0,0.05865633,0.05867958,0.0,0.0,0.0,0.0,0.0,0.0,0.0,0.0,12.486837,0.0,0.0,nan,0.0,0.0,0.09014502,0.0,0.0,0.0,0.0,0.0,0.0,0.0,0.0
421210600,421208759,0.0,0.0,0.0,0.015120445,0.015122772,0.0,0.0,0.0,0.0,0.0,0.0,0.0,0.0,12.486217,0.0,0.0,nan,0.0,0.0,0.09014502,0.0,0.0,0.0,0.0,0.0,0.0,0.0,0.0
421711358,421709167,0.0,0.0,0.0,0.25456092,0.2545644,0.0,0.0,0.0,0.0,0.0,0.0,0.0,0.0,12.486749,0.0,0.0,nan,0.0,0.0,0.09014504,0.0,0.0,0.0,0.0,0.0,0.0,0.0,0.0
422211620,422209576,0.0,0.0,0.0,0.26221377,0.2622299,0.0,0.0,0.0,0.0,0.0,0.0,0.0,0.0,12.486428,0.0,0.0,nan,0.0,0.0,0.09014494,0.0,0.0,0.0,0.0,0.0,0.0,0.0,0.0
422712128,422709984,0.0,0.0,0.0,0.2702806,0.27030823,0.0,0.0,0.0,0.0,0.0,0.0,0.0,0.0,12.486649,0.0,0.0,nan,0.0,0.0,0.090144955,0.0,0.0,0.0,0.0,0.0,0.0,0.0,0.0
423212678,423210408,0.0,0.0,0.0,0.28383183,0.28387034,0.0,0.0,0.0,0.0,0.0,0.0,0.0,0.0,12.48633,0.0,0.0,nan,0.0,0.0,0.09014486,0.0,0.0,0.0,0.0,0.0,0.0,0.0,0.0
423713137,423710818,0.0,0.0,0.0,0.020017333,0.020019967,0.0,0.0,0.0,0.0,0.0,0.0,0.0,0.0,12.4868765,0.0,0.0,nan,0.0,0.0,0.090144865,0.0,0.0,0.0,0.0,0.0,0.0,0.0,0.0
424213144,424211216,0.0,0.0,0.0,0.26032197,0.2603278,0.0,0.0,0.0,0.0,0.0,0.0,0.0,0.0,12.486552,0.0,0.0,nan,0.0,0.0,0.09014488,0.0,0.0,0.0,0.0,0.0,0.0,0.0,0.0
424713644,424711648,0.0,0.0,0.0,0.26602274,0.26603633,0.0,0.0,0.0,0.0,0.0,0.0,0.0,0.0,12.486754,0.0,0.0,nan,0.0,0.0,0.090145014,0.0,0.0,0.0,0.0,0.0,0.0,0.0,0.0
425214504,425212023,0.0,0.0,0.0,0.27696103,0.2769886,0.0,0.0,0.0,0.0,0.0,0.0,0.0,0.0,12.486436,0.0,0.0,nan,0.0,0.0,0.090145014,0.0,0.0,0.0,0.0,0.0,0.0,0.0,0.0
425715048,425712429,0.0,0.0,0.0,0.28428888,0.2843234,0.0,0.0,0.0,0.0,0.0,0.0,0.0,0.0,12.486947,0.0,0.0,nan,0.0,0.0,0.0901449,0.0,0.0,0.0,0.0,0.0,0.0,0.0,0.0
426214952,426212833,0.0,0.0,0.0,0.2927429,0.29279244,0.0,0.0,0.0,0.0,0.0,0.0,0.0,0.0,12.486317,0.0,0.0,nan,0.0,0.0,0.09014482,0.0,0.0,0.0,0.0,0.0,0.0,0.0,0.0
426715367,426713235,0.0,0.0,0.0,0.29619074,0.29627877,0.0,0.0,0.0,0.0,0.0,0.0,0.0,0.0,12.486836,0.0,0.0,nan,0.0,0.0,0.090144776,0.0,0.0,0.0,0.0,0.0,0.0,0.0,0.0
427216120,427213635,0.0,0.0,0.0,100.058136,100.05854,0.0,0.0,0.0,0.0,0.0,0.0,0.0,0.0,12.486503,0.0,0.0,nan,0.0,0.0,0.09014472,0.0,0.0,0.0,0.0,0.0,0.0,0.0,0.0
427716760,427714031,0.0,0.0,0.0,100.08503,100.086525,0.0,0.0,0.0,0.0,0.0,0.0,0.0,0.0,12.48689,0.0,0.0,nan,0.0,0.0,0.090144634,0.0,0.0,0.0,0.0,0.0,0.0,0.0,0.0
428216502,428214437,0.0,0.0,0.0,100.16161,100.16828,0.0,0.0,0.0,0.0,0.0,0.0,0.0,0.0,12.487136,0.0,0.0,nan,0.0,0.0,0.09014482,0.0,0.0,0.0,0.0,0.0,0.0,0.0,0.0
428717291,428714821,0.0,0.0,0.0,100.261375,100.27547,0.0,0.0,0.0,0.0,0.0,0.0,0.0,0.0,12.488315,0.0,0.0,nan,0.0,0.0,0.09014521,0.0,0.0,0.0,0.0,0.0,0.0,0.0,0.0
429207360,429205195,0.0,0.0,0.0,100.54395,100.57635,0.0,0.0,0.0,0.0,0.0,0.0,0.0,0.0,12.492335,0.0,0.0,nan,0.0,0.0,0.09014469,0.0,0.0,0.0,0.0,0.0,0.0,0.0,0.0
429708374,429705579,0.0,0.0,0.0,100.85744,100.90951,0.0,0.0,0.0,0.0,0.0,0.0,0.0,0.0,12.500386,0.0,0.0,nan,0.0,0.0,0.10013343,0.0026730292,0.0027292229,0.0026732387,0.0,0.0,0.0,0.0,0.0
430208287,430205977,0.0,0.0,0.0,101.55283,101.655846,0.0,0.0,0.0,0.0,0.0,0.0,0.0,0.0,12.511677,0.0,0.0,nan,0.0,0.0,0.10013343,0.002566173,0.002605604,0.0025657215,0.0,0.0,0.0,0.0,0.0
430712863,430706341,0.0,0.0,0.0,102.17489,102.33732,0.0,0.0,0.0,0.0,0.0,0.0,0.0,0.0,12.529688,0.0,0.0,nan,0.0,0.0,0.10013343,0.0025420878,0.0025760888,0.0025410955,0.0,0.0,0.0,0.0,0.0
431709564,431707095,0.0,0.0,0.0,104.10865,104.611725,0.0,0.0,0.0,0.0,0.0,0.0,0.0,0.0,12.578969,0.0,0.0,nan,0.0,0.0,0.10013343,0.0025333774,0.0025581345,0.00252787,0.0,0.0,0.0,0.0,0.0
432214242,432207464,0.0,0.0,0.0,105.29793,106.14612,0.0,0.0,0.0,0.0,0.0,0.0,0.0,0.0,12.601748,0.0,0.0,nan,0.0,0.0,0.10013343,0.0025372095,0.0025645986,0.0025320258,0.0,0.0,0.0,0.0,0.0
432714648,432707833,0.0,0.0,0.0,106.01516,107.10539,0.0,0.0,0.0,0.0,0.0,0.0,0.0,0.0,12.616368,0.0,0.0,nan,0.0,0.0,0.10013343,0.002537158,0.0025578842,0.0025379518,0.0,0.0,0.0,0.0,0.0
433214809,433208210,0.0,0.0,0.0,106.85146,108.30951,0.0,0.0,0.0,0.0,0.0,0.0,0.0,0.0,12.631074,0.0,0.0,nan,0.0,0.0,0.10013343,0.0025351115,0.0025432794,0.002535355,0.0,0.0,0.0,0.0,0.0
433710642,433708564,0.0,0.0,0.0,107.30548,108.91584,0.0,0.0,0.0,0.0,0.0,0.0,0.0,0.0,12.631716,0.0,0.0,nan,0.0,0.0,0.10013343,0.002532954,0.0025462692,0.002533066,0.0,0.0,0.0,0.0,0.0
434210943,434208929,0.0,0.0,0.0,107.78962,109.53479,0.0,0.0,0.0,0.0,0.0,0.0,0.0,0.0,12.634995,0.0,0.0,nan,0.0,0.0,0.10013343,0.0025285385,0.0025557661,0.0025286542,0.0,0.0,0.0,0.0,0.0
434716224,434709295,0.0,0.0,0.0,107.97574,109.78794,0.0,0.0,0.0,0.0,0.0,0.0,0.0,0.0,12.632797,0.0,0.0,nan,0.0,0.0,0.10013343,0.0025209093,0.002542995,0.002516776,0.0,0.0,0.0,0.0,0.0
435211616,435209641,0.0,0.0,0.0,108.17405,109.991234,0.0,0.0,0.0,0.0,0.0,0.0,0.0,0.0,12.630706,0.0,0.0,nan,0.0,0.0,0.10013343,0.002521681,0.002535302,0.0025177023,0.0,0.0,0.0,0.0,0.0
435712103,435709994,0.0,0.0,0.0,108.26667,110.027695,0.0,0.0,0.0,0.0,0.0,0.0,0.0,0.0,12.627744,0.0,0.0,nan,0.0,0.0,0.10013343,0.0025196949,0.0025364528,0.0025184555,0.0,0.0,0.0,0.0,0.0
436217298,436210352,0.0,0.0,0.0,108.34889,109.96161,0.0,0.0,0.0,0.0,0.0,0.0,0.0,0.0,12.62133,0.0,0.0,nan,0.0,0.0,0.10013343,0.002515316,0.0025412755,0.0025222155,0.0,0.0,0.0,0.0,0.0
436712779,436710700,0.0,0.0,0.0,108.375885,109.852234,0.0,0.0,0.0,0.0,0.0,0.0,0.0,0.0,12.618636,0.0,0.0,nan,0.0,0.0,0.10013343,0.0025136047,0.0025316502,0.0025133463,0.0,0.0,0.0,0.0,0.0
437217872,437211039,0.0,0.0,0.0,108.41564,109.621506,0.0,0.0,0.0,0.0,0.0,0.0,0.0,0.0,12.616555,0.0,0.0,nan,0.0,0.0,0.10013343,0.002515617,0.0025249687,0.0025096883,0.0,0.0,0.0,0.0,0.0
437718224,437711404,0.0,0.0,0.0,108.44434,109.42701,0.0,0.0,0.0,0.0,0.0,0.0,0.0,0.0,12.620889,0.0,0.0,nan,0.0,0.0,0.10013343,0.0025245566,0.0025207095,0.0025207708,0.0,0.0,0.0,0.0,0.0
438213825,438211724,0.0,0.0,0.0,108.4552,109.12659,0.0,0.0,0.0,0.0,0.0,0.0,0.0,0.0,12.633202,0.0,0.0,nan,0.0,0.0,0.10013343,0.0025186583,0.0025228504,0.0025157568,0.0,0.0,0.0,0.0,0.0
438718932,438712058,0.0,0.0,0.0,108.43335,108.944,0.0,0.0,0.0,0.0,0.0,0.0,0.0,0.0,12.640857,0.0,0.0,nan,0.0,0.0,0.10013343,0.0025154687,0.002524656,0.002512571,0.0,0.0,0.0,0.0,0.0
439214498,439212417,0.0,0.0,0.0,108.382385,108.701965,0.0,0.0,0.0,0.0,0.0,0.0,0.0,0.0,12.650104,0.0,0.0,nan,0.0,0.0,0.10013343,0.0025151423,0.0025198588,0.0025074424,0.0,0.0,0.0,0.0,0.0
439719869,439712735,0.0,0.0,0.0,108.33626,108.562706,0.0,0.0,0.0,0.0,0.0,0.0,0.0,0.0,12.657765,0.0,0.0,nan,0.0,0.0,0.10013343,0.002517175,0.0025221212,0.0025081963,0.0,0.0,0.0,0.0,0.0
440215252,440213068,0.0,0.0,0.0,108.26496,108.3961,0.0,0.0,0.0,0.0,0.0,0.0,0.0,0.0,12.665697,0.0,0.0,nan,0.0,0.0,0.10013343,0.0025209973,0.0025251769,0.0025078058,0.0,0.0,0.0,0.0,0.0
440715613,440713405,0.0,0.0,0.0,108.21996,108.33699,0.0,0.0,0.0,0.0,0.0,0.0,0.0,0.0,12.677986,0.0,0.0,nan,0.0,0.0,0.10013343,0.0025223575,0.0025285936,0.0025072924,0.0,0.0,0.0,0.0,0.0
441216209,441213730,0.0,0.0,0.0,108.06608,108.30249,0.0,0.0,0.0,0.0,0.0,0.0,0.0,0.0,12.692461,0.0,0.0,nan,0.0,0.0,0.10013343,0.0025283557,0.002545608,0.0025196867,0.0,0.0,0.0,0.0,0.0
441716252,441714110,0.0,0.0,0.0,107.91299,108.29158,0.0,0.0,0.0,0.0,0.0,0.0,0.0,0.0,12.705462,0.0,0.0,nan,0.0,0.0,0.10013343,0.0025256826,0.0025438566,0.0025271878,0.0,0.0,0.0,0.0,0.0
442216658,442214405,0.0,0.0,0.0,107.6492,108.2267,0.0,0.0,0.0,0.0,0.0,0.0,0.0,0.0,12.711198,0.0,0.0,nan,0.0,0.0,0.10013343,0.0025254064,0.00254509,0.00252966,0.0,0.0,0.0,0.0,0.0
442721572,442714747,0.0,0.0,0.0,107.469215,108.10066,0.0,0.0,0.0,0.0,0.0,0.0,0.0,0.0,12.705399,0.0,0.0,nan,0.0,0.0,0.10013343,0.002516126,0.0025224918,0.0025067243,0.0,0.0,0.0,0.0,0.0
443212042,443205039,0.0,0.0,0.0,107.24084,107.85408,0.0,0.0,0.0,0.0,0.0,0.0,0.0,0.0,12.695491,0.0,0.0,nan,0.0,0.0,0.10013343,0.0025255454,0.0025472592,0.0025272907,0.0,0.0,0.0,0.0,0.0
443707351,443705363,0.0,0.0,0.0,107.1276,107.71079,0.0,0.0,0.0,0.0,0.0,0.0,0.0,0.0,12.683764,0.0,0.0,nan,0.0,0.0,0.10013343,0.0025354512,0.002542486,0.002508352,0.0,0.0,0.0,0.0,0.0
444208264,444205716,0.0,0.0,0.0,107.00225,107.57736,0.0,0.0,0.0,0.0,0.0,0.0,0.0,0.0,12.682631,0.0,0.0,nan,0.0,0.0,0.10013343,0.0025334381,0.0025299767,0.0025110804,0.0,0.0,0.0,0.0,0.0
444708138,444706006,0.0,0.0,0.0,106.943794,107.51366,0.0,0.0,0.0,0.0,0.0,0.0,0.0,0.0,12.68377,0.0,0.0,nan,0.0,0.0,0.10013343,0.0025322584,0.002525293,0.0025117206,0.0,0.0,0.0,0.0,0.0
445213332,445206325,0.0,0.0,0.0,106.87784,107.433395,0.0,0.0,0.0,0.0,0.0,0.0,0.0,0.0,12.686051,0.0,0.0,nan,0.0,0.0,0.10013343,0.0025275338,0.0025194213,0.00251136,0.0,0.0,0.0,0.0,0.0
445713198,445706643,0.0,0.0,0.0,106.84021,107.395195,0.0,0.0,0.0,0.0,0.0,0.0,0.0,0.0,12.681644,0.0,0.0,nan,0.0,0.0,0.10013343,0.0025225002,0.0025156632,0.0025100631,0.0,0.0,0.0,0.0,0.0
446214138,446206958,0.0,0.0,0.0,106.791725,107.328804,0.0,0.0,0.0,0.0,0.0,0.0,0.0,0.0,12.6768055,0.0,0.0,nan,0.0,0.0,0.10013343,0.0025207095,0.0025166934,0.002507579,0.0,0.0,0.0,0.0,0.0
446709427,446707271,0.0,0.0,0.0,106.75949,107.2776,0.0,0.0,0.0,0.0,0.0,0.0,0.0,0.0,12.667392,0.0,0.0,nan,0.0,0.0,0.10013343,0.0025173286,0.002513374,0.0025069045,0.0,0.0,0.0,0.0,0.0
447214675,447207583,0.0,0.0,0.0,106.73412,107.226616,0.0,0.0,0.0,0.0,0.0,0.0,0.0,0.0,12.658703,0.0,0.0,nan,0.0,0.0,0.10013343,0.00251695,0.0025125588,0.0025067339,0.0,0.0,0.0,0.0,0.0
447714737,447707893,0.0,0.0,0.0,106.740425,107.204666,0.0,0.0,0.0,0.0,0.0,0.0,0.0,0.0,12.651821,0.0,0.0,nan,0.0,0.0,0.10013343,0.0025167929,0.0025117327,0.0025065744,0.0,0.0,0.0,0.0,0.0
448210970,448208224,0.0,0.0,0.0,106.7788,107.18542,0.0,0.0,0.0,0.0,0.0,0.0,0.0,0.0,12.647074,0.0,0.0,nan,0.0,0.0,0.10013343,0.00251663,0.002511372,0.0025064172,0.0,0.0,0.0,0.0,0.0
448715147,448708514,0.0,0.0,0.0,106.82516,107.178024,0.0,0.0,0.0,0.0,0.0,0.0,0.0,0.0,12.641764,0.0,0.0,nan,0.0,0.0,0.10013343,0.002516237,0.0025110205,0.0025060459,0.0,0.0,0.0,0.0,0.0
449211225,449208813,0.0,0.0,0.0,106.91956,107.17613,0.0,0.0,0.0,0.0,0.0,0.0,0.0,0.0,12.639634,0.0,0.0,nan,0.0,0.0,0.10013343,0.002515451,0.0025109674,0.002505689,0.0,0.0,0.0,0.0,0.0
449715814,449709123,0.0,0.0,0.0,106.99043,107.17553,0.0,0.0,0.0,0.0,0.0,0.0,0.0,0.0,12.635011,0.0,0.0,nan,0.0,0.0,0.10013343,0.002514536,0.0025151146,0.002505838,0.0,0.0,0.0,0.0,0.0
450211668,450209418,0.0,0.0,0.0,107.10344,107.18724,0.0,0.0,0.0,0.0,0.0,0.0,0.0,0.0,12.630751,0.0,0.0,nan,0.0,0.0,0.10013343,0.002513273,0.0025113393,0.0025054016,0.0,0.0,0.0,0.0,0.0
450716280,450709735,0.0,0.0,0.0,107.18329,107.20385,0.0,0.0,0.0,0.0,0.0,0.0,0.0,0.0,12.624757,0.0,0.0,nan,0.0,0.0,0.10013343,0.0025123097,0.0025103365,0.002505213,0.0,0.0,0.0,0.0,0.0
451217072,451210016,0.0,0.0,0.0,107.302536,107.24116,0.0,0.0,0.0,0.0,0.0,0.0,0.0,0.0,12.620928,0.0,0.0,nan,0.0,0.0,0.10013343,0.0025115234,0.0025106696,0.002505021,0.0,0.0,0.0,0.0,0.0
451717137,451710313,0.0,0.0,0.0,107.37693,107.272125,0.0,0.0,0.0,0.0,0.0,0.0,0.0,0.0,12.615379,0.0,0.0,nan,0.0,0.0,0.10013343,0.002510737,0.0025108263,0.0025048952,0.0,0.0,0.0,0.0,0.0
452213300,452210614,0.0,0.0,0.0,107.473625,107.32613,0.0,0.0,0.0,0.0,0.0,0.0,0.0,0.0,12.609217,0.0,0.0,nan,0.0,0.0,0.10013343,0.0025100303,0.0025127959,0.0025050673,0.0,0.0,0.0,0.0,0.0
453218607,453211194,0.0,0.0,0.0,107.57322,107.4307,0.0,0.0,0.0,0.0,0.0,0.0,0.0,0.0,12.596576,0.0,0.0,nan,0.0,0.0,0.10013343,0.0025088643,0.002510885,0.002504742,0.0,0.0,0.0,0.0,0.0
453718197,453711485,0.0,0.0,0.0,107.59271,107.47937,0.0,0.0,0.0,0.0,0.0,0.0,0.0,0.0,12.590173,0.0,0.0,nan,0.0,0.0,0.10013343,0.002508333,0.0025116885,0.002504831,0.0,0.0,0.0,0.0,0.0
454218774,454211774,0.0,0.0,0.0,107.599754,107.55506,0.0,0.0,0.0,0.0,0.0,0.0,0.0,0.0,12.586112,0.0,0.0,nan,0.0,0.0,0.10013343,0.0025079192,0.0025088156,0.002504428,0.0,0.0,0.0,0.0,0.0
454718836,454712062,0.0,0.0,0.0,107.59227,107.60378,0.0,0.0,0.0,0.0,0.0,0.0,0.0,0.0,12.580772,0.0,0.0,nan,0.0,0.0,0.10013343,0.0025076536,0.002507843,0.00250429,0.0,0.0,0.0,0.0,0.0
455214816,455212348,0.0,0.0,0.0,107.57124,107.675644,0.0,0.0,0.0,0.0,0.0,0.0,0.0,0.0,12.577332,0.0,0.0,nan,0.0,0.0,0.10013343,0.002507385,0.002507951,0.0025043844,0.0,0.0,0.0,0.0,0.0
455719412,455712636,0.0,0.0,0.0,107.55504,107.72071,0.0,0.0,0.0,0.0,0.0,0.0,0.0,0.0,12.575279,0.0,0.0,nan,0.0,0.0,0.10013343,0.0025072016,0.0025103383,0.0025057346,0.0,0.0,0.0,0.0,0.0
456219999,456212917,0.0,0.0,0.0,107.532394,107.77463,0.0,0.0,0.0,0.0,0.0,0.0,0.0,0.0,12.572622,0.0,0.0,nan,0.0,0.0,0.10013343,0.0025072263,0.0025105195,0.0025056489,0.0,0.0,0.0,0.0,0.0
456720186,456713200,0.0,0.0,0.0,107.51458,107.794624,0.0,0.0,0.0,0.0,0.0,0.0,0.0,0.0,12.571002,0.0,0.0,nan,0.0,0.0,0.10013343,0.0025073017,0.0025096773,0.0025052777,0.0,0.0,0.0,0.0,0.0
457216362,457213492,0.0,0.0,0.0,107.48612,107.80897,0.0,0.0,0.0,0.0,0.0,0.0,0.0,0.0,12.569422,0.0,0.0,nan,0.0,0.0,0.10013343,0.0025076524,0.0025088736,0.002504839,0.0,0.0,0.0,0.0,0.0
457720480,457713765,0.0,0.0,0.0,107.469925,107.8128,0.0,0.0,0.0,0.0,0.0,0.0,0.0,0.0,12.568368,0.0,0.0,nan,0.0,0.0,0.10013343,0.0025076692,0.0025081865,0.002505195,0.0,0.0,0.0,0.0,0.0
458221297,458214040,0.0,0.0,0.0,107.48265,107.85899,0.0,0.0,0.0,0.0,0.0,0.0,0.0,0.0,12.571889,0.0,0.0,nan,0.0,0.0,0.10013343,0.0025086903,0.0025085355,0.0025067402,0.0,0.0,0.0,0.0,0.0
458716634,458714325,0.0,0.0,0.0,107.50955,107.93112,0.0,0.0,0.0,0.0,0.0,0.0,0.0,0.0,12.576502,0.0,0.0,nan,0.0,0.0,0.10013343,0.002510189,0.0025128736,0.0025127595,0.0,0.0,0.0,0.0,0.0
459221579,459214607,0.0,0.0,0.0,107.52795,108.03816,0.0,0.0,0.0,0.0,0.0,0.0,0.0,0.0,12.585103,0.0,0.0,nan,0.0,0.0,0.10013343,0.0025112296,0.0025107202,0.0025107032,0.0,0.0,0.0,0.0,0.0
459717053,459714873,0.0,0.0,0.0,107.51094,108.09774,0.0,0.0,0.0,0.0,0.0,0.0,0.0,0.0,12.591746,0.0,0.0,nan,0.0,0.0,0.10013343,0.0025108312,0.002507364,0.0025068787,0.0,0.0,0.0,0.0,0.0
460207407,460205147,0.0,0.0,0.0,107.462975,108.13713,0.0,0.0,0.0,0.0,0.0,0.0,0.0,0.0,12.599241,0.0,0.0,nan,0.0,0.0,0.10013343,0.002510266,0.002507949,0.0025069625,0.0,0.0,0.0,0.0,0.0
460708071,460705422,0.0,0.0,0.0,107.34039,108.13462,0.0,0.0,0.0,0.0,0.0,0.0,0.0,0.0,12.60276,0.0,0.0,nan,0.0,0.0,0.10013343,0.0025109223,0.002506966,0.0025058482,0.0,0.0,0.0,0.0,0.0
461212454,461205697,0.0,0.0,0.0,107.235245,108.10692,0.0,0.0,0.0,0.0,0.0,0.0,0.0,0.0,12.604599,0.0,0.0,nan,0.0,0.0,0.10013343,0.0025111134,0.0025073397,0.0025060235,0.0,0.0,0.0,0.0,0.0
461708361,461705967,0.0,0.0,0.0,107.05469,108.04846,0.0,0.0,0.0,0.0,0.0,0.0,0.0,0.0,12.60447,0.0,0.0,nan,0.0,0.0,0.10013343,0.0025118152,0.0025072847,0.0025058666,0.0,0.0,0.0,0.0,0.0
462208599,462206247,0.0,0.0,0.0,106.928665,108.01973,0.0,0.0,0.0,0.0,0.0,0.0,0.0,0.0,12.609002,0.0,0.0,nan,0.0,0.0,0.10013343,0.0025106804,0.0025076887,0.0025060785,0.0,0.0,0.0,0.0,0.0
462713111,462706507,0.0,0.0,0.0,106.73118,108.01818,0.0,0.0,0.0,0.0,0.0,0.0,0.0,0.0,12.614801,0.0,0.0,nan,0.0,0.0,0.10013343,0.0025091842,0.0025096044,0.0025080626,0.0,0.0,0.0,0.0,0.0
463208806,463206784,0.0,0.0,0.0,106.58828,108.07036,0.0,0.0,0.0,0.0,0.0,0.0,0.0,0.0,12.628724,0.0,0.0,nan,0.0,0.0,0.10013343,0.0025080605,0.002508603,0.0025069641,0.0,0.0,0.0,0.0,0.0
463709499,463707067,0.0,0.0,0.0,106.369804,108.18806,0.0,0.0,0.0,0.0,0.0,0.0,0.0,0.0,12.643825,0.0,0.0,nan,0.0,0.0,0.10013343,0.002507401,0.0025085579,0.002505449,0.0,0.0,0.0,0.0,0.0
464209604,464207324,0.0,0.0,0.0,106.23215,108.238785,0.0,0.0,0.0,0.0,0.0,0.0,0.0,0.0,12.651408,0.0,0.0,nan,0.0,0.0,0.10013343,0.0025072207,0.002508953,0.0025048652,0.0,0.0,0.0,0.0,0.0
464714180,464707586,0.0,0.0,0.0,106.03648,108.25271,0.0,0.0,0.0,0.0,0.0,0.0,0.0,0.0,12.652798,0.0,0.0,nan,0.0,0.0,0.10013343,0.0025068144,0.0025091101,0.002504724,0.0,0.0,0.0,0.0,0.0
465214724,465207872,0.0,0.0,0.0,105.93121,108.22808,0.0,0.0,0.0,0.0,0.0,0.0,0.0,0.0,12.652852,0.0,0.0,nan,0.0,0.0,0.10013343,0.0025061714,0.0025084198,0.0025055304,0.0,0.0,0.0,0.0,0.0
465714807,465708149,0.0,0.0,0.0,105.80101,108.16205,0.0,0.0,0.0,0.0,0.0,0.0,0.0,0.0,12.6514015,0.0,0.0,nan,0.0,0.0,0.10013343,0.0025058102,0.0025088955,0.0025049492,0.0,0.0,0.0,0.0,0.0
466210537,466208409,0.0,0.0,0.0,105.73465,108.10654,0.0,0.0,0.0,0.0,0.0,0.0,0.0,0.0,12.647618,0.0,0.0,nan,0.0,0.0,0.10013343,0.00250565,0.0025096126,0.0025044226,0.0,0.0,0.0,0.0,0.0
466715126,466708654,0.0,0.0,0.0,105.668106,107.99357,0.0,0.0,0.0,0.0,0.0,0.0,0.0,0.0,12.640606,0.0,0.0,nan,0.0,0.0,0.10013343,0.0025051981,0.0025120103,0.0025038207,0.0,0.0,0.0,0.0,0.0
467210801,467208926,0.0,0.0,0.0,105.64375,107.910805,0.0,0.0,0.0,0.0,0.0,0.0,0.0,0.0,12.6319685,0.0,0.0,nan,0.0,0.0,0.10013343,0.0025053737,0.0025175333,0.002503042,0.0,0.0,0.0,0.0,0.0
467715813,467709185,0.0,0.0,0.0,105.63171,107.78504,0.0,0.0,0.0,0.0,0.0,0.0,0.0,0.0,12.621914,0.0,0.0,nan,0.0,0.0,0.10013343,0.0025070466,0.0025064687,0.0025057925,0.0,0.0,0.0,0.0,0.0
468216211,468209448,0.0,0.0,0.0,105.63529,107.68563,0.0,0.0,0.0,0.0,0.0,0.0,0.0,0.0,12.60988,0.0,0.0,nan,0.0,0.0,0.10013343,0.0025053858,0.0025087562,0.0025033858,0.0,0.0,0.0,0.0,0.0
468711947,468709717,0.0,0.0,0.0,105.63937,107.50472,0.0,0.0,0.0,0.0,0.0,0.0,0.0,0.0,12.597531,0.0,0.0,nan,0.0,0.0,0.10013343,0.0025054622,0.002508352,0.002503547,0.0,0.0,0.0,0.0,0.0
469211958,469209983,0.0,0.0,0.0,105.64004,107.374016,0.0,0.0,0.0,0.0,0.0,0.0,0.0,0.0,12.586056,0.0,0.0,nan,0.0,0.0,0.10013343,0.0025047974,0.0025087886,0.0025040598,0.0,0.0,0.0,0.0,0.0
469713082,469710248,0.0,0.0,0.0,105.63046,107.16199,0.0,0.0,0.0,0.0,0.0,0.0,0.0,0.0,12.575029,0.0,0.0,nan,0.0,0.0,0.10013343,0.0025050708,0.0025132766,0.002504792,0.0,0.0,0.0,0.0,0.0
470217529,470210500,0.0,0.0,0.0,105.61221,107.014915,0.0,0.0,0.0,0.0,0.0,0.0,0.0,0.0,12.5647745,0.0,0.0,nan,0.0,0.0,0.10013343,0.002504686,0.0025102776,0.002504113,0.0,0.0,0.0,0.0,0.0
470713120,470710774,0.0,0.0,0.0,105.59179,106.829346,0.0,0.0,0.0,0.0,0.0,0.0,0.0,0.0,12.557428,0.0,0.0,nan,0.0,0.0,0.10013343,0.0025055332,0.002510529,0.0025030756,0.0,0.0,0.0,0.0,0.0
471217696,471211025,0.0,0.0,0.0,105.58727,106.733025,0.0,0.0,0.0,0.0,0.0,0.0,0.0,0.0,12.5503025,0.0,0.0,nan,0.0,0.0,0.10013343,0.002505845,0.002509589,0.0025029113,0.0,0.0,0.0,0.0,0.0
471713284,471711291,0.0,0.0,0.0,105.58445,106.60104,0.0,0.0,0.0,0.0,0.0,0.0,0.0,0.0,12.544487,0.0,0.0,nan,0.0,0.0,0.10013343,0.0025070673,0.0025060119,0.0025066072,0.0,0.0,0.0,0.0,0.0
472213640,472211556,0.0,0.0,0.0,105.58595,106.523964,0.0,0.0,0.0,0.0,0.0,0.0,0.0,0.0,12.540545,0.0,0.0,nan,0.0,0.0,0.10013343,0.0025057152,0.0025072058,0.0025039003,0.0,0.0,0.0,0.0,0.0
472718401,472711812,0.0,0.0,0.0,105.58686,106.4202,0.0,0.0,0.0,0.0,0.0,0.0,0.0,0.0,12.538488,0.0,0.0,nan,0.0,0.0,0.10013343,0.0025055215,0.002507194,0.002504241,0.0,0.0,0.0,0.0,0.0
473214494,473212075,0.0,0.0,0.0,105.5864,106.358444,0.0,0.0,0.0,0.0,0.0,0.0,0.0,0.0,12.536545,0.0,0.0,nan,0.0,0.0,0.10013343,0.002505059,0.002507424,0.0025041217,0.0,0.0,0.0,0.0,0.0
473719361,473712344,0.0,0.0,0.0,105.58614,106.278786,0.0,0.0,0.0,0.0,0.0,0.0,0.0,0.0,12.536278,0.0,0.0,nan,0.0,0.0,0.10013343,0.0025048887,0.0025095919,0.002504023,0.0,0.0,0.0,0.0,0.0
474219397,474212607,0.0,0.0,0.0,105.57826,106.22955,0.0,0.0,0.0,0.0,0.0,0.0,0.0,0.0,12.535556,0.0,0.0,nan,0.0,0.0,0.10013343,0.0025047257,0.0025089364,0.0025043795,0.0,0.0,0.0,0.0,0.0
474715206,474712866,0.0,0.0,0.0,105.57295,106.18121,0.0,0.0,0.0,0.0,0.0,0.0,0.0,0.0,12.536313,0.0,0.0,nan,0.0,0.0,0.10013343,0.0025047003,0.0025116303,0.0025051036,0.0,0.0,0.0,0.0,0.0
475219884,475213125,0.0,0.0,0.0,105.5701,106.15991,0.0,0.0,0.0,0.0,0.0,0.0,0.0,0.0,12.535365,0.0,0.0,nan,0.0,0.0,0.10013343,0.0025048188,0.0025098799,0.002505466,0.0,0.0,0.0,0.0,0.0
475720115,475713402,0.0,0.0,0.0,105.56743,106.13832,0.0,0.0,0.0,0.0,0.0,0.0,0.0,0.0,12.536222,0.0,0.0,nan,0.0,0.0,0.10013343,0.002504914,0.002508487,0.002504375,0.0,0.0,0.0,0.0,0.0
476215772,476213654,0.0,0.0,0.0,105.574875,106.14136,0.0,0.0,0.0,0.0,0.0,0.0,0.0,0.0,12.536986,0.0,0.0,nan,0.0,0.0,0.10013343,0.0025068247,0.0025076892,0.0025031173,0.0,0.0,0.0,0.0,0.0
476720688,476713918,0.0,0.0,0.0,105.61299,106.183075,0.0,0.0,0.0,0.0,0.0,0.0,0.0,0.0,12.539665,0.0,0.0,nan,0.0,0.0,0.10013343,0.0025074286,0.002508085,0.002502528,0.0,0.0,0.0,0.0,0.0
477220771,477214176,0.0,0.0,0.0,105.64845,106.22552,0.0,0.0,0.0,0.0,0.0,0.0,0.0,0.0,12.540837,0.0,0.0,nan,0.0,0.0,0.10013343,0.0025086508,0.0025081402,0.0025022228,0.0,0.0,0.0,0.0,0.0
477716674,477714437,0.0,0.0,0.0,105.712006,106.30151,0.0,0.0,0.0,0.0,0.0,0.0,0.0,0.0,12.543463,0.0,0.0,nan,0.0,0.0,0.10013343,0.002509149,0.002507564,0.002502559,0.0,0.0,0.0,0.0,0.0
478216927,478214698,0.0,0.0,0.0,105.75488,106.354004,0.0,0.0,0.0,0.0,0.0,0.0,0.0,0.0,12.544343,0.0,0.0,nan,0.0,0.0,0.10013343,0.0025081038,0.0025081872,0.0025020635,0.0,0.0,0.0,0.0,0.0
478707428,478704952,0.0,0.0,0.0,105.81184,106.431435,0.0,0.0,0.0,0.0,0.0,0.0,0.0,0.0,12.545652,0.0,0.0,nan,0.0,0.0,0.10013343,0.0025068666,0.0025081234,0.0025022905,0.0,0.0,0.0,0.0,0.0
479207173,479205217,0.0,0.0,0.0,105.84054,106.47426,0.0,0.0,0.0,0.0,0.0,0.0,0.0,0.0,12.544598,0.0,0.0,nan,0.0,0.0,0.10013343,0.002506273,0.0025077013,0.0025028589,0.0,0.0,0.0,0.0,0.0
479712138,479705470,0.0,0.0,0.0,105.87803,106.53685,0.0,0.0,0.0,0.0,0.0,0.0,0.0,0.0,12.54516,0.0,0.0,nan,0.0,0.0,0.10013343,0.0025057872,0.0025079388,0.0025033988,0.0,0.0,0.0,0.0,0.0
480212431,480205743,0.0,0.0,0.0,105.896835,106.574455,0.0,0.0,0.0,0.0,0.0,0.0,0.0,0.0,12.544184,0.0,0.0,nan,0.0,0.0,0.10013343,0.0025054319,0.0025077637,0.0025039846,0.0,0.0,0.0,0.0,0.0
480708068,480705981,0.0,0.0,0.0,105.913925,106.6221,0.0,0.0,0.0,0.0,0.0,0.0,0.0,0.0,12.54398,0.0,0.0,nan,0.0,0.0,0.10013343,0.0025056927,0.0025075197,0.0025036812,0.0,0.0,0.0,0.0,0.0
481212772,481206236,0.0,0.0,0.0,105.928825,106.66029,0.0,0.0,0.0,0.0,0.0,0.0,0.0,0.0,12.543741,0.0,0.0,nan,0.0,0.0,0.10013343,0.0025057269,0.00250688,0.0025045695,0.0,0.0,0.0,0.0,0.0
481713267,481706487,0.0,0.0,0.0,105.957504,106.727554,0.0,0.0,0.0,0.0,0.0,0.0,0.0,0.0,12.545047,0.0,0.0,nan,0.0,0.0,0.10013343,0.0025059555,0.002507089,0.0025033967,0.0,0.0,0.0,0.0,0.0
482208909,482206750,0.0,0.0,0.0,105.98996,106.79655,0.0,0.0,0.0,0.0,0.0,0.0,0.0,0.0,12.545589,0.0,0.0,nan,0.0,0.0,0.10013343,0.0025064843,0.0025070386,0.0025036926,0.0,0.0,0.0,0.0,0.0
482713485,482706996,0.0,0.0,0.0,106.056984,106.92205,0.0,0.0,0.0,0.0,0.0,0.0,0.0,0.0,12.548626,0.0,0.0,nan,0.0,0.0,0.10013343,0.0025070473,0.0025072324,0.002502386,0.0,0.0,0.0,0.0,0.0
483209130,483207248,0.0,0.0,0.0,106.1105,107.0131,0.0,0.0,0.0,0.0,0.0,0.0,0.0,0.0,12.551962,0.0,0.0,nan,0.0,0.0,0.10013343,0.002507384,0.0025074142,0.0025021185,0.0,0.0,0.0,0.0,0.0
483709744,483707505,0.0,0.0,0.0,106.20569,107.147865,0.0,0.0,0.0,0.0,0.0,0.0,0.0,0.0,12.558336,0.0,0.0,nan,0.0,0.0,0.10013343,0.0025072168,0.0025072657,0.0025024517,0.0,0.0,0.0,0.0,0.0
484214440,484207751,0.0,0.0,0.0,106.25964,107.21591,0.0,0.0,0.0,0.0,0.0,0.0,0.0,0.0,12.563076,0.0,0.0,nan,0.0,0.0,0.10013343,0.0025062617,0.0025074135,0.002502464,0.0,0.0,0.0,0.0,0.0
484709948,484708012,0.0,0.0,0.0,106.28323,107.261986,0.0,0.0,0.0,0.0,0.0,0.0,0.0,0.0,12.566924,0.0,0.0,nan,0.0,0.0,0.10013343,0.0025060945,0.002507372,0.0025031336,0.0,0.0,0.0,0.0,0.0
485210183,485208283,0.0,0.0,0.0,106.2862,107.27927,0.0,0.0,0.0,0.0,0.0,0.0,0.0,0.0,12.5673065,0.0,0.0,nan,0.0,0.0,0.10013343,0.002506052,0.0025075001,0.0025040843,0.0,0.0,0.0,0.0,0.0
486210815,486208755,0.0,0.0,0.0,106.26934,107.306946,0.0,0.0,0.0,0.0,0.0,0.0,0.0,0.0,12.563215,0.0,0.0,nan,0.0,0.0,0.10013343,0.002505661,0.0025073758,0.0025035639,0.0,0.0,0.0,0.0,0.0
486716092,486709017,0.0,0.0,0.0,106.27271,107.35668,0.0,0.0,0.0,0.0,0.0,0.0,0.0,0.0,12.560811,0.0,0.0,nan,0.0,0.0,0.10013343,0.0025056556,0.0025072952,0.0025029778,0.0,0.0,0.0,0.0,0.0
487211075,487209256,0.0,0.0,0.0,106.28233,107.405876,0.0,0.0,0.0,0.0,0.0,0.0,0.0,0.0,12.557292,0.0,0.0,nan,0.0,0.0,0.10013343,0.0025058433,0.0025072407,0.0025024123,0.0,0.0,0.0,0.0,0.0
487716228,487709497,0.0,0.0,0.0,106.30269,107.48322,0.0,0.0,0.0,0.0,0.0,0.0,0.0,0.0,12.554902,0.0,0.0,nan,0.0,0.0,0.10013343,0.0025060475,0.0025073607,0.002502008,0.0,0.0,0.0,0.0,0.0
488211826,488209739,0.0,0.0,0.0,106.318214,107.53176,0.0,0.0,0.0,0.0,0.0,0.0,0.0,0.0,12.552477,0.0,0.0,nan,0.0,0.0,0.10013343,0.002506239,0.002507644,0.0025023473,0.0,0.0,0.0,0.0,0.0
488711956,488709997,0.0,0.0,0.0,106.33964,107.585304,0.0,0.0,0.0,0.0,0.0,0.0,0.0,0.0,12.551523,0.0,0.0,nan,0.0,0.0,0.10013343,0.0025064175,0.002507723,0.0025023553,0.0,0.0,0.0,0.0,0.0
489216938,489210227,0.0,0.0,0.0,106.349655,107.603905,0.0,0.0,0.0,0.0,0.0,0.0,0.0,0.0,12.5486145,0.0,0.0,nan,0.0,0.0,0.10013343,0.002506722,0.0025078852,0.0025025462,0.0,0.0,0.0,0.0,0.0
489712780,489710474,0.0,0.0,0.0,106.35852,107.60361,0.0,0.0,0.0,0.0,0.0,0.0,0.0,0.0,12.547896,0.0,0.0,nan,0.0,0.0,0.10013343,0.0025070827,0.0025076836,0.0025017643,0.0,0.0,0.0,0.0,0.0
490217269,490210711,0.0,0.0,0.0,106.36408,107.5892,0.0,0.0,0.0,0.0,0.0,0.0,0.0,0.0,12.546353,0.0,0.0,nan,0.0,0.0,0.10013343,0.0025076151,0.0025075981,0.0025015387,0.0,0.0,0.0,0.0,0.0
490713546,490710957,0.0,0.0,0.0,106.36463,107.540375,0.0,0.0,0.0,0.0,0.0,0.0,0.0,0.0,12.54617,0.0,0.0,nan,0.0,0.0,0.10013343,0.0025078058,0.00250716,0.0025014095,0.0,0.0,0.0,0.0,0.0
491213528,491211198,0.0,0.0,0.0,106.35962,107.493195,0.0,0.0,0.0,0.0,0.0,0.0,0.0,0.0,12.545742,0.0,0.0,nan,0.0,0.0,0.10013343,0.0025079944,0.00250706,0.002501393,0.0,0.0,0.0,0.0,0.0
492213764,492211678,0.0,0.0,0.0,106.33753,107.35005,0.0,0.0,0.0,0.0,0.0,0.0,0.0,0.0,12.547068,0.0,0.0,nan,0.0,0.0,0.10013343,0.0025081951,0.002506617,0.0025018312,0.0,0.0,0.0,0.0,0.0
492718453,492711918,0.0,0.0,0.0,106.314995,107.268684,0.0,0.0,0.0,0.0,0.0,0.0,0.0,0.0,12.547644,0.0,0.0,nan,0.0,0.0,0.10013343,0.0025081793,0.0025066708,0.0025019099,0.0,0.0,0.0,0.0,0.0
493214082,493212158,0.0,0.0,0.0,106.28927,107.20305,0.0,0.0,0.0,0.0,0.0,0.0,0.0,0.0,12.547316,0.0,0.0,nan,0.0,0.0,0.10013343,0.0025077194,0.0025066677,0.0025017108,0.0,0.0,0.0,0.0,0.0
493719273,493712409,0.0,0.0,0.0,106.249886,107.11192,0.0,0.0,0.0,0.0,0.0,0.0,0.0,0.0,12.547977,0.0,0.0,nan,0.0,0.0,0.10013343,0.0025077919,0.0025067423,0.0025018062,0.0,0.0,0.0,0.0,0.0
494214700,494212635,0.0,0.0,0.0,106.2167,107.05232,0.0,0.0,0.0,0.0,0.0,0.0,0.0,0.0,12.547295,0.0,0.0,nan,0.0,0.0,0.10013343,0.0025078016,0.002506755,0.0025021299,0.0,0.0,0.0,0.0,0.0
494719520,494712873,0.0,0.0,0.0,106.16081,106.969734,0.0,0.0,0.0,0.0,0.0,0.0,0.0,0.0,12.548041,0.0,0.0,nan,0.0,0.0,0.10013343,0.002507668,0.0025067658,0.0025023979,0.0,0.0,0.0,0.0,0.0
495215206,495213109,0.0,0.0,0.0,106.11798,106.92115,0.0,0.0,0.0,0.0,0.0,0.0,0.0,0.0,12.547345,0.0,0.0,nan,0.0,0.0,0.10013343,0.0025074498,0.0025068435,0.0025027187,0.0,0.0,0.0,0.0,0.0
495715898,495713352,0.0,0.0,0.0,106.05561,106.86736,0.0,0.0,0.0,0.0,0.0,0.0,0.0,0.0,12.546673,0.0,0.0,nan,0.0,0.0,0.10013343,0.0025072598,0.0025070098,0.0025031874,0.0,0.0,0.0,0.0,0.0
496215762,496213594,0.0,0.0,0.0,106.016136,106.84725,0.0,0.0,0.0,0.0,0.0,0.0,0.0,0.0,12.545925,0.0,0.0,nan,0.0,0.0,0.10013343,0.0025070887,0.0025068675,0.0025032954,0.0,0.0,0.0,0.0,0.0
496720611,496713820,0.0,0.0,0.0,105.960724,106.83692,0.0,0.0,0.0,0.0,0.0,0.0,0.0,0.0,12.543087,0.0,0.0,nan,0.0,0.0,0.10013343,0.0025069318,0.0025064035,0.002502758,0.0,0.0,0.0,0.0,0.0
497215973,497214085,0.0,0.0,0.0,105.93056,106.843155,0.0,0.0,0.0,0.0,0.0,0.0,0.0,0.0,12.540303,0.0,0.0,nan,0.0,0.0,0.10013343,0.0025069502,0.0025064733,0.0025028836,0.0,0.0,0.0,0.0,0.0
498221222,498214518,0.0,0.0,0.0,105.87107,106.89075,0.0,0.0,0.0,0.0,0.0,0.0,0.0,0.0,12.536364,0.0,0.0,nan,0.0,0.0,0.10013343,0.0025068845,0.0025063723,0.0025022395,0.0,0.0,0.0,0.0,0.0
499206902,499204977,0.0,0.0,0.0,105.840034,106.95216,0.0,0.0,0.0,0.0,0.0,0.0,0.0,0.0,12.53239,0.0,0.0,nan,0.0,0.0,0.10013343,0.0025067395,0.0025069602,0.0025017683,0.0,0.0,0.0,0.0,0.0
499707153,499705208,0.0,0.0,0.0,105.83323,106.98029,0.0,0.0,0.0,0.0,0.0,0.0,0.0,0.0,12.532377,0.0,0.0,nan,0.0,0.0,0.10013343,0.0025058528,0.0025071716,0.002502421,0.0,0.0,0.0,0.0,0.0
500211880,500205441,0.0,0.0,0.0,105.83954,107.00633,0.0,0.0,0.0,0.0,0.0,0.0,0.0,0.0,12.533129,0.0,0.0,nan,0.0,0.0,0.10013343,0.0025050251,0.0025073532,0.0025033068,0.0,0.0,0.0,0.0,0.0
500707904,500705675,0.0,0.0,0.0,105.87166,107.08555,0.0,0.0,0.0,0.0,0.0,0.0,0.0,0.0,12.536053,0.0,0.0,nan,0.0,0.0,0.10013343,0.0025044475,0.002507601,0.0025044004,0.0,0.0,0.0,0.0,0.0
501208549,501205918,0.0,0.0,0.0,105.90764,107.17279,0.0,0.0,0.0,0.0,0.0,0.0,0.0,0.0,12.539561,0.0,0.0,nan,0.0,0.0,0.10013343,0.0025043883,0.002507499,0.0025052973,0.0,0.0,0.0,0.0,0.0
501712765,501706128,0.0,0.0,0.0,105.973785,107.33185,0.0,0.0,0.0,0.0,0.0,0.0,0.0,0.0,12.541284,0.0,0.0,nan,0.0,0.0,0.10013343,0.0025041883,0.002507734,0.0025058025,0.0,0.0,0.0,0.0,0.0
502208509,502206356,0.0,0.0,0.0,106.02413,107.45088,0.0,0.0,0.0,0.0,0.0,0.0,0.0,0.0,12.544647,0.0,0.0,nan,0.0,0.0,0.10013343,0.0025042605,0.0025072738,0.0025064233,0.0,0.0,0.0,0.0,0.0
502713522,502706585,0.0,0.0,0.0,106.104195,107.61016,0.0,0.0,0.0,0.0,0.0,0.0,0.0,0.0,12.546628,0.0,0.0,nan,0.0,0.0,0.10013343,0.0025038512,0.0025075788,0.0025072822,0.0,0.0,0.0,0.0,0.0
503213489,503206813,0.0,0.0,0.0,106.15678,107.674805,0.0,0.0,0.0,0.0,0.0,0.0,0.0,0.0,12.551045,0.0,0.0,nan,0.0,0.0,0.10013343,0.0025035678,0.002507609,0.0025053776,0.0,0.0,0.0,0.0,0.0
503713875,503707041,0.0,0.0,0.0,106.21311,107.67861,0.0,0.0,0.0,0.0,0.0,0.0,0.0,0.0,12.551115,0.0,0.0,nan,0.0,0.0,0.10013343,0.002504558,0.0025074875,0.0025039965,0.0,0.0,0.0,0.0,0.0
504209233,504207274,0.0,0.0,0.0,106.23774,107.630264,0.0,0.0,0.0,0.0,0.0,0.0,0.0,0.0,12.550992,0.0,0.0,nan,0.0,0.0,0.10013343,0.0025054396,0.002507607,0.0025030875,0.0,0.0,0.0,0.0,0.0
504714265,504707500,0.0,0.0,0.0,106.25656,107.501114,0.0,0.0,0.0,0.0,0.0,0.0,0.0,0.0,12.549362,0.0,0.0,nan,0.0,0.0,0.10013343,0.0025063886,0.0025070584,0.002503071,0.0,0.0,0.0,0.0,0.0
505209552,505207741,0.0,0.0,0.0,106.259926,107.38676,0.0,0.0,0.0,0.0,0.0,0.0,0.0,0.0,12.548618,0.0,0.0,nan,0.0,0.0,0.10013343,0.0025071243,0.0025066475,0.0025031078,0.0,0.0,0.0,0.0,0.0
505709986,505707951,0.0,0.0,0.0,106.25147,107.20644,0.0,0.0,0.0,0.0,0.0,0.0,0.0,0.0,12.545402,0.0,0.0,nan,0.0,0.0,0.10013343,0.0025081185,0.0025057434,0.002503766,0.0,0.0,0.0,0.0,0.0
506210275,506208174,0.0,0.0,0.0,106.240685,107.08677,0.0,0.0,0.0,0.0,0.0,0.0,0.0,0.0,12.544784,0.0,0.0,nan,0.0,0.0,0.10013343,0.0025082598,0.0025053576,0.0025037136,0.0,0.0,0.0,0.0,0.0
506715123,506708409,0.0,0.0,0.0,106.23066,106.91124,0.0,0.0,0.0,0.0,0.0,0.0,0.0,0.0,12.544243,0.0,0.0,nan,0.0,0.0,0.10013343,0.0025072997,0.0025056605,0.002503356,0.0,0.0,0.0,0.0,0.0
507215483,507208624,0.0,0.0,0.0,106.2408,106.825134,0.0,0.0,0.0,0.0,0.0,0.0,0.0,0.0,12.547765,0.0,0.0,nan,0.0,0.0,0.10013343,0.0025067967,0.0025055178,0.0025036884,0.0,0.0,0.0,0.0,0.0
507711137,507708847,0.0,0.0,0.0,106.26999,106.7321,0.0,0.0,0.0,0.0,0.0,0.0,0.0,0.0,12.549767,0.0,0.0,nan,0.0,0.0,0.10013343,0.002506486,0.0025048193,0.0025045532,0.0,0.0,0.0,0.0,0.0
508210980,508209073,0.0,0.0,0.0,106.29182,106.69281,0.0,0.0,0.0,0.0,0.0,0.0,0.0,0.0,12.554247,0.0,0.0,nan,0.0,0.0,0.10013343,0.002506312,0.0025042663,0.0025056386,0.0,0.0,0.0,0.0,0.0
508711603,508709318,0.0,0.0,0.0,106.32709,106.68549,0.0,0.0,0.0,0.0,0.0,0.0,0.0,0.0,12.55662,0.0,0.0,nan,0.0,0.0,0.10013343,0.002506786,0.0025037657,0.0025059448,0.0,0.0,0.0,0.0,0.0
509211388,509209522,0.0,0.0,0.0,106.34685,106.707306,0.0,0.0,0.0,0.0,0.0,0.0,0.0,0.0,12.561173,0.0,0.0,nan,0.0,0.0,0.10013343,0.0025071898,0.0025034768,0.002506574,0.0,0.0,0.0,0.0,0.0
509712026,509709746,0.0,0.0,0.0,106.35655,106.754326,0.0,0.0,0.0,0.0,0.0,0.0,0.0,0.0,12.561777,0.0,0.0,nan,0.0,0.0,0.10013343,0.0025075378,0.0025031287,0.0025066053,0.0,0.0,0.0,0.0,0.0
510216595,510209974,0.0,0.0,0.0,106.34251,106.771286,0.0,0.0,0.0,0.0,0.0,0.0,0.0,0.0,12.563168,0.0,0.0,nan,0.0,0.0,0.10013343,0.00250768,0.002503025,0.0025067416,0.0,0.0,0.0,0.0,0.0
510712406,510710202,0.0,0.0,0.0,106.29316,106.79866,0.0,0.0,0.0,0.0,0.0,0.0,0.0,0.0,12.561374,0.0,0.0,nan,0.0,0.0,0.10013343,0.0025074854,0.002503095,0.0025057655,0.0,0.0,0.0,0.0,0.0
511212664,511210427,0.0,0.0,0.0,106.24447,106.81744,0.0,0.0,0.0,0.0,0.0,0.0,0.0,0.0,12.561056,0.0,0.0,nan,0.0,0.0,0.10013343,0.0025070058,0.0025035415,0.0025054757,0.0,0.0,0.0,0.0,0.0
511712737,511710663,0.0,0.0,0.0,106.15222,106.82818,0.0,0.0,0.0,0.0,0.0,0.0,0.0,0.0,12.558847,0.0,0.0,nan,0.0,0.0,0.10013343,0.0025063984,0.0025042444,0.0025047283,0.0,0.0,0.0,0.0,0.0
512217738,512210873,0.0,0.0,0.0,106.081375,106.831375,0.0,0.0,0.0,0.0,0.0,0.0,0.0,0.0,12.5585375,0.0,0.0,nan,0.0,0.0,0.10013343,0.0025057346,0.0025050133,0.0025044396,0.0,0.0,0.0,0.0,0.0
512713478,512711100,0.0,0.0,0.0,105.96408,106.816956,0.0,0.0,0.0,0.0,0.0,0.0,0.0,0.0,12.555451,0.0,0.0,nan,0.0,0.0,0.10013343,0.0025052878,0.002505711,0.002504085,0.0,0.0,0.0,0.0,0.0
513218137,513211333,0.0,0.0,0.0,105.881966,106.803505,0.0,0.0,0.0,0.0,0.0,0.0,0.0,0.0,12.554729,0.0,0.0,nan,0.0,0.0,0.10013343,0.002504929,0.0025065306,0.002503496,0.0,0.0,0.0,0.0,0.0
513713722,513711573,0.0,0.0,0.0,105.768585,106.799774,0.0,0.0,0.0,0.0,0.0,0.0,0.0,0.0,12.552117,0.0,0.0,nan,0.0,0.0,0.10013343,0.0025051,0.0025071353,0.0025024787,0.0,0.0,0.0,0.0,0.0
514218293,514211786,0.0,0.0,0.0,105.706604,106.81202,0.0,0.0,0.0,0.0,0.0,0.0,0.0,0.0,12.55042,0.0,0.0,nan,0.0,0.0,0.10013343,0.002505515,0.00250596,0.002502741,0.0,0.0,0.0,0.0,0.0
514718956,514712009,0.0,0.0,0.0,105.625984,106.82438,0.0,0.0,0.0,0.0,0.0,0.0,0.0,0.0,12.545503,0.0,0.0,nan,0.0,0.0,0.10013343,0.0025052575,0.0025059641,0.0025027802,0.0,0.0,0.0,0.0,0.0
515218951,515212237,0.0,0.0,0.0,105.57627,106.825066,0.0,0.0,0.0,0.0,0.0,0.0,0.0,0.0,12.542706,0.0,0.0,nan,0.0,0.0,0.10013343,0.0025048414,0.0025059876,0.002502985,0.0,0.0,0.0,0.0,0.0
515719225,515712463,0.0,0.0,0.0,105.506645,106.81451,0.0,0.0,0.0,0.0,0.0,0.0,0.0,0.0,12.538621,0.0,0.0,nan,0.0,0.0,0.10013343,0.0025044782,0.0025061741,0.0025032787,0.0,0.0,0.0,0.0,0.0
516214855,516212690,0.0,0.0,0.0,105.46287,106.802086,0.0,0.0,0.0,0.0,0.0,0.0,0.0,0.0,12.535513,0.0,0.0,nan,0.0,0.0,0.10013343,0.0025042503,0.0025065308,0.0025035967,0.0,0.0,0.0,0.0,0.0
516715107,516712924,0.0,0.0,0.0,105.39932,106.775734,0.0,0.0,0.0,0.0,0.0,0.0,0.0,0.0,12.532252,0.0,0.0,nan,0.0,0.0,0.10013343,0.002504253,0.0025066184,0.002504095,0.0,0.0,0.0,0.0,0.0
517219881,517213147,0.0,0.0,0.0,105.36068,106.75015,0.0,0.0,0.0,0.0,0.0,0.0,0.0,0.0,12.530561,0.0,0.0,nan,0.0,0.0,0.10013343,0.0025043047,0.0025071828,0.0025043355,0.0,0.0,0.0,0.0,0.0
517720174,517713366,0.0,0.0,0.0,105.31022,106.706825,0.0,0.0,0.0,0.0,0.0,0.0,0.0,0.0,12.528137,0.0,0.0,nan,0.0,0.0,0.10013343,0.0025042868,0.002507541,0.002503833,0.0,0.0,0.0,0.0,0.0
518215812,518213623,0.0,0.0,0.0,105.2906,106.69207,0.0,0.0,0.0,0.0,0.0,0.0,0.0,0.0,12.527229,0.0,0.0,nan,0.0,0.0,0.10013343,0.0025045052,0.0025071723,0.0025035145,0.0,0.0,0.0,0.0,0.0
518720466,518713816,0.0,0.0,0.0,105.28173,106.68069,0.0,0.0,0.0,0.0,0.0,0.0,0.0,0.0,12.526536,0.0,0.0,nan,0.0,0.0,0.10013343,0.0025048351,0.0025057057,0.0025040493,0.0,0.0,0.0,0.0,0.0
519215975,519214041,0.0,0.0,0.0,105.288635,106.67879,0.0,0.0,0.0,0.0,0.0,0.0,0.0,0.0,12.527474,0.0,0.0,nan,0.0,0.0,0.10013343,0.002504793,0.0025060873,0.002503772,0.0,0.0,0.0,0.0,0.0
519716401,519714265,0.0,0.0,0.0,105.30818,106.67679,0.0,0.0,0.0,0.0,0.0,0.0,0.0,0.0,12.526489,0.0,0.0,nan,0.0,0.0,0.10013343,0.0025052372,0.0025055457,0.0025043513,0.0,0.0,0.0,0.0,0.0
520220926,520214489,0.0,0.0,0.0,105.32748,106.677574,0.0,0.0,0.0,0.0,0.0,0.0,0.0,0.0,12.526562,0.0,0.0,nan,0.0,0.0,0.10013343,0.002504879,0.0025066459,0.0025033306,0.0,0.0,0.0,0.0,0.0
520716749,520714713,0.0,0.0,0.0,105.36186,106.675865,0.0,0.0,0.0,0.0,0.0,0.0,0.0,0.0,12.525115,0.0,0.0,nan,0.0,0.0,0.10013343,0.002504759,0.0025072726,0.0025031222,0.0,0.0,0.0,0.0,0.0
521206790,521204931,0.0,0.0,0.0,105.38351,106.66547,0.0,0.0,0.0,0.0,0.0,0.0,0.0,0.0,12.525033,0.0,0.0,nan,0.0,0.0,0.10013343,0.0025045264,0.002507752,0.002503333,0.0,0.0,0.0,0.0,0.0
522207261,522205389,0.0,0.0,0.0,105.437935,106.623695,0.0,0.0,0.0,0.0,0.0,0.0,0.0,0.0,12.524228,0.0,0.0,nan,0.0,0.0,0.10013343,0.0025045096,0.0025079432,0.0025037974,0.0,0.0,0.0,0.0,0.0
522707656,522705601,0.0,0.0,0.0,105.4734,106.600334,0.0,0.0,0.0,0.0,0.0,0.0,0.0,0.0,12.523933,0.0,0.0,nan,0.0,0.0,0.10013343,0.002504714,0.0025069644,0.0025041779,0.0,0.0,0.0,0.0,0.0
523212810,523205823,0.0,0.0,0.0,105.49568,106.58276,0.0,0.0,0.0,0.0,0.0,0.0,0.0,0.0,12.524444,0.0,0.0,nan,0.0,0.0,0.10013343,0.0025047255,0.0025070168,0.0025043227,0.0,0.0,0.0,0.0,0.0
523712631,523706045,0.0,0.0,0.0,105.53176,106.56503,0.0,0.0,0.0,0.0,0.0,0.0,0.0,0.0,12.525162,0.0,0.0,nan,0.0,0.0,0.10013343,0.002505175,0.0025073544,0.0025035157,0.0,0.0,0.0,0.0,0.0
524208293,524206278,0.0,0.0,0.0,105.56142,106.56339,0.0,0.0,0.0,0.0,0.0,0.0,0.0,0.0,12.524882,0.0,0.0,nan,0.0,0.0,0.10013343,0.0025056454,0.0025074915,0.0025030482,0.0,0.0,0.0,0.0,0.0
524713029,524706489,0.0,0.0,0.0,105.60555,106.55637,0.0,0.0,0.0,0.0,0.0,0.0,0.0,0.0,12.524358,0.0,0.0,nan,0.0,0.0,0.10013343,0.002505226,0.002507201,0.0025038607,0.0,0.0,0.0,0.0,0.0
525208939,525206711,0.0,0.0,0.0,105.629974,106.543625,0.0,0.0,0.0,0.0,0.0,0.0,0.0,0.0,12.52456,0.0,0.0,nan,0.0,0.0,0.10013343,0.0025048752,0.0025079418,0.002503891,0.0,0.0,0.0,0.0,0.0
525713625,525706932,0.0,0.0,0.0,105.661804,106.51903,0.0,0.0,0.0,0.0,0.0,0.0,0.0,0.0,12.523896,0.0,0.0,nan,0.0,0.0,0.10013343,0.0025053138,0.0025071695,0.0025041176,0.0,0.0,0.0,0.0,0.0
526209124,526207155,0.0,0.0,0.0,105.68216,106.50521,0.0,0.0,0.0,0.0,0.0,0.0,0.0,0.0,12.524575,0.0,0.0,nan,0.0,0.0,0.10013343,0.0025056184,0.0025079702,0.0025031413,0.0,0.0,0.0,0.0,0.0
526709703,526707451,0.0,0.0,0.0,105.71848,106.49575,0.0,0.0,0.0,0.0,0.0,0.0,0.0,0.0,12.524892,0.0,0.0,nan,0.0,0.0,0.10013343,0.0025072107,0.0025069907,0.0025027788,0.0,0.0,0.0,0.0,0.0
527214165,527207607,0.0,0.0,0.0,105.746346,106.49947,0.0,0.0,0.0,0.0,0.0,0.0,0.0,0.0,12.524432,0.0,0.0,nan,0.0,0.0,0.10013343,0.0025074116,0.002507465,0.0025020496,0.0,0.0,0.0,0.0,0.0
528210255,528208052,0.0,0.0,0.0,105.80457,106.50538,0.0,0.0,0.0,0.0,0.0,0.0,0.0,0.0,12.523982,0.0,0.0,nan,0.0,0.0,0.10013343,0.0025059844,0.002506875,0.002504066,0.0,0.0,0.0,0.0,0.0
528714857,528708279,0.0,0.0,0.0,105.81787,106.49309,0.0,0.0,0.0,0.0,0.0,0.0,0.0,0.0,12.524231,0.0,0.0,nan,0.0,0.0,0.10013343,0.0025050603,0.0025071087,0.00250472,0.0,0.0,0.0,0.0,0.0
529215146,529208509,0.0,0.0,0.0,105.819496,106.479614,0.0,0.0,0.0,0.0,0.0,0.0,0.0,0.0,12.523343,0.0,0.0,nan,0.0,0.0,0.10013343,0.0025046454,0.002507635,0.0025046107,0.0,0.0,0.0,0.0,0.0
529715305,529708724,0.0,0.0,0.0,105.81219,106.466835,0.0,0.0,0.0,0.0,0.0,0.0,0.0,0.0,12.522346,0.0,0.0,nan,0.0,0.0,0.10013343,0.0025055583,0.0025077928,0.0025030684,0.0,0.0,0.0,0.0,0.0
530211620,530208949,0.0,0.0,0.0,105.81255,106.479576,0.0,0.0,0.0,0.0,0.0,0.0,0.0,0.0,12.522283,0.0,0.0,nan,0.0,0.0,0.10013343,0.0025074936,0.002507759,0.0025013783,0.0,0.0,0.0,0.0,0.0
530711282,530709177,0.0,0.0,0.0,105.82705,106.52591,0.0,0.0,0.0,0.0,0.0,0.0,0.0,0.0,12.52302,0.0,0.0,nan,0.0,0.0,0.10013343,0.0025064724,0.0025077404,0.0025020665,0.0,0.0,0.0,0.0,0.0
531211465,531209409,0.0,0.0,0.0,105.830055,106.54658,0.0,0.0,0.0,0.0,0.0,0.0,0.0,0.0,12.522635,0.0,0.0,nan,0.0,0.0,0.10013343,0.0025058365,0.0025078172,0.0025029692,0.0,0.0,0.0,0.0,0.0
531716522,531709630,0.0,0.0,0.0,105.825745,106.56982,0.0,0.0,0.0,0.0,0.0,0.0,0.0,0.0,12.522774,0.0,0.0,nan,0.0,0.0,0.10013343,0.0025064284,0.002507931,0.0025022966,0.0,0.0,0.0,0.0,0.0
532216435,532209857,0.0,0.0,0.0,105.82422,106.59125,0.0,0.0,0.0,0.0,0.0,0.0,0.0,0.0,12.522078,0.0,0.0,nan,0.0,0.0,0.10013343,0.002506474,0.0025082014,0.002502479,0.0,0.0,0.0,0.0,0.0
532712553,532710088,0.0,0.0,0.0,105.82074,106.62231,0.0,0.0,0.0,0.0,0.0,0.0,0.0,0.0,12.522388,0.0,0.0,nan,0.0,0.0,0.10013343,0.002506458,0.0025078868,0.00250232,0.0,0.0,0.0,0.0,0.0
533217209,533210313,0.0,0.0,0.0,105.814926,106.63668,0.0,0.0,0.0,0.0,0.0,0.0,0.0,0.0,12.521406,0.0,0.0,nan,0.0,0.0,0.10013343,0.0025070792,0.0025079865,0.0025020533,0.0,0.0,0.0,0.0,0.0
533717135,533710562,0.0,0.0,0.0,105.815125,106.6854,0.0,0.0,0.0,0.0,0.0,0.0,0.0,0.0,12.52223,0.0,0.0,nan,0.0,0.0,0.10013343,0.002508429,0.0025066147,0.0025024062,0.0,0.0,0.0,0.0,0.0
534212830,534210771,0.0,0.0,0.0,105.82943,106.74266,0.0,0.0,0.0,0.0,0.0,0.0,0.0,0.0,12.522657,0.0,0.0,nan,0.0,0.0,0.10013343,0.0025083427,0.0025064985,0.0025024868,0.0,0.0,0.0,0.0,0.0
534713132,534710993,0.0,0.0,0.0,105.857574,106.83825,0.0,0.0,0.0,0.0,0.0,0.0,0.0,0.0,12.524349,0.0,0.0,nan,0.0,0.0,0.10013343,0.0025077905,0.0025059597,0.0025031075,0.0,0.0,0.0,0.0,0.0
535213271,535211225,0.0,0.0,0.0,105.87344,106.900116,0.0,0.0,0.0,0.0,0.0,0.0,0.0,0.0,12.524439,0.0,0.0,nan,0.0,0.0,0.10013343,0.002507625,0.0025056477,0.0025035397,0.0,0.0,0.0,0.0,0.0
535718018,535711456,0.0,0.0,0.0,105.89504,106.99518,0.0,0.0,0.0,0.0,0.0,0.0,0.0,0.0,12.525805,0.0,0.0,nan,0.0,0.0,0.10013343,0.0025069935,0.0025063236,0.002502795,0.0,0.0,0.0,0.0,0.0
536213555,536211668,0.0,0.0,0.0,105.90268,107.05346,0.0,0.0,0.0,0.0,0.0,0.0,0.0,0.0,12.526161,0.0,0.0,nan,0.0,0.0,0.10013343,0.0025062012,0.002506879,0.0025027345,0.0,0.0,0.0,0.0,0.0
536714320,536711896,0.0,0.0,0.0,105.90283,107.13185,0.0,0.0,0.0,0.0,0.0,0.0,0.0,0.0,12.527237,0.0,0.0,nan,0.0,0.0,0.10013343,0.0025059574,0.002506496,0.0025035467,0.0,0.0,0.0,0.0,0.0
537214365,537212118,0.0,0.0,0.0,105.8958,107.17794,0.0,0.0,0.0,0.0,0.0,0.0,0.0,0.0,12.527524,0.0,0.0,nan,0.0,0.0,0.10013343,0.0025058973,0.0025069283,0.0025029588,0.0,0.0,0.0,0.0,0.0
537714409,537712354,0.0,0.0,0.0,105.888794,107.259384,0.0,0.0,0.0,0.0,0.0,0.0,0.0,0.0,12.528961,0.0,0.0,nan,0.0,0.0,0.10013343,0.0025060272,0.0025073348,0.0025021944,0.0,0.0,0.0,0.0,0.0
538219332,538212564,0.0,0.0,0.0,105.88885,107.32155,0.0,0.0,0.0,0.0,0.0,0.0,0.0,0.0,12.529239,0.0,0.0,nan,0.0,0.0,0.10013343,0.002506175,0.0025074885,0.0025018991,0.0,0.0,0.0,0.0,0.0
538715263,538712781,0.0,0.0,0.0,105.89047,107.40961,0.0,0.0,0.0,0.0,0.0,0.0,0.0,0.0,12.530016,0.0,0.0,nan,0.0,0.0,0.10013343,0.002506504,0.0025071113,0.0025018386,0.0,0.0,0.0,0.0,0.0
539214915,539213025,0.0,0.0,0.0,105.90368,107.471886,0.0,0.0,0.0,0.0,0.0,0.0,0.0,0.0,12.529579,0.0,0.0,nan,0.0,0.0,0.10013343,0.0025065877,0.0025071502,0.0025016642,0.0,0.0,0.0,0.0,0.0
539720141,539713222,0.0,0.0,0.0,105.919525,107.54337,0.0,0.0,0.0,0.0,0.0,0.0,0.0,0.0,12.530118,0.0,0.0,nan,0.0,0.0,0.10013343,0.0025059346,0.0025073688,0.002502013,0.0,0.0,0.0,0.0,0.0
540215468,540213459,0.0,0.0,0.0,105.91485,107.56065,0.0,0.0,0.0,0.0,0.0,0.0,0.0,0.0,12.529078,0.0,0.0,nan,0.0,0.0,0.10013343,0.0025055564,0.002507358,0.0025025217,0.0,0.0,0.0,0.0,0.0
540720453,540713662,0.0,0.0,0.0,105.88783,107.5513,0.0,0.0,0.0,0.0,0.0,0.0,0.0,0.0,12.529626,0.0,0.0,nan,0.0,0.0,0.10013343,0.0025052167,0.002507356,0.0025030484,0.0,0.0,0.0,0.0,0.0
541216240,541213887,0.0,0.0,0.0,105.86386,107.53995,0.0,0.0,0.0,0.0,0.0,0.0,0.0,0.0,12.528994,0.0,0.0,nan,0.0,0.0,0.10013343,0.002505619,0.0025072296,0.002502645,0.0,0.0,0.0,0.0,0.0
541721075,541714099,0.0,0.0,0.0,105.844025,107.53961,0.0,0.0,0.0,0.0,0.0,0.0,0.0,0.0,12.529105,0.0,0.0,nan,0.0,0.0,0.10013343,0.002505896,0.002507254,0.002502375,0.0,0.0,0.0,0.0,0.0
542216602,542214324,0.0,0.0,0.0,105.83953,107.53769,0.0,0.0,0.0,0.0,0.0,0.0,0.0,0.0,12.529777,0.0,0.0,nan,0.0,0.0,0.10013343,0.002506185,0.002507279,0.0025019562,0.0,0.0,0.0,0.0,0.0
543221280,543214752,0.0,0.0,0.0,105.857635,107.49164,0.0,0.0,0.0,0.0,0.0,0.0,0.0,0.0,12.529257,0.0,0.0,nan,0.0,0.0,0.10013343,0.0025068275,0.0025072184,0.0025016062,0.0,0.0,0.0,0.0,0.0
543707247,543704965,0.0,0.0,0.0,105.87901,107.41507,0.0,0.0,0.0,0.0,0.0,0.0,0.0,0.0,12.530241,0.0,0.0,nan,0.0,0.0,0.10013343,0.002506956,0.0025071146,0.0025013578,0.0,0.0,0.0,0.0,0.0
544211754,544205181,0.0,0.0,0.0,105.88776,107.3389,0.0,0.0,0.0,0.0,0.0,0.0,0.0,0.0,12.530845,0.0,0.0,nan,0.0,0.0,0.10013343,0.0025069094,0.0025067893,0.0025018253,0.0,0.0,0.0,0.0,0.0
544711982,544705405,0.0,0.0,0.0,105.87949,107.19451,0.0,0.0,0.0,0.0,0.0,0.0,0.0,0.0,12.532381,0.0,0.0,nan,0.0,0.0,0.10013343,0.0025069835,0.0025064307,0.0025021092,0.0,0.0,0.0,0.0,0.0
545207506,545205612,0.0,0.0,0.0,105.86947,107.09142,0.0,0.0,0.0,0.0,0.0,0.0,0.0,0.0,12.533199,0.0,0.0,nan,0.0,0.0,0.10013343,0.0025070324,0.002506236,0.0025021327,0.0,0.0,0.0,0.0,0.0
545707696,545705827,0.0,0.0,0.0,105.855995,106.94814,0.0,0.0,0.0,0.0,0.0,0.0,0.0,0.0,12.534803,0.0,0.0,nan,0.0,0.0,0.10013343,0.0025072873,0.0025057956,0.0025024782,0.0,0.0,0.0,0.0,0.0
546208331,546206041,0.0,0.0,0.0,105.86631,106.86636,0.0,0.0,0.0,0.0,0.0,0.0,0.0,0.0,12.535471,0.0,0.0,nan,0.0,0.0,0.10013343,0.0025075842,0.0025055977,0.002503362,0.0,0.0,0.0,0.0,0.0
546708323,546706256,0.0,0.0,0.0,105.887665,106.750565,0.0,0.0,0.0,0.0,0.0,0.0,0.0,0.0,12.535222,0.0,0.0,nan,0.0,0.0,0.10013343,0.0025083665,0.0025054598,0.0025042763,0.0,0.0,0.0,0.0,0.0
547209077,547206471,0.0,0.0,0.0,105.89211,106.68261,0.0,0.0,0.0,0.0,0.0,0.0,0.0,0.0,12.533489,0.0,0.0,nan,0.0,0.0,0.10013343,0.0025086724,0.0025057753,0.0025046354,0.0,0.0,0.0,0.0,0.0
547708588,547706707,0.0,0.0,0.0,105.886925,106.59828,0.0,0.0,0.0,0.0,0.0,0.0,0.0,0.0,12.530106,0.0,0.0,nan,0.0,0.0,0.10013343,0.0025088978,0.0025059313,0.0025058486,0.0,0.0,0.0,0.0,0.0
548208873,548206902,0.0,0.0,0.0,105.880005,106.55622,0.0,0.0,0.0,0.0,0.0,0.0,0.0,0.0,12.526971,0.0,0.0,nan,0.0,0.0,0.10013343,0.0025086405,0.0025066093,0.0025067886,0.0,0.0,0.0,0.0,0.0
548709551,548707117,0.0,0.0,0.0,105.863625,106.50755,0.0,0.0,0.0,0.0,0.0,0.0,0.0,0.0,12.523955,0.0,0.0,nan,0.0,0.0,0.10013343,0.0025092445,0.0025070175,0.0025083236,0.0,0.0,0.0,0.0,0.0
549209341,549207341,0.0,0.0,0.0,105.84956,106.48771,0.0,0.0,0.0,0.0,0.0,0.0,0.0,0.0,12.522068,0.0,0.0,nan,0.0,0.0,0.10013343,0.0025088934,0.00250813,0.0025093383,0.0,0.0,0.0,0.0,0.0
549709687,549707555,0.0,0.0,0.0,105.78357,106.51473,0.0,0.0,0.0,0.0,0.0,0.0,0.0,0.0,12.518757,0.0,0.0,nan,0.0,0.0,0.10013343,0.0025070158,0.0025080745,0.0025065907,0.0,0.0,0.0,0.0,0.0
550214354,550207764,0.0,0.0,0.0,105.77697,106.63321,0.0,0.0,0.0,0.0,0.0,0.0,0.0,0.0,12.515469,0.0,0.0,nan,0.0,0.0,0.10013343,0.0025073867,0.0025084068,0.0025036035,0.0,0.0,0.0,0.0,0.0
550710064,550707980,0.0,0.0,0.0,105.78452,106.84433,0.0,0.0,0.0,0.0,0.0,0.0,0.0,0.0,12.51326,0.0,0.0,nan,0.0,0.0,0.10013343,0.0025071031,0.0025085455,0.0025025262,0.0,0.0,0.0,0.0,0.0
551210019,551208206,0.0,0.0,0.0,105.78213,106.960976,0.0,0.0,0.0,0.0,0.0,0.0,0.0,0.0,12.511119,0.0,0.0,nan,0.0,0.0,0.10013343,0.002507236,0.0025083597,0.00250205,0.0,0.0,0.0,0.0,0.0
551715108,551708413,0.0,0.0,0.0,105.78884,107.114815,0.0,0.0,0.0,0.0,0.0,0.0,0.0,0.0,12.509855,0.0,0.0,nan,0.0,0.0,0.10013343,0.0025079907,0.0025083404,0.0025011853,0.0,0.0,0.0,0.0,0.0
552215610,552208625,0.0,0.0,0.0,105.801735,107.19475,0.0,0.0,0.0,0.0,0.0,0.0,0.0,0.0,12.507583,0.0,0.0,nan,0.0,0.0,0.10013343,0.0025080603,0.0025082957,0.0025023008,0.0,0.0,0.0,0.0,0.0
552710867,552708839,0.0,0.0,0.0,105.83232,107.24063,0.0,0.0,0.0,0.0,0.0,0.0,0.0,0.0,12.504348,0.0,0.0,nan,0.0,0.0,0.10013343,0.0025073919,0.0025077856,0.0025028607,0.0,0.0,0.0,0.0,0.0
553215968,553209054,0.0,0.0,0.0,105.84261,107.22282,0.0,0.0,0.0,0.0,0.0,0.0,0.0,0.0,12.503326,0.0,0.0,nan,0.0,0.0,0.10013343,0.0025081304,0.0025062924,0.0025024728,0.0,0.0,0.0,0.0,0.0
553716277,553709267,0.0,0.0,0.0,105.829,107.1507,0.0,0.0,0.0,0.0,0.0,0.0,0.0,0.0,12.502439,0.0,0.0,nan,0.0,0.0,0.10013343,0.0025080466,0.0025062975,0.0025024095,0.0,0.0,0.0,0.0,0.0
554211735,554209481,0.0,0.0,0.0,105.81979,107.09282,0.0,0.0,0.0,0.0,0.0,0.0,0.0,0.0,12.504528,0.0,0.0,nan,0.0,0.0,0.10013343,0.0025073173,0.0025066875,0.002502404,0.0,0.0,0.0,0.0,0.0
554716450,554709695,0.0,0.0,0.0,105.821754,107.01632,0.0,0.0,0.0,0.0,0.0,0.0,0.0,0.0,12.50744,0.0,0.0,nan,0.0,0.0,0.10013343,0.0025065022,0.0025065446,0.0025032265,0.0,0.0,0.0,0.0,0.0
555211863,555209909,0.0,0.0,0.0,105.83118,106.96983,0.0,0.0,0.0,0.0,0.0,0.0,0.0,0.0,12.513162,0.0,0.0,nan,0.0,0.0,0.10013343,0.0025059201,0.002506225,0.002504345,0.0,0.0,0.0,0.0,0.0
555712154,555710122,0.0,0.0,0.0,105.84863,106.92038,0.0,0.0,0.0,0.0,0.0,0.0,0.0,0.0,12.519003,0.0,0.0,nan,0.0,0.0,0.10013343,0.0025051632,0.0025063918,0.002504772,0.0,0.0,0.0,0.0,0.0
556217124,556210334,0.0,0.0,0.0,105.86074,106.89214,0.0,0.0,0.0,0.0,0.0,0.0,0.0,0.0,12.52625,0.0,0.0,nan,0.0,0.0,0.10013343,0.002504923,0.0025065867,0.0025046915,0.0,0.0,0.0,0.0,0.0
556717325,556710547,0.0,0.0,0.0,105.8755,106.84685,0.0,0.0,0.0,0.0,0.0,0.0,0.0,0.0,12.531985,0.0,0.0,nan,0.0,0.0,0.10013343,0.0025049155,0.0025066223,0.0025047888,0.0,0.0,0.0,0.0,0.0
557217483,557210760,0.0,0.0,0.0,105.88052,106.818825,0.0,0.0,0.0,0.0,0.0,0.0,0.0,0.0,12.5384245,0.0,0.0,nan,0.0,0.0,0.10013343,0.0025048575,0.0025069837,0.002505122,0.0,0.0,0.0,0.0,0.0
557712949,557710972,0.0,0.0,0.0,105.88158,106.77623,0.0,0.0,0.0,0.0,0.0,0.0,0.0,0.0,12.542176,0.0,0.0,nan,0.0,0.0,0.10013343,0.0025051103,0.0025061888,0.0025047301,0.0,0.0,0.0,0.0,0.0
558213397,558211190,0.0,0.0,0.0,105.87887,106.75039,0.0,0.0,0.0,0.0,0.0,0.0,0.0,0.0,12.546367,0.0,0.0,nan,0.0,0.0,0.10013343,0.002505316,0.0025058659,0.002504777,0.0,0.0,0.0,0.0,0.0
558713710,558711451,0.0,0.0,0.0,105.87469,106.72299,0.0,0.0,0.0,0.0,0.0,0.0,0.0,0.0,12.5481205,0.0,0.0,nan,0.0,0.0,0.10013343,0.002505121,0.0025059567,0.002504264,0.0,0.0,0.0,0.0,0.0
559218107,559211610,0.0,0.0,0.0,105.87401,106.709595,0.0,0.0,0.0,0.0,0.0,0.0,0.0,0.0,12.550943,0.0,0.0,nan,0.0,0.0,0.10013343,0.0025053704,0.0025055823,0.0025047495,0.0,0.0,0.0,0.0,0.0
559713863,559711823,0.0,0.0,0.0,105.86866,106.69435,0.0,0.0,0.0,0.0,0.0,0.0,0.0,0.0,12.551746,0.0,0.0,nan,0.0,0.0,0.10013343,0.0025050624,0.0025060435,0.0025052757,0.0,0.0,0.0,0.0,0.0
560218616,560212044,0.0,0.0,0.0,105.86166,106.68447,0.0,0.0,0.0,0.0,0.0,0.0,0.0,0.0,12.553249,0.0,0.0,nan,0.0,0.0,0.10013343,0.002505155,0.0025057397,0.002504962,0.0,0.0,0.0,0.0,0.0
560714428,560712247,0.0,0.0,0.0,105.85546,106.68385,0.0,0.0,0.0,0.0,0.0,0.0,0.0,0.0,12.552558,0.0,0.0,nan,0.0,0.0,0.10013343,0.0025058158,0.0025052116,0.0025044475,0.0,0.0,0.0,0.0,0.0
561214631,561212468,0.0,0.0,0.0,105.85074,106.68706,0.0,0.0,0.0,0.0,0.0,0.0,0.0,0.0,12.553454,0.0,0.0,nan,0.0,0.0,0.10013343,0.00250557,0.0025055069,0.002504448,0.0,0.0,0.0,0.0,0.0
561719328,561712674,0.0,0.0,0.0,105.84344,106.6922,0.0,0.0,0.0,0.0,0.0,0.0,0.0,0.0,12.552633,0.0,0.0,nan,0.0,0.0,0.10013343,0.0025057362,0.0025055064,0.0025043113,0.0,0.0,0.0,0.0,0.0
562215140,562212883,0.0,0.0,0.0,105.83908,106.69658,0.0,0.0,0.0,0.0,0.0,0.0,0.0,0.0,12.552326,0.0,0.0,nan,0.0,0.0,0.10013343,0.0025060955,0.0025056843,0.0025036933,0.0,0.0,0.0,0.0,0.0
562715130,562713099,0.0,0.0,0.0,0.50687575,0.5106586,0.0,0.0,0.0,0.0,0.0,0.0,0.0,0.0,12.551643,0.0,0.0,nan,0.0,0.0,0.090120785,0.0025061502,0.0025055849,0.002503772,0.0,0.0,0.0,0.0,0.0
563215368,563213307,0.0,0.0,0.0,0.35370523,0.3570577,0.0,0.0,0.0,0.0,0.0,0.0,0.0,0.0,12.549516,0.0,0.0,nan,0.0,0.0,0.09012086,0.0025061502,0.0025055849,0.002503772,0.0,0.0,0.0,0.0,0.0
563715846,563713518,0.0,0.0,0.0,0.32978252,0.33395615,0.0,0.0,0.0,0.0,0.0,0.0,0.0,0.0,12.54697,0.0,0.0,nan,0.0,0.0,0.09011834,0.0025061502,0.0025055849,0.002503772,0.0,0.0,0.0,0.0,0.0
564215620,564213730,0.0,0.0,0.0,0.3291412,0.3326381,0.0,0.0,0.0,0.0,0.0,0.0,0.0,0.0,12.544612,0.0,0.0,nan,0.0,0.0,0.09011799,0.0025061502,0.0025055849,0.002503772,0.0,0.0,0.0,0.0,0.0
564716571,564713947,0.0,0.0,0.0,0.32635906,0.32815453,0.0,0.0,0.0,0.0,0.0,0.0,0.0,0.0,12.542838,0.0,0.0,nan,0.0,0.0,0.090118594,0.0025061502,0.0025055849,0.002503772,0.0,0.0,0.0,0.0,0.0
565216052,565214160,0.0,0.0,0.0,100.094185,100.09586,0.0,0.0,0.0,0.0,0.0,0.0,0.0,0.0,12.540235,0.0,0.0,nan,0.0,0.0,0.090117574,0.0025061502,0.0025055849,0.002503772,0.0,0.0,0.0,0.0,0.0
565716724,565714364,0.0,0.0,0.0,100.18168,100.18523,0.0,0.0,0.0,0.0,0.0,0.0,0.0,0.0,12.538903,0.0,0.0,nan,0.0,0.0,0.09011717,0.0025061502,0.0025055849,0.002503772,0.0,0.0,0.0,0.0,0.0
566217054,566214575,0.0,0.0,0.0,100.27012,100.27594,0.0,0.0,0.0,0.0,0.0,0.0,0.0,0.0,12.537394,0.0,0.0,nan,0.0,0.0,0.090119414,0.0025061502,0.0025055849,0.002503772,0.0,0.0,0.0,0.0,0.0
566717102,566714793,0.0,0.0,0.0,100.46231,100.47381,0.0,0.0,0.0,0.0,0.0,0.0,0.0,0.0,12.536036,0.0,0.0,nan,0.0,0.0,0.090119116,0.0025061502,0.0025055849,0.002503772,0.0,0.0,0.0,0.0,0.0
