timestamp,timestamp_sample,xyz[0],xyz[1],xyz[2]
394710689,394709636,1.5249643,0.122358486,-9.650389
394715695,394714641,1.5317178,0.14106512,-9.663829
394765723,394764681,1.5774502,0.19648753,-9.648087
394815785,394814723,1.5472851,0.07988206,-9.680502
394865870,394864770,1.540497,0.12885717,-9.668262
394910873,394909810,1.5427078,0.12620862,-9.637031
394965920,394964852,1.5681763,0.15129477,-9.684707
395015948,395014894,1.5362701,0.24013138,-9.617193
395066020,395064945,1.524429,0.15294486,-9.710841
395111067,395109965,1.5596293,0.14778064,-9.646004
395166130,395165027,1.5495651,0.15025994,-9.651806
395221172,395220051,1.5451733,0.03981415,-9.669308
395261131,395260078,1.5452503,0.11976283,-9.661921
395311178,395310139,1.5498714,0.103329256,-9.695642
395361235,395360191,1.56661,0.23702848,-9.694303
395461286,395460254,1.5058382,0.22397698,-9.726311
395511374,395510299,1.499998,0.19097762,-9.657679
395561377,395560329,1.5485816,0.109500095,-9.742057
395611467,395610372,1.5819805,0.11446196,-9.697418
395661459,395660411,1.5894463,0.20897064,-9.711708
395711565,395710482,1.5195258,0.13580674,-9.708021
395761568,395760506,1.4900982,0.1984748,-9.692848
395811597,395810535,1.5687389,0.17775661,-9.617619
395861692,395860597,1.6079117,0.16196343,-9.714594
395911680,395910620,1.5870323,0.21507946,-9.649948
395961695,395960657,1.5260706,0.15256937,-9.7052
396011742,396010705,1.4937539,0.17614034,-9.658054
396061776,396060739,1.5394347,0.1498873,-9.711214
396111823,396110780,1.5625674,0.14433444,-9.679321
396161885,396160821,1.5740077,0.19176827,-9.709073
396211912,396210862,1.5570991,0.14014691,-9.686802
396261961,396260907,1.5407597,0.16032447,-9.635139
396311995,396310952,1.5329907,0.23424901,-9.68688
396362050,396360985,1.5759274,0.13171285,-9.673695
396412106,396411026,1.5539193,0.13732985,-9.699625
396512148,396511107,1.4908953,0.2803918,-9.683888
396562198,396561149,1.5607624,0.3303367,-9.721523
396612279,396611189,1.5891992,0.16500251,-9.656014
396662276,396661231,1.5232304,0.051454768,-9.676573
396712494,396711283,1.5020187,0.15662704,-9.681593
396762357,396761312,1.5699084,0.14945434,-9.714624
396812440,396811354,1.5888606,0.24709687,-9.614493
396862482,396861401,1.5451512,0.26563156,-9.704279
396912539,396911446,1.4923735,0.15933415,-9.669597
396962567,396961482,1.5240189,0.21493341,-9.721028
397012599,397011518,1.5857606,0.13210051,-9.661282
397062654,397061563,1.613411,0.1986915,-9.699315
397112692,397111601,1.5507526,0.18203445,-9.646112
397162753,397161641,1.5059578,0.18380958,-9.706833
397212766,397211688,1.526719,0.17645347,-9.61747
397262812,397261722,1.5710349,0.17631957,-9.732454
397312855,397311763,1.5726813,0.19625188,-9.635822
397362912,397361808,1.5351124,0.15187542,-9.721781
397663102,397662050,1.5264195,0.2062235,-9.659636
397713352,397712092,1.5585403,0.15018052,-9.722099
397763393,397762155,1.5627707,0.17340557,-9.710749
397813234,397812174,1.5386096,0.17633756,-9.713345
397863253,397862214,1.5195627,0.15699238,-9.735424
397913352,397912271,1.541158,0.23930617,-9.642788
397963328,397962296,1.5581839,0.19876623,-9.675373
398013584,398012338,1.5528374,0.20817646,-9.657228
398063679,398062390,1.500815,0.18285324,-9.675554
398113675,398112419,1.5184244,0.11467102,-9.699208
398163526,398162468,1.5844492,0.22948414,-9.674979
398213543,398212501,1.5660229,0.13786916,-9.666181
398313633,398312583,1.4983698,0.23503888,-9.684341
398363676,398362624,1.5326577,0.17980653,-9.638582
398413707,398412668,1.5557277,0.20305797,-9.660635
398463783,398462706,1.5714813,0.07502808,-9.705754
398513778,398512747,1.5367603,0.25314802,-9.724155
398563844,398562788,1.5197622,0.24092667,-9.6783285
398613871,398612829,1.5387571,0.18968496,-9.6671295
398663912,398662881,1.55005,0.18047345,-9.702602
398713962,398712917,1.5533173,0.08325712,-9.686458
398764002,398762958,1.5767664,0.18544334,-9.694839
398814047,398813004,1.5196214,0.24764884,-9.622454
398914164,398913075,1.5498388,0.27663237,-9.59
398964147,398963116,1.5819623,0.16831872,-9.646603
399014191,399013159,1.5473415,0.14293307,-9.637922
399064246,399063198,1.5317328,0.12351865,-9.668749
399114275,399113239,1.5370424,0.24492526,-9.67038
399164330,399163280,1.5501443,0.21220967,-9.690136
399214370,399213326,1.4942135,0.30163914,-9.621317
399264459,399263367,1.5296068,0.31176817,-9.688545
399364536,399363469,1.5643543,0.070807666,-9.763137
399414714,399413517,1.582077,0.14085662,-9.632272
399464620,399463533,1.5682883,0.09872869,-9.765933
399514776,399513566,1.4633614,0.354725,-9.621812
399564661,399563608,1.4523383,0.3704152,-9.664117
399614706,399613648,1.5683019,0.25063345,-9.59724
399664778,399663740,1.5850444,0.26470122,-9.681109
399714791,399713737,1.5838867,0.00011163502,-9.658943
399764811,399763772,1.5171803,0.14965077,-9.643157
399815110,399813819,1.5263717,0.088088006,-9.564254
399864903,399863859,1.5374798,0.29438427,-9.740437
399914966,399913894,1.4904745,0.44772393,-9.684864
400215246,400214140,1.4670591,0.28030795,-9.612799
400265275,400264181,1.516158,0.36033994,-9.667874
400365307,400364263,1.5522101,0.11212887,-9.753201
400415600,400414304,1.5181785,0.086212605,-9.591715
400465400,400464345,1.5753819,0.16589825,-9.757887
400515617,400514397,1.5385315,0.1938713,-9.545237
400565501,400564432,1.5294116,0.26999086,-9.695484
400615702,400614475,1.4831291,0.020299943,-9.616167
400665594,400664509,1.5384164,0.24165109,-9.77429
400715817,400714550,1.5513372,0.22197679,-9.622087
400765715,400764591,1.5980496,0.18074426,-9.762166
400810715,400809634,1.5373421,0.28933457,-9.632414
401110959,401109873,1.4975597,0.16862905,-9.754189
401166027,401164925,1.4959483,0.15540284,-9.661264
401211067,401209959,1.5396208,0.14375217,-9.727539
401261115,401260002,1.5882248,0.1452161,-9.656868
401311209,401310037,1.5964915,0.13621514,-9.678336
401361120,401360078,1.5135642,0.24228422,-9.576391
401411166,401410119,1.4612253,0.34335643,-9.5804405
401461337,401460163,1.5004387,0.27906564,-9.698977
401511239,401510201,1.536396,0.15178716,-9.572487
401561280,401560242,1.5707802,0.051969796,-9.691812
401611351,401610289,1.566411,0.12601715,-9.656814
401661362,401660324,1.5414972,0.16732779,-9.661618
401711448,401710371,1.4972417,0.23875527,-9.722093
401761464,401760414,1.4969401,0.2519231,-9.670591
401811497,401810446,1.524159,0.21658617,-9.689192
401861579,401860492,1.5520369,0.22967751,-9.7326145
401911594,401910534,1.5890055,0.1458294,-9.631342
401961622,401960569,1.5740186,0.11815736,-9.702442
402011715,402010624,1.5204424,0.22737955,-9.658976
402061699,402060654,1.4861679,0.21655744,-9.722076
402111724,402110692,1.5372616,0.31041223,-9.686909
402161776,402160733,1.5656742,0.23276824,-9.691941
402211880,402210780,1.5563515,0.20609283,-9.658202
402261882,402260819,1.5375065,0.21946926,-9.674496
402311900,402310855,1.5411762,0.16065763,-9.57954
402361957,402360901,1.5610952,0.23150271,-9.651765
402411987,402410937,1.5731663,0.22040302,-9.677376
402462037,402460978,1.5211111,0.30131668,-9.645513
402512057,402511019,1.4793569,0.2535897,-9.685829
402562091,402561060,1.5068119,0.13569412,-9.623198
402612138,402611101,1.5455713,0.22822234,-9.742109
402662178,402661142,1.5721639,0.16880395,-9.771847
402717254,402716187,1.5218428,0.20391604,-9.654474
402762274,402761226,1.514142,0.25280294,-9.855923
402812343,402811264,1.5079573,0.23782447,-9.716141
402862377,402861305,1.524267,0.18027031,-9.8924465
402912442,402911362,1.5758109,0.17418256,-9.822782
402962470,402961412,1.6015036,0.1253452,-9.785669
403012484,403011437,1.5390201,0.28872526,-9.752829
403062611,403061479,1.4362807,0.26747072,-9.666934
403112581,403111543,1.5167634,0.2826898,-9.754261
403162619,403161547,1.5736556,0.24607024,-9.636112
403212727,403211600,1.5611582,0.12796508,-9.740974
403262686,403261643,1.5369546,0.13332579,-9.725357
403312725,403311692,1.5519122,0.041137785,-9.743554
403362792,403361743,1.5529549,0.23816127,-9.688034
403412822,403411763,1.5495071,0.3389572,-9.727109
403462868,403461808,1.5010812,0.13160622,-9.677383
403513085,403511845,1.5020525,0.17044532,-9.741952
403562929,403561878,1.5473648,0.17811266,-9.659687
403612963,403611919,1.5903815,0.04746636,-9.771965
403662992,403661960,1.5740836,0.15752222,-9.639994
403713051,403712000,1.5274212,0.12947795,-9.688645
403763084,403762041,1.4845846,0.2051039,-9.72373
403813131,403812082,1.5333266,0.33849704,-9.733112
403863169,403862123,1.51809,0.13309613,-9.642928
403913233,403912164,1.5591062,0.19334689,-9.629711
403963248,403962205,1.563689,0.10562122,-9.635342
404013315,404012246,1.5547305,0.15336716,-9.657262
404113395,404112331,1.5243814,0.1539475,-9.630484
404163454,404162368,1.5272496,0.2453688,-9.694786
404213463,404212409,1.5630349,0.15403736,-9.610316
404263504,404262450,1.5582889,0.15820462,-9.753419
404313539,404312491,1.5533285,0.17249952,-9.640133
404363611,404362533,1.5372994,0.15292001,-9.704125
404413641,404412572,1.5581102,0.20321082,-9.617981
404463685,404462615,1.5445285,0.1525213,-9.689486
404513714,404512654,1.5145457,0.24477556,-9.596555
404563738,404562695,1.5418895,0.17511967,-9.669661
404613922,404612736,1.5717815,0.17338724,-9.580545
404663855,404662771,1.5285499,0.15932065,-9.676144
404714069,404712818,1.5406685,0.13076559,-9.655398
404763929,404762858,1.5518675,0.20781669,-9.63907
404814120,404812898,1.5469126,0.11317002,-9.670466
404864004,404862940,1.5428653,0.19225405,-9.635291
404914196,404912981,1.5392001,0.15305978,-9.645239
404964149,404963047,1.5474267,0.07066971,-9.673686
405014206,405013068,1.5179162,0.2763914,-9.693882
405064182,405063103,1.5381404,0.16476682,-9.6508665
405114326,405113144,1.548863,0.2610566,-9.754574
405164231,405163185,1.5372183,0.16771603,-9.6803055
405214534,405213225,1.5379303,0.05756244,-9.6780815
405264437,405263275,1.5633395,0.21459584,-9.716996
405314520,405313314,1.5586882,0.18335304,-9.65167
405364422,405363348,1.5333791,0.2455065,-9.675017
405414672,405413399,1.5268087,0.2527813,-9.710196
405464491,405463430,1.5324758,0.13601997,-9.659887
405514530,405513470,1.5137535,0.2117874,-9.630249
405564571,405563512,1.562261,0.15869614,-9.614006
405614767,405613557,1.5207781,0.121288136,-9.581311
405664640,405663593,1.53057,0.17198715,-9.654172
405714928,405713634,1.531262,0.1713992,-9.631588
405764718,405763674,1.5683063,0.18700886,-9.689196
405814977,405813715,1.5558563,0.16726458,-9.641972
405864794,405863756,1.5386487,0.14849253,-9.718187
405915086,405913808,1.519738,0.12844354,-9.64961
405964910,405963838,1.5426632,0.23085824,-9.657257
406015282,406013879,1.569162,0.19502601,-9.711238
406064958,406063919,1.5470304,0.22231847,-9.721467
406115154,406113960,1.4727591,0.24757862,-9.728706
406165057,406164001,1.4979837,0.1732336,-9.699602
406215124,406214049,1.5208209,0.15838653,-9.68947
406265131,406264083,1.5747004,0.15926118,-9.707891
406315225,406314123,1.6126975,0.27719966,-9.815496
406415375,406414205,1.4923568,0.12097132,-9.738989
406465286,406464246,1.4869184,0.13993168,-9.715337
406515488,406514287,1.5431035,0.2358698,-9.628264
406565391,406564327,1.578699,0.24846134,-9.554226
406615481,406614374,1.5370072,0.19598457,-9.619183
406665460,406664413,1.4873722,0.18831947,-9.600935
406715573,406714456,1.5290517,0.13341434,-9.613633
406765636,406764490,1.5701079,0.20855369,-9.65479
406815588,406814531,1.5650713,0.33122683,-9.650614
406865706,406864622,1.4791464,0.161918,-9.666868
406915823,406914615,1.5097184,0.1632572,-9.728666
406960676,406959649,1.5420635,0.2469016,-9.701182
407010779,407009692,1.568407,0.10822116,-9.746597
407065806,407064732,1.5296769,0.2563038,-9.670436
407165882,407164829,1.57098,0.18420488,-9.551764
407210927,407209867,1.5830133,0.23055741,-9.754971
407266076,407264928,1.5107192,0.046174858,-9.63235
407310982,407309942,1.5113944,0.18811798,-9.735744
407366064,407365006,1.5459148,0.082322724,-9.648466
407411091,407410016,1.5768356,0.252294,-9.767769
407466133,407465067,1.5370797,0.1827152,-9.563263
407511138,407510100,1.4987894,0.2538155,-9.794972
407561209,407560138,1.4885013,0.19040594,-9.626023
407611221,407610179,1.5559775,0.14182648,-9.720293
407711339,407710261,1.5607443,0.11437569,-9.703903
407761393,407760309,1.5285105,0.2788314,-9.638895
407811387,407810342,1.4923035,0.22038709,-9.682365
407861441,407860393,1.5044373,0.30811092,-9.632778
407911550,407910427,1.5100586,0.16482705,-9.696793
407961615,407960464,1.556841,0.09502131,-9.6723585
408011678,408010516,1.5619462,0.11476691,-9.663593
408061638,408060547,1.5729212,0.10324735,-9.631066
408111716,408110587,1.5882032,0.26107302,-9.6598215
408161674,408160628,1.5013794,0.207622,-9.689281
408211763,408210698,1.4762976,0.16367456,-9.665457
408261761,408260709,1.5032849,0.18839231,-9.655233
408311801,408310750,1.5722505,0.06795144,-9.731653
408361917,408360812,1.6461207,0.14291732,-9.64948
408411871,408410834,1.6074573,0.16341782,-9.6669855
408461983,408460872,1.4897605,0.15785621,-9.652138
408511987,408510913,1.448305,0.27987462,-9.714551
408562008,408560953,1.5043969,0.17107779,-9.668535
408612142,408610994,1.6008786,0.1747728,-9.779413
408662209,408661035,1.5836139,0.07418611,-9.653425
408712140,408711076,1.5463667,0.06322689,-9.778617
408762256,408761116,1.5160211,0.1930339,-9.657555
408812237,408811157,1.5612291,0.22596693,-9.786604
408862285,408861198,1.5216856,0.21464577,-9.608355
408912372,408911239,1.4948244,0.20972559,-9.734461
408962367,408961279,1.5116067,0.074610755,-9.630871
409012458,409011320,1.5877342,0.108582586,-9.703986
409062414,409061361,1.5964913,0.1318416,-9.592203
409112508,409111401,1.5550814,0.14246759,-9.704211
409162606,409161442,1.4917346,0.21537434,-9.592781
409212607,409211491,1.4699273,0.18893653,-9.694126
409262583,409261525,1.5272089,0.10738125,-9.601021
409312694,409311564,1.5923349,0.15496635,-9.753939
409362681,409361605,1.5836514,0.093461886,-9.625881
409412683,409411651,1.5346003,0.17117044,-9.705283
409462729,409461687,1.5296452,0.15287116,-9.626311
409512764,409511727,1.5088922,0.20107698,-9.687211
409562981,409561768,1.5407348,0.17465553,-9.622671
409612847,409611809,1.5473278,0.17993136,-9.6997595
409662902,409661857,1.5643685,0.14959489,-9.645788
409712943,409711890,1.5599,0.117444545,-9.725018
409762972,409761933,1.5539162,0.19218008,-9.648445
409813031,409811971,1.5445845,0.18159448,-9.689419
409863053,409862012,1.528451,0.19989532,-9.692121
409913363,409912053,1.5084705,0.21099089,-9.667872
409963150,409962094,1.5277671,0.14632747,-9.620955
410013183,410012135,1.5452316,0.20352635,-9.625591
410063238,410062175,1.5784155,0.08267836,-9.707074
410113327,410112216,1.5666041,0.17671725,-9.65194
410163295,410162256,1.5263374,0.18375087,-9.655818
410213471,410212297,1.4887991,0.16203326,-9.701043
410263392,410262338,1.5138328,0.24370037,-9.67041
410313607,410312389,1.5541201,0.120518476,-9.676514
410363472,410362420,1.5561336,0.1916036,-9.679701
410413501,410412460,1.5583115,0.19312061,-9.671804
410463582,410462507,1.5281218,0.129735,-9.754928
410513629,410512542,1.5383275,0.1695426,-9.652851
410563645,410562583,1.5540427,0.14597064,-9.697814
410613661,410612623,1.5485575,0.15632111,-9.648386
410663759,410662680,1.5381813,0.19920933,-9.765812
410713736,410712705,1.5314107,0.18447062,-9.649544
410763777,410762745,1.5396447,0.19859064,-9.708819
410813829,410812786,1.5376469,0.10252446,-9.658878
410863861,410862829,1.5378742,0.14751157,-9.702733
410914043,410912862,1.5637902,0.13877358,-9.648381
410963953,410962912,1.5689654,0.19948414,-9.68433
411014239,411012958,1.5209699,0.14781095,-9.599893
411064040,411063008,1.4894763,0.19869965,-9.680309
411114225,411113031,1.5390222,0.16112952,-9.676649
411164126,411163079,1.5822026,0.18040088,-9.704794
411214159,411213121,1.5927614,0.17969042,-9.586758
411264221,411263153,1.5316339,0.12489091,-9.723543
411314239,411313193,1.4810352,0.16343059,-9.647928
411364292,411363234,1.5163813,0.19326288,-9.697622
411414355,411413275,1.5590541,0.16580312,-9.685275
411464373,411463315,1.5680025,0.19367681,-9.727519
411514556,411513356,1.521513,0.116671644,-9.700477
411564476,411563405,1.5152556,0.093400605,-9.6838665
411614523,411613438,1.5410626,0.14659464,-9.6665
411664533,411663478,1.5514877,0.14417198,-9.687921
411714731,411713519,1.5479919,0.17492579,-9.728878
411764618,411763560,1.5157043,0.09524947,-9.654003
411814722,411813601,1.5173774,0.1579933,-9.680868
411864769,411863647,1.5600632,0.18762669,-9.697238
411914740,411913684,1.5870825,0.15942253,-9.647138
411964767,411963730,1.5221287,0.1744325,-9.6514225
412015013,412013797,1.5007991,0.124420196,-9.648388
412064860,412063804,1.530005,0.14942956,-9.682907
412114898,412113845,1.5646794,0.1694198,-9.659286
412165004,412163891,1.5680897,0.17090067,-9.717951
412215031,412213933,1.5388591,0.2252513,-9.681319
412265016,412263967,1.5386047,0.1533693,-9.719362
412315254,412314008,1.5374146,0.123887606,-9.620504
412365103,412364048,1.5265136,0.21485919,-9.722221
412415277,412414089,1.5345213,0.14025618,-9.638355
412465196,412464141,1.5521735,0.20512791,-9.7185955
412515353,412514171,1.5298288,0.18728724,-9.613107
412565301,412564215,1.5100152,0.14765131,-9.73094
412615565,412614252,1.5159531,0.10541066,-9.637862
412665371,412664293,1.5494199,0.13323948,-9.746939
412715564,412714334,1.5980879,0.20492104,-9.677943
412765468,412764375,1.5352457,0.19504696,-9.754862
412815639,412814422,1.4838934,0.16484767,-9.632483
412865560,412864467,1.500791,0.21235856,-9.747739
412915789,412914499,1.5485944,0.08696143,-9.663527
412965630,412964537,1.5992475,0.2119219,-9.652022
413015701,413014579,1.5588266,0.15905902,-9.617561
413065749,413064619,1.5253767,0.16684794,-9.71429
413110711,413109662,1.4800775,0.17180605,-9.72927
413165855,413164700,1.5180458,0.1883113,-9.717235
413210898,413209768,1.5597488,0.17466564,-9.693554
413265947,413264782,1.5678385,0.15360911,-9.714618
413310889,413309823,1.5375707,0.0585322,-9.736235
413361043,413359877,1.5303061,0.13631386,-9.702194
413410932,413409900,1.5206654,0.22567298,-9.7169895
413460980,413459949,1.5446961,0.15828797,-9.699314
413511045,413509986,1.5303273,0.25431374,-9.720956
413561078,413560022,1.5199594,0.11864698,-9.697757
413611090,413610063,1.5563686,0.15286468,-9.674962
413661145,413660104,1.5651923,0.10348345,-9.572876
413711176,413710144,1.5480866,0.12536821,-9.663147
413761238,413760185,1.524623,0.17951262,-9.666334
413811307,413810226,1.548779,0.0922203,-9.684231
413861314,413860270,1.5267175,0.12739095,-9.574402
413911347,413910309,1.5520469,0.15605676,-9.68537
413961395,413960348,1.5594497,0.11129261,-9.637268
414011507,414010400,1.5326602,0.17184071,-9.748103
414061475,414060430,1.5098469,0.13786697,-9.761291
414111537,414110470,1.5376594,0.23351964,-9.652675
414161550,414160511,1.5325898,0.14352113,-9.656099
414211651,414210552,1.5429746,0.14159879,-9.735386
414261651,414260593,1.5552783,0.14522365,-9.680618
414311671,414310633,1.5388753,0.08931554,-9.664051
414361718,414360674,1.5403411,0.19519296,-9.604202
414411775,414410715,1.5515192,0.15690753,-9.705932
414461820,414460762,1.5055658,0.17828223,-9.710618
414511829,414510796,1.5285524,0.2386176,-9.726906
414561879,414560837,1.5450456,0.10625216,-9.753181
414611905,414610878,1.5789379,0.16569851,-9.716942
414662002,414660939,1.5823308,0.08124915,-9.615098
414711991,414710959,1.5439981,0.14137307,-9.65406
414762098,414761015,1.5036511,0.22752693,-9.650564
414812141,414811056,1.5196322,0.07279554,-9.6954975
414862128,414861096,1.5495077,0.2541048,-9.633524
414912170,414911138,1.5850416,0.1255562,-9.700062
414962230,414961174,1.5465157,0.12547365,-9.671623
415012252,415011211,1.5431298,0.21526481,-9.746183
415062290,415061252,1.5253453,0.06452117,-9.6945095
415112369,415111287,1.5292138,0.27408335,-9.695987
415162396,415161326,1.529837,0.12301972,-9.700391
415212475,415211366,1.5506804,0.1789681,-9.689307
415262527,415261407,1.5597284,0.17945088,-9.703735
415312514,415311458,1.520774,0.07943366,-9.734354
415362546,415361489,1.529232,0.20118338,-9.638359
415412588,415411530,1.5654191,0.095695704,-9.715559
415462643,415461578,1.5316253,0.16355869,-9.763301
415512676,415511611,1.5635636,0.17947711,-9.848415
415562705,415561652,1.536711,0.09721554,-9.71342
415612792,415611697,1.5321399,0.18563786,-9.7209015
415662821,415661734,1.5357968,0.03591606,-9.693089
415712819,415711775,1.590668,0.18858586,-9.686758
415762883,415761825,1.571315,0.14332633,-9.697484
415812934,415811874,1.5184622,0.16376822,-9.740501
415862940,415861897,1.5380373,0.20607594,-9.704937
415963029,415961978,1.5575528,0.22820573,-9.749879
416013337,416012019,1.5798495,0.14479803,-9.563382
416063103,416062060,1.5412952,0.1748489,-9.538719
416113179,416112109,1.4747794,0.11402403,-9.521984
416263279,416262223,1.5403501,0.17406097,-9.795311
416313316,416312264,1.5401629,0.1431809,-9.703141
416363411,416362305,1.4730359,0.1281708,-9.76536
416413427,416412345,1.4920577,0.030826276,-9.79855
416463544,416462427,1.647141,0.1545742,-9.751652
416513613,416512427,1.6264484,0.09586432,-9.680437
416563565,416562470,1.5785881,0.11696769,-9.6200485
416663645,416662550,1.4879537,0.21581614,-9.591762
416713811,416712593,1.5207589,0.2253948,-9.777457
416763721,416762631,1.5733914,0.108824305,-9.471861
416813823,416812672,1.6146529,0.038276657,-9.987524
416863819,416862712,1.6157122,0.20427877,-9.94279
416963835,416962794,1.4933028,0.10975578,-9.823321
417014005,417012868,1.5072786,0.074407846,-9.753
417063914,417062876,1.5613918,0.08779666,-9.580559
417113966,417112916,1.6248809,0.19564681,-9.593736
417164137,417162974,1.5304585,0.016150117,-9.4836235
417214196,417213009,1.4659501,0.0787392,-9.598106
417264269,417263046,1.5139625,0.1133271,-9.635373
417314133,417313080,1.560842,0.1255159,-9.482396
417364393,417363120,1.6368672,0.10377268,-9.8449745
417414199,417413161,1.5341995,0.031243121,-9.854518
417464512,417463202,1.4869624,0.03934124,-9.90392
417514279,417513243,1.5016518,0.11020793,-9.637545
417564579,417563284,1.596385,0.089541644,-9.926947
417614423,417613330,1.6334352,0.08116987,-9.672079
417664690,417663365,1.5669271,0.08723089,-9.814236
417714464,417713406,1.4828782,0.10184937,-9.656524
417764830,417763458,1.4982897,0.11016388,-9.8055725
417814549,417813497,1.600247,0.14583966,-9.63085
417864725,417863529,1.6257496,0.15088455,-9.703479
417914634,417913570,1.5171784,0.038803097,-9.62696
417964839,417963610,1.4942405,0.080384776,-9.736991
418014722,418013651,1.5840337,0.1139711,-9.680679
418064874,418063698,1.5941355,0.16459624,-9.78534
418114784,418113733,1.5081967,0.2104026,-9.693565
418164937,418163774,1.4404781,0.10514984,-9.563879
418214863,418213814,1.5257664,0.14532651,-9.722727
418264987,418263862,1.6364279,0.12237549,-9.738397
418314938,418313897,1.6253656,-0.0053254804,-9.579937
418365113,418363937,1.6016258,0.13148732,-9.705812
418415061,418413978,1.4989505,0.11190054,-9.560158
418465073,418464019,1.4827783,0.17140959,-9.819748
418515095,418514060,1.4846166,0.08336948,-9.708336
418565237,418564101,1.5292463,0.037063934,-9.807882
418615281,418614158,1.4786618,0.050792422,-9.551028
418665246,418664186,1.5252287,0.10986506,-9.998564
418715311,418714245,1.5863115,0.17553338,-9.7135515
418765476,418764279,1.5346315,0.053017206,-9.794911
418815466,418814352,1.5039814,0.07701417,-9.672807
418865571,418864377,1.5767437,0.0784086,-9.926109
418915557,418914491,1.5526155,0.22871134,-9.760856
418965482,418964427,1.5111637,0.2875618,-9.634554
419015534,419014468,1.4923768,-0.029583663,-9.67938
419065604,419064517,1.4937475,0.1442898,-9.685388
419115622,419114550,1.5660793,0.0076342747,-9.674686
419165815,419164594,1.5990235,0.22725391,-9.668013
419215778,419214632,1.5208473,0.23257506,-9.6402445
419265717,419264673,1.5167346,0.06776415,-9.769754
419315769,419314724,1.4669087,0.29503867,-9.436676
419365803,419364754,1.5117841,0.084138885,-9.7275915
419410872,419409799,1.5710081,0.13703895,-9.582733
419465914,419464836,1.5711052,0.064033106,-9.653988
419510983,419509873,1.533429,0.050043315,-9.691189
419565971,419564922,1.4676046,0.2713833,-9.765968
419611133,419609955,1.5165497,0.08518996,-9.689932
419666092,419665021,1.5464543,0.230073,-9.786387
419711076,419710036,1.5802982,0.05918897,-9.685787
419761127,419760079,1.5460469,-0.02344172,-9.674268
419811281,419810134,1.5144523,0.17448166,-9.821994
419861231,419860161,1.5436451,0.0666787,-9.626761
419911243,419910199,1.5310892,0.2919123,-9.700318
419961329,419960240,1.5499704,0.12288008,-9.737129
420011490,420010281,1.5300522,0.108982995,-9.638698
420061487,420060322,1.5129634,0.2475756,-9.762661
420111469,420110370,1.5474375,0.019949714,-9.640463
420161531,420160410,1.5605078,0.20521179,-9.773456
420211651,420210444,1.534552,0.15608066,-9.705876
420261577,420260497,1.5139817,0.19102651,-9.742313
420311621,420310527,1.5078495,0.25760567,-9.655296
420361679,420360571,1.5336,0.14691274,-9.771126
420411719,420410610,1.5642549,0.16043758,-9.7073555
420461723,420460654,1.5327092,0.14334089,-9.735064
420511873,420510689,1.545245,0.1033249,-9.573082
420562023,420560731,1.5605879,0.21781902,-9.766532
420611861,420610771,1.5366184,0.2065242,-9.661514
420662021,420660812,1.5084811,0.22699767,-9.869789
420712024,420710853,1.5245817,0.24209283,-9.52835
420762219,420760894,1.5445743,0.027221434,-9.65524
420812125,420810942,1.5553567,0.1820089,-9.662052
420862234,420860975,1.5379442,0.16851744,-9.70963
420912166,420911018,1.5168186,0.16314854,-9.710766
420962321,420961057,1.4788711,0.2503473,-9.504498
421012322,421011098,1.5652717,0.15963757,-9.779077
421062180,421061139,1.5849884,0.21349852,-9.576073
421112443,421111180,1.5615954,0.12081842,-9.743105
421162283,421161220,1.5353963,0.089215174,-9.774257
421212317,421211261,1.5021683,0.25757095,-9.707453
421262371,421261306,1.5124942,0.20595688,-9.617046
421312392,421311343,1.5630093,0.2623855,-9.74831
421362461,421361401,1.5477502,0.14315847,-9.586743
421412485,421411424,1.5656741,0.1486465,-9.850693
421512558,421511506,1.5509719,-0.008447267,-9.841032
421562621,421561547,1.5520377,0.1792164,-9.578311
421612632,421611590,1.5687795,0.251932,-9.777621
421662814,421661628,1.5298865,0.21772894,-9.633968
421712707,421711669,1.4987855,0.39941013,-9.828317
421762763,421761710,1.5379696,0.12863114,-9.599598
421812845,421811751,1.5529885,0.15104035,-9.769911
421862849,421861800,1.572102,0.13185135,-9.664153
421912871,421911835,1.533588,0.16272478,-9.726908
421962934,421961875,1.49898,0.25745726,-9.72986
422012962,422011914,1.5155406,0.2404831,-9.575472
422062987,422061955,1.5365593,0.31027955,-9.673847
422113081,422111995,1.568606,0.11711867,-9.651576
422163254,422162035,1.526871,0.09146987,-9.718819
422213119,422212077,1.5365629,0.13204972,-9.627932
422263151,422262118,1.5447673,0.16986868,-9.816951
422313269,422312166,1.5372957,0.3281358,-9.623927
422363227,422362200,1.5350819,0.21683998,-9.632239
422413292,422412250,1.5396471,0.14690983,-9.6258545
422463527,422462281,1.5227648,0.1497525,-9.668022
422513371,422512322,1.5460011,0.06597881,-9.712564
422563567,422562366,1.5780017,0.24776098,-9.734242
422613455,422612409,1.5560077,0.18071073,-9.658703
422663500,422662452,1.5368968,0.2834354,-9.7085
422713557,422712507,1.4960909,0.24133137,-9.732374
422763627,422762563,1.5273075,0.17819972,-9.723532
422813645,422812575,1.5561292,0.14556268,-9.598784
422863800,422862608,1.6061339,0.09156179,-9.724055
422913743,422912649,1.597059,0.13931663,-9.693519
422963730,422962690,1.5265827,0.16079263,-9.692476
423013781,423012733,1.5040413,0.19425954,-9.683821
423063811,423062773,1.4735457,0.2657442,-9.647118
423113871,423112812,1.5205176,0.23502421,-9.655297
423163910,423162853,1.5553075,0.30059117,-9.657125
423213945,423212894,1.6040728,0.20529354,-9.668705
423263972,423262935,1.5593411,0.1390008,-9.675524
423314070,423312975,1.5095577,0.21760279,-9.614271
423364323,423363016,1.5107574,0.17005493,-9.756104
423414094,423413057,1.5591513,0.16311762,-9.658782
423464144,423463098,1.5506971,0.2056486,-9.674716
423514185,423513139,1.5227199,0.17919041,-9.599866
423564243,423563180,1.525451,0.31909052,-9.697109
423614271,423613221,1.5401323,0.21799746,-9.6639595
423664323,423663268,1.5345571,0.13700965,-9.68287
423714355,423713310,1.5424094,0.16115676,-9.74539
423764444,423763348,1.5247531,0.09161296,-9.705385
423814449,423813403,1.5310627,0.27194354,-9.786065
423864494,423863427,1.5404229,0.25690058,-9.64783
423914556,423913483,1.5464756,0.08504677,-9.773566
423964602,423963506,1.5544202,0.345662,-9.705603
424014613,424013547,1.5405319,0.32553768,-9.829257
424064796,424063593,1.6155941,0.25368196,-9.729816
424114721,424113629,1.6157963,0.107349396,-9.770406
424164838,424163669,1.4799029,0.63615376,-9.781776
424214820,424213719,1.5499105,-0.007115256,-9.706693
424264822,424263751,1.4803874,0.15778771,-9.555785
424314883,424313800,1.5322251,0.21101806,-9.68856
424365010,424363838,1.5985674,0.107543565,-9.511436
424414944,424413874,1.6875384,0.15726222,-9.645602
424465004,424463914,1.5928942,0.4011573,-9.5606575
424515121,424513955,1.467985,0.23764789,-9.800009
424565283,424564003,1.4519677,0.33831248,-9.694586
424615125,424614040,1.5244204,0.420519,-9.704775
424665325,424664077,1.6652696,0.11556357,-9.535955
424715258,424714122,1.674685,0.24390572,-9.689567
424765472,424764159,1.5684756,0.3693318,-9.516902
424815231,424814200,1.5331166,0.035286088,-9.805291
424865469,424864240,1.6333631,0.489013,-9.5102215
424915351,424914281,1.6787171,0.20402433,-9.33333
424965370,424964333,1.823101,0.082658894,-9.836051
425015420,425014363,1.8886094,0.33490974,-9.746451
425065457,425064403,1.7535963,0.5960167,-9.145172
425115511,425114444,2.0724614,0.11585066,-9.625512
425165753,425164485,2.110018,0.56203294,-8.823753
425215602,425214533,2.4837666,-0.04283062,-10.415422
425265616,425264566,2.0213027,0.30296853,-10.673869
425315755,425314612,1.6502764,-0.32114032,-9.42573
425360726,425359649,1.9865246,0.39990112,-10.180021
425415731,425414688,2.3831968,0.32163894,-9.457286
425465760,425464729,1.455678,-0.2232917,-8.888243
425510946,425509765,2.24128,0.5912423,-9.455235
425560931,425559822,2.0892763,-0.3792324,-10.121078
425610954,425609846,2.1828167,0.2148428,-10.387781
425665939,425664891,2.455884,-0.34736514,-10.148263
425711095,425709929,2.769593,0.6045404,-8.618022
425761016,425759967,3.088213,0.13013215,-7.301543
425811035,425810008,2.59481,0.17449488,-10.413645
425861146,425860048,3.3446872,0.58198905,-9.296815
425911168,425910089,2.9942,-0.36625665,-9.65645
425961189,425960137,2.5949283,0.6702947,-10.656017
426011223,426010173,2.5995493,0.070857495,-8.191284
426061301,426060227,2.381981,0.17556816,-8.650463
426111288,426110250,2.6335697,0.5437656,-8.715004
426161340,426160297,2.5145512,-0.11892352,-6.9754286
426211400,426210331,2.9967046,-0.50727725,-10.325155
426261442,426260372,3.0449972,-0.00074608997,-4.885432
426311537,426310432,3.6312509,-0.14125638,-10.395886
426361572,426360500,3.5534303,-0.06445206,-8.109652
426411574,426410507,3.4660697,0.37132847,-9.529792
426461848,426460533,3.7241905,0.24023513,-11.450347
426511649,426510592,3.6318288,-0.49254978,-8.60467
426561821,426560637,3.4722147,-0.34798005,-11.501015
426611739,426610653,4.2142076,-0.2933563,-11.013939
426661752,426660708,4.5121474,-0.19023348,-8.391592
426711799,426710732,4.7904997,0.09323035,-9.915305
426761959,426760777,4.8094864,0.28209844,-8.673874
426811915,426810814,5.6631203,0.06123089,-7.458658
426862071,426860857,5.571091,0.686031,-10.439307
426911946,426910895,4.964051,0.045131724,-8.75348
426962118,426960940,4.991631,0.26052243,-10.407354
427012072,427011016,5.1941137,0.12058045,-7.60257
427062216,427061024,5.5167284,1.339561,-9.807587
427112143,427111059,5.2062616,0.8916483,-7.9703593
427162282,427161144,5.867653,0.77674377,-7.984762
427212200,427211138,6.000814,0.45856428,-7.9007244
427262393,427261183,5.836685,0.73125786,-8.896415
427312350,427311273,5.0903587,0.6728226,-8.846494
427362481,427361269,5.5235434,1.3740072,-11.317796
427412355,427411295,5.3424225,0.5744759,-8.718736
427462413,427461338,5.076008,-0.15146808,-10.6523
427512475,427511371,5.671828,-0.9311641,-8.875215
427562474,427561420,5.788696,0.00043037534,-8.932765
427612532,427611454,6.0567093,-0.55396616,-9.5174675
427662692,427661490,5.609973,-0.05649117,-9.959068
427712602,427711535,5.844086,-0.33498925,-10.625112
427762854,427761574,5.9007525,0.640737,-10.607807
427812665,427811608,6.4269614,0.9425931,-8.783466
427862854,427861654,6.8025513,0.4050789,-9.302287
427912757,427911687,6.5927477,0.03336362,-9.706738
427962974,427961726,6.189931,0.46777922,-10.396606
428012848,428011766,6.1432967,0.69848573,-9.99371
428063100,428061824,6.008208,0.61589175,-10.940137
428112930,428111844,5.795933,0.089454204,-11.857627
428163095,428161889,5.9419975,-0.5024131,-11.983885
428213026,428211923,5.6826553,-0.11180492,-14.181162
428263225,428261973,5.6413608,0.45401987,-13.841118
428313142,428312004,5.958995,0.6806589,-12.642509
428363087,428362040,5.99755,0.10504518,-15.09537
428413219,428412079,5.6065454,0.0041764416,-15.835066
428463363,428462123,5.64005,0.47986042,-14.041866
428513245,428512164,5.5030828,0.65455455,-15.832699
428563458,428562203,5.194371,0.49011365,-14.261904
428613290,428612233,5.262211,0.34603703,-12.018985
428663491,428662278,5.4370737,-0.09374179,-13.532811
428713399,428712313,5.312553,0.2956925,-12.628638
428763581,428762368,5.298874,0.03686995,-12.066975
428813453,428812407,4.940132,0.025079552,-10.734268
428863700,428862430,4.9649396,-0.15977892,-10.419642
428913591,428912528,4.955653,-0.16498925,-10.679531
428963784,428962516,4.7354946,0.2332513,-11.383873
429013585,429012546,5.393612,0.2046308,-13.381687
429063925,429062585,5.2438445,0.53831244,-13.607861
429113689,429112623,4.4632254,0.6276401,-12.313604
429163863,429162662,4.187901,-0.053859107,-9.66491
429213738,429212700,4.557333,-0.34027934,-8.872846
429263994,429262746,4.801247,-0.3783075,-11.819569
429313978,429312778,4.500844,-0.6874922,-11.933633
429364064,429362828,4.3321247,-0.48265374,-11.348486
429413929,429412862,4.44328,-0.44358307,-9.629139
429463930,429462893,4.3059177,-0.5390769,-9.36476
429514022,429512932,4.171129,-0.41864592,-9.64846
429564154,429562978,3.959974,-0.5781107,-11.198999
429614062,429613012,4.0299935,-0.30047864,-10.543154
429664216,429663047,4.052036,-0.50932086,-11.172424
429714193,429713137,3.6627219,-0.5907555,-9.627788
429764173,429763132,3.569765,-0.38437036,-9.547151
429814218,429813172,3.2353413,-0.40067732,-10.215236
429864264,429863219,3.5875525,-0.37813795,-9.751465
429964509,429963293,3.257329,-0.0012106565,-10.256988
430014360,430013317,3.2870436,0.21941195,-11.26169
430064570,430063353,3.6421242,-0.021941332,-10.64414
430114511,430113404,3.09223,0.1603425,-9.5829
430164482,430163432,3.1829722,-0.3674652,-10.277468
430214553,430213493,3.8832588,-0.49208647,-10.038127
430264558,430263505,3.4284916,-0.25644064,-11.781362
430314626,430313555,3.3184223,-0.38753557,-9.896497
430364674,430363605,3.6010563,-0.35767755,-9.254694
430414674,430413619,3.3672657,-0.7754677,-10.221958
430464740,430463657,3.1438804,-0.19374624,-8.289575
430514839,430513704,3.0538769,-0.14577833,-6.542807
430564776,430563733,3.313209,-0.2828947,-8.041179
430614949,430613771,3.1267693,0.03798801,-7.8956513
430665039,430663814,3.255303,0.28390878,-6.4691477
430714891,430713847,3.4524405,0.3943153,-7.495938
430764936,430763885,3.3621387,0.26694813,-7.8772273
430814967,430813929,3.181454,0.63265336,-6.4803944
430865019,430863960,3.2155566,0.72170246,-6.42557
430915081,430913998,3.086571,0.28338104,-6.0232677
430965090,430964037,2.7748847,0.07365388,-6.3750215
431015157,431014073,2.8062031,-0.16070254,-6.0822344
431065202,431064111,3.2480464,-0.37108263,-6.521446
431115237,431114149,3.3320704,-0.8647774,-7.1868086
431165295,431164186,3.2830923,-0.8523774,-8.027381
431265360,431264261,2.986333,-0.29618895,-11.408724
431315421,431314298,3.2760334,-0.7002629,-8.573524
431365519,431364344,3.3860533,-0.35273463,-7.195044
431415431,431414374,2.8502588,0.4379849,-4.567188
431465478,431464427,3.2202623,0.28963655,-4.7872663
431515518,431514450,3.6136408,0.34823513,-7.007372
431565539,431564486,3.3049703,0.49280888,-8.746178
431615614,431614530,2.9837463,0.5150807,-8.850721
431665663,431664568,3.06815,0.064371854,-9.353777
431715685,431714628,3.3823109,-0.12036809,-10.65396
431765698,431764639,3.379156,0.111498415,-8.903444
431815918,431814697,3.2981076,-0.012993816,-7.2980638
431865751,431864710,3.0884602,-0.32500187,-7.7276363
431910782,431909742,3.0693705,-0.08475194,-6.5608244
431966041,431964784,3.0798547,0.44642588,-7.1843557
432010870,432009817,3.4700022,0.1890146,-7.0993834
432060887,432059854,3.2721198,0.7615604,-8.329304
432110940,432109895,2.8654194,1.1333524,-8.253399
432166037,432164932,2.854234,0.7490151,-9.923815
432211024,432209965,2.8053014,0.23511481,-10.084592
432266066,432265015,2.9248722,-0.21720484,-9.678991
432361119,432360080,2.9534173,-0.36756912,-9.307299
432411189,432410113,3.1097512,-0.18877855,-10.331805
432461194,432460156,3.1376946,0.35331434,-9.703215
432511233,432510198,2.6489851,0.4401868,-8.818202
432561273,432560237,2.4936028,0.21496625,-9.068063
432611334,432610265,2.8250442,0.43163723,-8.077675
432661341,432660300,2.8390934,0.71368015,-7.8539367
432711431,432710375,2.6065605,0.85019654,-8.641073
432761453,432760407,2.6097746,0.7164475,-8.037404
432811466,432810408,2.6687496,0.16864207,-8.808775
432911555,432910482,2.6505046,0.088718794,-8.194309
432961566,432960518,2.840204,0.2066492,-10.0264435
433011747,433010555,2.4417849,0.3088206,-9.741398
433061636,433060592,2.6299164,0.40990448,-8.776067
433111669,433110628,2.44958,0.13148227,-10.393166
433161989,433160671,2.571938,-0.41219106,-9.327258
433211740,433210701,2.7110684,-0.4822058,-9.642538
433261779,433260738,2.4452243,-0.19340098,-8.379924
433311816,433310775,2.5058312,0.35395682,-8.118694
433361853,433360811,3.0664334,1.212319,-9.825153
433411890,433410848,2.6488657,1.8426477,-9.845951
433462062,433460884,3.0016243,1.6095061,-9.004482
433511959,433510920,3.2370858,1.3424473,-11.232742
433562010,433560957,3.3034034,1.172637,-10.644834
433612085,433610993,3.163486,1.3656538,-10.999936
433662096,433661029,3.0641024,0.5668165,-11.772046
433712157,433711066,3.0656846,0.03550428,-10.891489
433762168,433761102,2.988389,0.073847175,-11.197914
433812375,433811138,2.8931632,-0.4396119,-10.547773
433862298,433861175,3.2399235,-0.840628,-10.135055
433962327,433961247,2.9413438,0.64496225,-11.133824
434012468,434011297,2.403047,1.0366993,-8.753141
434062353,434061319,2.7466292,0.84988916,-8.688749
434112487,434111356,2.8781397,0.7277512,-9.085076
434162495,434161400,2.6156101,1.064776,-9.985195
434212512,434211427,2.4386306,0.95124876,-11.174913
434262669,434261464,2.5355175,1.5571069,-9.055084
434312545,434311499,2.7714024,1.5386066,-8.997908
434362586,434361536,2.8940213,0.5490639,-8.713086
434412657,434411571,2.6340094,0.65850174,-10.504974
434462662,434461607,2.5671446,0.24991135,-8.781378
434512803,434511643,2.619969,0.3043321,-9.710518
434562722,434561679,2.6157725,0.14671612,-10.442309
434612772,434611715,2.2528017,-0.44928348,-7.5772676
434662819,434661762,2.3731494,-0.82334286,-9.166502
434712825,434711786,2.2564962,-1.7790396,-8.365825
434762885,434761822,1.8160275,-1.6672565,-6.2501945
434812905,434811858,1.7607627,-1.1352677,-6.5577865
434862930,434861893,1.9240156,-0.3445458,-6.858464
434913175,434911929,1.5466925,0.31142983,-5.397792
434962998,434961965,1.4670584,0.6535132,-5.531514
435013088,435012000,1.0509585,0.39043292,-4.6342945
435063074,435062036,1.0038639,0.47974157,0.3058829
435113109,435112071,1.4278936,0.66249764,-6.5900264
435163185,435162115,1.4630079,0.30045265,-7.7604475
435213194,435212137,1.489975,0.13755658,-7.926717
435263213,435262186,1.9806659,0.26982877,-11.148772
435313341,435312279,1.3631353,0.09906721,-8.565441
435363323,435362256,0.9278437,-0.43984264,-6.5809193
435413323,435412284,1.0931425,-0.44039106,-7.240665
435463405,435462324,1.1213161,-0.1713851,-6.258218
435513475,435512361,1.2676476,-0.111027166,-4.73085
435563455,435562400,1.2766238,0.10348593,-9.898595
435663545,435662461,0.40266064,0.17822933,-7.658825
435713683,435712496,0.6511512,-0.81342053,-7.906535
435763589,435762534,0.66302556,-0.29022688,-8.920062
435813616,435812566,0.644743,1.2578043,-9.369807
435863669,435862608,0.7644459,0.8121733,-9.414649
435913673,435912636,0.72804374,0.40365994,-9.245913
435963713,435962672,0.83334494,0.28315526,-9.717871
436013755,436012707,0.6033196,0.043164007,-7.2928414
436063780,436062741,0.6572134,-0.44832748,-6.4358635
436113851,436112789,0.9626733,-0.9637957,-7.8923798
436163892,436162815,0.78863394,-1.3158413,-7.4046955
436213947,436212846,0.6838102,-1.1720788,-10.010378
436263952,436262882,0.74586815,-0.13192435,-8.230203
436314041,436312917,0.68535835,0.76902944,-7.2122145
436364029,436362951,0.38072628,0.94518304,-8.602017
436414118,436412987,0.67634034,0.23999113,-8.997847
436464131,436463047,0.6267644,0.5258858,-9.475189
436514089,436513056,0.75566405,1.1907285,-12.841676
436564234,436563091,0.9670279,0.91632783,-15.185654
436614166,436613125,0.92352456,0.6815801,-16.298962
436664200,436663160,1.2515057,0.9377153,-18.357698
436714241,436713195,1.6762626,1.009833,-22.135256
436764267,436763229,1.3483182,0.739892,-18.50486
436864367,436863299,1.0193465,0.4066607,-17.552582
436914403,436913333,1.2050736,1.0706897,-18.036049
436964642,436963370,1.6416132,1.0800722,-18.631525
437014459,437013404,1.5364482,1.2092555,-17.470919
437064487,437063445,1.3707311,0.85958225,-18.130474
437114849,437113472,1.2067273,1.280033,-19.231913
437164561,437163506,1.2368392,0.8164842,-19.841158
437214580,437213540,1.2404202,0.6512964,-20.801678
437264789,437263575,1.2095158,0.27500087,-20.804403
437314678,437313609,1.277847,0.2790108,-20.189781
437364674,437363647,1.1940432,0.10531387,-19.51426
437414718,437413678,1.7058494,1.0121027,-21.155964
437464835,437463735,1.1522121,1.0845976,-17.975225
437514838,437513748,1.0769179,1.3396761,-16.007038
437564813,437563781,0.840061,0.9795453,-16.705025
437614947,437613817,0.9497002,0.6421961,-10.396335
437664910,437663874,0.7643801,0.80943304,-10.282187
437714958,437713923,0.5498199,1.0747733,-10.694151
437814991,437813952,0.63276094,-0.22401157,-5.655583
437865032,437863986,0.2918515,0.3861816,-5.2599163
437915060,437914021,0.250014,-0.022560801,-6.917549
437965259,437964055,0.1449478,0.4058841,-7.4211073
438015129,438014089,0.8572402,0.18328296,-7.3253293
438065168,438064123,0.66861206,0.8259001,-7.6055555
438115332,438114158,0.69184995,1.0884641,-5.6085587
438165249,438164199,0.7812996,1.6068351,-6.5864105
438215280,438214229,1.0250461,1.2696681,-6.255615
438265308,438264264,0.70278704,1.9126148,-2.4024463
438315363,438314293,0.8605452,0.74212635,-2.8985138
438365571,438364328,0.557402,0.23643023,-3.770134
438415447,438414365,0.86145055,-0.39450604,-3.559612
438465479,438464401,1.0941293,-0.59080136,-6.229808
438515535,438514430,1.5624313,-0.67262995,-8.862922
438565571,438564463,1.1337774,0.014536831,-5.7967825
438615594,438614497,0.8368412,0.17938532,-6.192256
438665714,438664531,1.0383648,0.8188332,-6.3864546
438715662,438714565,1.3346694,1.6181929,-7.298468
438765916,438764610,1.3969926,1.5393392,-6.605507
438815677,438814633,1.6675415,1.4417593,-8.364322
438865711,438864666,1.5375602,1.7877214,-9.240679
438915778,438914700,1.1051027,1.1974449,-8.7231045
438965767,438964733,0.9284358,0.76887393,-8.508432
439015806,439014767,0.6547735,0.7640985,-6.0782914
439066072,439064801,1.0716138,0.47549307,-5.178054
439115889,439114834,0.8115925,0.8928582,-6.067482
439165920,439164868,0.86110544,0.5906998,-6.20473
439210981,439209904,1.2276335,0.11921044,-10.68902
439265974,439264935,1.402247,0.38282844,-10.238795
439311110,439309966,1.4024715,-0.033535194,-10.680398
439366062,439365010,1.1361243,0.21794993,-4.784931
439416069,439415036,1.4222462,0.19221339,-6.9334135
439461247,439460066,1.7945615,0.6957116,-11.934301
439516185,439515103,1.289133,-0.03189689,-13.60396
439566168,439565136,1.9638064,-0.5936853,-17.682716
439611202,439610166,1.5633936,-0.4484658,-15.070862
439666234,439665203,1.0968425,0.14102761,-7.9838486
439716277,439715236,0.7420709,0.99645936,-8.689091
439761331,439760300,0.90641415,0.50593334,-9.616783
439816370,439815309,0.3051748,0.5525242,-14.495325
439861455,439860357,0.50313026,1.0934751,-12.111713
439911476,439910406,-0.033955682,1.6126914,-7.705908
439966457,439965403,-0.00396695,0.8480586,-12.526737
440011504,440010442,-0.21880351,-0.910014,-13.484039
440066510,440065470,-1.6219412,-0.44256273,-9.789045
440116553,440115503,-2.261293,0.23461518,-10.03314
440161742,440160541,-2.958827,0.33352965,-9.121074
440211643,440210566,-3.481152,0.21842632,-5.794009
440261660,440260600,-3.6796923,1.3038232,-8.562818
440311681,440310633,-3.6410074,1.0575888,-9.53281
440361726,440360668,-3.5463514,1.2270046,-11.333666
440411819,440410703,-3.892931,0.68252456,-5.619114
440461809,440460742,-3.730929,-0.2047137,-4.565469
440511863,440510805,-3.6502905,-0.53638834,-5.935708
440561847,440560799,-3.3450131,-0.5688908,-6.5957603
440612020,440610835,-3.0550253,-0.8625295,-8.229405
440662034,440660871,-3.0417762,-1.0918924,-10.168541
440711971,440710898,-2.7667875,-1.2800602,-13.234968
440812050,440810968,-3.5592027,-0.94903004,-6.2511487
440862134,440861018,-3.53421,-0.54326916,-5.2754993
440912125,440911030,-3.5106187,-0.09458555,-5.2991996
440962170,440961070,-3.2196279,-0.22491899,-7.754091
441012143,441011097,-3.2968354,-0.015888482,-7.4146757
441062277,441061130,-3.0436711,0.11520335,-9.356938
441112212,441111163,-3.304553,0.8623501,-6.943774
441162268,441161207,-3.1024532,0.9321183,-6.6968975
441212281,441211229,-3.433033,0.8375372,-5.634373
441262324,441261264,-2.9894242,0.13604356,-7.2925158
441312358,441311295,-2.6989937,0.009382084,-9.799559
441362400,441361328,-2.8745167,-0.48435423,-9.77985
441412674,441411366,-2.916481,-1.1038634,-11.72398
441462506,441461402,-2.6349206,-1.0441623,-8.957027
441512549,441511427,-2.648808,-0.5686141,-6.9938045
441562502,441561460,-2.6904435,-0.6950895,-8.6842785
441612594,441611493,-2.6059468,-0.9087624,-9.36315
441662576,441661526,-2.3419425,-0.72372216,-11.1168995
441712608,441711559,-2.5556312,0.09097499,-10.679159
441762644,441761592,-2.5683966,-0.2701933,-9.728664
441812716,441811660,-2.814892,-0.40179244,-9.612459
441862718,441861658,-2.6979318,-0.53747994,-8.317978
441912726,441911693,-2.7119246,-0.27558652,-7.100174
441962830,441961759,-2.7386053,0.32702833,-3.9887795
442012825,442011794,-2.3960438,0.04221028,-6.646587
442062848,442061804,-1.7197149,0.07955216,-9.233997
442112873,442111824,-0.6152519,0.36392605,-8.454359
442162906,442161857,0.26461998,0.75813645,-9.132971
442212925,442211889,1.0001185,0.2778147,-10.613426
442267962,442266925,1.3272343,0.011852734,-12.873371
442318022,442316958,1.6186723,-0.45152947,-13.894354
442363045,442361988,1.6924119,-1.5231785,-11.368053
442418066,442417024,1.4309235,-2.066222,-10.101994
442468182,442467057,1.5480256,-1.5453479,-8.815831
442513165,442512093,1.6920787,-2.0075643,-5.558049
442568187,442567122,2.038055,-3.0772007,-8.765623
442613204,442612155,2.1543796,-3.5769165,-9.137527
442663351,442662185,2.717702,-3.799315,-12.703459
442713311,442712218,2.4182537,-3.7466679,-7.2973895
442763331,442762250,1.9489939,-3.23604,-4.1419945
442813359,442812283,2.0285559,-2.6676862,-7.80742
442868399,442867318,1.9487424,-1.9518917,-13.853516
442913456,442912348,2.0926178,-1.257511,-16.046434
442968506,442967401,1.8556495,-1.2520481,-13.140918
443013530,443012414,1.3645177,-0.20841478,-7.9516983
443063592,443062446,1.8170178,-0.77143335,-8.066942
443113538,443112479,1.9982764,-1.0557141,-10.059134
443168582,443167514,2.1453772,-1.4191773,-13.819417
443213606,443212544,1.9957886,-1.145853,-14.891129
443268705,443267579,1.9917752,-1.3287004,-15.584403
443313662,443312609,1.7880956,-0.9063727,-18.10342
443363715,443362641,1.7939726,0.043988917,-20.450144
443413724,443412677,1.7549561,0.90910405,-18.870953
443463765,443462706,1.5838774,0.8463675,-16.310904
443513820,443512747,1.6830381,1.5075752,-16.208076
443563814,443562776,1.5963447,1.9718695,-17.2925
443613874,443612806,1.6951423,1.2782042,-16.74713
443663879,443662836,1.8001685,0.7007959,-19.828775
443714007,443712868,1.6232443,0.4001425,-18.90247
443763965,443762901,1.6345146,0.9056597,-17.608843
443814126,443812933,1.8975593,0.40418082,-20.183762
443864005,443862967,2.0834498,-0.21566683,-18.365753
443914069,443913006,1.615814,-0.61228424,-17.721537
443964056,443963029,2.2230203,-1.9427625,-20.747051
444014133,444013093,2.678905,-2.9826808,-21.480005
444064171,444063128,2.4586422,-3.2216828,-22.02547
444114197,444113139,2.086447,-2.1745183,-20.994583
444164226,444163169,2.0431125,-1.2745928,-21.066368
444214228,444213190,1.8102005,-1.1657934,-19.622673
444264282,444263223,1.2613976,0.034016095,-14.949649
444314313,444313255,0.83008564,0.5160511,-14.226837
444364407,444363291,1.2155862,0.3159237,-17.010983
444414397,444413319,1.65584,0.5870727,-24.686611
444464452,444463357,1.377649,0.2821398,-24.300869
444514494,444513410,0.4980753,-0.85730857,-12.283144
444564633,444563415,0.65519756,-1.6056914,-8.774857
444614523,444613449,1.169642,-0.2733812,-13.113941
444664546,444663481,0.69183296,-0.581939,-7.211382
444714609,444713517,0.6825527,-1.2746745,-5.003856
444764621,444763543,0.6147787,-0.9751999,-4.7486305
444814663,444813577,1.2937998,-0.41916907,-6.582278
444864700,444863607,1.6571352,-0.6818739,-12.033721
444914726,444913639,1.8374944,-0.34679598,-16.8922
444964792,444963671,1.4964969,-0.0715794,-14.674503
445064778,445063734,1.3460652,1.4549645,-8.949252
445114820,445113766,1.5537274,-0.3719197,-9.784905
445164982,445163798,1.5597402,-0.4592945,-9.806988
445214890,445213842,1.2264569,-1.4531329,-7.521284
445264900,445263862,0.051574726,-0.5854329,1.9290379
445315106,445313893,1.0401088,1.5566876,-4.2437024
445365023,445363930,0.7940467,-0.06230638,-3.7037034
445415045,445413962,0.8708688,-0.6018588,-9.244505
445465036,445463989,1.2665967,0.09931442,-15.688957
445515125,445514077,1.1429441,0.76844573,-14.860239
445565102,445564052,1.6411881,-0.43223986,-13.790303
445615191,445614096,1.6587757,-0.11999456,-10.615207
445665318,445664116,1.7143524,-1.757185,-9.975922
445715218,445714147,1.8371575,-1.6347698,-10.356834
445765278,445764179,1.440288,-1.8937186,-10.8627205
445815261,445814210,0.8546186,-1.3028464,-7.7453017
445865394,445864245,1.0511116,-1.1215835,-8.880935
445915347,445914274,1.6406223,-0.3069838,-9.425854
445965335,445964303,1.0113864,0.48218352,-2.9198227
446015411,446014353,0.9083605,0.13971692,-3.0188978
446115460,446114402,1.0272369,1.3012956,-2.9381368
446165491,446164431,1.1615572,0.57207274,-6.9850893
446210538,446209459,1.6922691,0.04024555,-8.702781
446260598,446259491,0.90537465,0.54040754,-2.7859
446315615,446314532,0.96397674,0.5306973,-3.4646497
446360617,446359553,1.0697342,0.022367075,-4.9243884
446415680,446414610,1.1701097,0.0035414062,-10.628622
446465659,446464619,1.5402257,0.76899153,-13.623456
446515755,446514658,1.6988162,0.32308224,-11.8434515
446565719,446564682,1.8766725,-0.4278551,-11.007843
446610755,446609710,1.7731564,-1.3985186,-9.173268
446660786,446659741,1.5411806,-1.4973595,-9.61609
446710828,446709773,1.5386908,-1.3797572,-11.082315
446760875,446759803,1.7347176,-1.083578,-12.061855
446810958,446809847,1.6476154,-0.461138,-11.050065
446866001,446864870,1.5608039,-0.9504069,-11.922739
446910976,446909897,1.554533,-0.9512156,-12.407108
446966043,446964932,1.3923354,-0.93318117,-12.718326
447010993,447009959,1.5241419,-0.7758196,-12.224639
447061028,447059991,1.3200731,-0.073454216,-12.056807
447111108,447110051,1.2754498,-0.25889075,-11.565515
447161094,447160053,1.0365609,-0.2973208,-13.400578
447211115,447210084,1.090168,-0.49364403,-13.424156
447261183,447260123,0.81411076,-0.47245908,-10.045415
447311213,447310146,1.1123687,-0.61557317,-11.633571
447361452,447360178,1.0884598,-0.59461814,-11.441643
447411248,447410213,0.9012735,-0.72009814,-10.228928
447461311,447460239,1.0378685,-1.039448,-11.844384
447511580,447510271,0.7687179,-1.0504456,-12.153534
447561452,447560312,0.8945909,-0.6366447,-11.186776
447611364,447610332,1.0828284,-0.7317976,-12.204907
447661416,447660363,1.0735519,-0.9133709,-11.720882
447711520,447710400,0.7822612,-0.34855208,-12.124463
447761471,447760425,1.0878122,-0.8250692,-10.837365
447811600,447810461,1.0436056,-0.9793923,-10.420278
447861533,447860488,0.66254836,-0.22385618,-11.32744
447911615,447910537,0.92402536,-0.6338524,-11.397257
447961606,447960547,0.8058686,-1.0601475,-10.799307
448011640,448010579,0.73560214,-0.5080838,-10.538845
448061817,448060611,0.9139121,-0.50954825,-10.667952
448111783,448110641,0.9496219,-0.9939389,-10.098876
448161725,448160672,0.6885398,-0.79210573,-11.330786
448211757,448210703,0.8551599,-0.8340141,-11.47798
448261770,448260733,0.6964216,-0.7129238,-12.467563
448311803,448310764,0.43156034,-0.44035518,-11.19478
448361847,448360798,0.831607,-0.6468856,-9.974538
448411877,448410828,0.99682367,-0.7508914,-10.470014
448461901,448460856,0.798406,-0.7017579,-10.204355
448511983,448510887,0.6273371,-0.42476448,-10.449829
448561965,448560918,0.8264915,-0.52379,-10.886753
448612013,448610948,0.4022566,-0.25133982,-10.320655
448662103,448660979,0.66463035,-0.16230704,-9.591742
448712074,448711009,0.8186568,-0.3022837,-10.444679
448762120,448761040,0.4511013,-0.2585547,-12.825272
448812174,448811071,0.5293498,-0.5570793,-10.793032
448862132,448861101,0.7129919,-0.7732955,-11.565891
448912164,448911131,0.44202176,-0.7245338,-10.092346
448962449,448961197,0.59395516,-0.8136828,-10.765853
449012260,449011192,0.8436289,-1.0347646,-11.967748
449062297,449061223,0.5792507,-0.6481335,-14.024933
449112308,449111253,0.30800998,-0.16227123,-9.582026
449162321,449161283,0.3048765,-0.40940768,-6.5090313
449212607,449211315,0.24204287,-0.21273968,-9.590902
449262378,449261344,0.31953722,0.015821395,-9.847872
449312434,449311375,0.44475496,0.10744673,-8.842766
449362616,449361411,0.2276273,0.46189272,-8.753021
449462548,449461466,0.47759616,0.23835905,-8.9709
449512700,449511497,0.71201193,0.16490915,-10.575127
449562561,449561526,0.29571444,0.9537758,-12.275025
449612634,449611559,0.15811111,0.061206326,-11.095537
449662750,449661615,0.39537027,0.020031203,-10.007597
449712666,449711633,0.5021216,-0.059877396,-9.631165
449762849,449761674,0.65384555,-0.2707545,-9.521707
449812757,449811697,0.6632397,-0.99648887,-7.5583076
449862789,449861708,0.88531256,-1.0016408,-13.444551
449912776,449911738,0.8214625,-1.6887705,-12.325115
449962815,449961768,0.40530092,-2.783809,-9.912756
450012891,450011802,0.20850599,-1.1219704,-11.326481
450112932,450111858,0.108124465,0.2763747,-8.291746
450163015,450161891,0.17879003,-0.036493704,-9.828596
450213027,450211919,0.123076186,0.14653423,-10.081793
450263021,450261949,0.06360287,0.165921,-8.483563
450313052,450311980,-0.19034031,0.49222487,-8.190716
450363091,450362010,0.2975823,-0.029891133,-9.508873
450413079,450412039,0.09657262,-0.098605216,-10.54
450463167,450462071,0.071726836,-0.3904084,-10.864346
450513176,450512099,0.032558657,-0.5050167,-12.181172
450563208,450562129,0.13786718,-0.92255116,-11.583742
450613278,450612167,0.2580786,-1.203513,-13.436935
450663255,450662197,-0.10076803,-0.7798842,-11.93531
450713259,450712219,0.022730544,-0.7802199,-9.657603
450763287,450762249,0.2822528,-1.3297,-9.955874
450863342,450862308,-0.46891984,-0.25661945,-9.853441
450913373,450912338,-0.21923958,-0.4208761,-9.424604
450963427,450962368,-0.55509186,0.03477417,-8.724981
451013441,451012399,-0.2950905,-0.16589537,-9.588024
451063514,451062428,-0.23837164,-0.09605774,-8.961853
451113512,451112458,0.041191258,-0.47702962,-12.484356
451163571,451162489,0.07031016,-0.2955993,-14.70002
451213610,451212518,-0.0016539656,-0.49841332,-11.106493
451263677,451262558,-0.21364246,-0.48191315,-9.65384
451313622,451312577,-0.1917802,-0.5733409,-9.925314
451413668,451412636,-0.5048647,-0.16484691,-8.845415
451463735,451462701,-0.2882391,0.20375794,-8.675381
451513785,451512725,-0.14916503,-0.1407845,-9.656726
451563784,451562752,-0.12993592,-0.32444546,-9.141179
451613827,451612755,-0.39382145,-0.09943651,-7.4949846
451663825,451662785,-0.3473299,-0.06467424,-9.420891
451713851,451712814,-0.39122766,-0.41783997,-7.6201825
451763927,451762844,-0.15839788,-0.29468414,-7.6610804
451813932,451812873,0.14663169,-0.007769257,-9.664831
451863940,451862903,0.04811506,-0.6508014,-10.540009
451914134,451912933,-0.17814991,-0.6823597,-10.724646
451964000,451962962,-0.2715332,-0.1767248,-10.274517
452014084,452012999,-0.14431801,0.08716876,-8.927993
452064081,452063029,-0.2802682,-0.12764546,-9.709943
452114087,452113050,-0.5010754,-0.30794993,-9.170752
452164183,452163090,-0.5206598,0.18529382,-9.224877
452214178,452213109,-0.23855639,0.005783569,-9.8352375
452264217,452263138,-0.4790517,0.205803,-9.383323
452314249,452313169,-0.5698164,0.31359655,-6.7685213
452364200,452363193,-0.22305419,-0.33528632,-7.656758
452414344,452413229,-0.36552843,-0.16509545,-9.245613
452464395,452463256,-0.46869755,-0.31026408,-12.184487
452514323,452513285,0.028128248,-0.45263663,-12.871368
452564564,452563315,-0.18553537,-0.77952015,-12.617392
452614378,452613344,-0.45801413,-0.8338977,-11.280116
452664451,452663394,-0.17467782,-0.84388727,-9.041598
452714451,452713403,-0.088896945,-0.9931449,-9.000292
452764522,452763432,-0.46143278,-0.18598649,-10.247578
452814560,452813464,-0.34994298,-0.6088696,-8.595135
452864682,452863491,-0.4237144,-0.18195026,-8.8717785
452914565,452913520,-0.41921675,0.33373684,-8.943894
452964598,452963550,-0.18829028,0.5447801,-9.12291
453014643,453013579,-0.30233845,-0.02850401,-10.419687
453064651,453063608,-0.31260532,0.44257393,-9.962605
453114838,453113638,-0.18452643,-0.07176927,-8.770718
453164705,453163666,0.057893068,-0.51460195,-9.4292145
453214785,453213723,-0.11182122,-0.06352411,-9.44615
453264771,453263740,-0.2360441,-0.45908785,-9.397682
453314806,453313761,-0.27676237,-0.9373203,-10.434947
453364821,453363782,-0.59087884,-0.34053665,-9.946671
453414865,453413812,-0.48979366,-0.73296183,-9.3959255
453464879,453463840,-0.20745794,-0.34570453,-10.810621
453514913,453513870,-0.1923635,-0.3374745,-10.765455
453564936,453563899,-0.16427544,-0.035952922,-9.357363
453614975,453613931,-0.07138379,-0.33710548,-9.426725
453665012,453663957,-0.22870964,0.45291492,-9.866537
453715023,453713986,-0.19905809,0.03306471,-9.323121
453765086,453764015,0.12195335,-0.07471517,-9.292162
453865145,453864073,-0.28106543,-0.15354553,-9.810341
453915180,453914104,0.05168774,-0.67360175,-9.364946
453965211,453964131,-0.3175195,-0.16215411,-9.470497
454015233,454014160,-0.2263299,-0.4958974,-9.838138
454065296,454064197,-0.08493165,-0.97978026,-9.764872
454115311,454114218,-0.36797673,-0.80537975,-9.732813
454165278,454164246,-0.5409218,-0.7360555,-8.859873
454215315,454214275,-0.2737523,-0.97255635,-8.631576
454265349,454264305,-0.13404149,-0.48876587,-7.703274
454315367,454314333,-0.12848248,-0.5020503,-7.6553183
454365420,454364364,0.08274694,-1.0395664,-8.029341
454465462,454464419,-0.42820168,-0.3130381,-9.180409
454515527,454514448,-0.27634782,-0.544122,-8.94471
454565528,454564477,-0.14897911,-0.15316111,-8.855892
454615560,454614506,-0.045086697,-0.53323257,-9.454619
454665591,454664535,-0.2615391,-0.8828677,-10.638585
454715655,454714563,-0.14869234,-0.23699641,-9.367945
454765764,454764589,0.3639971,-0.6250405,-9.465564
454810748,454809618,0.20116234,-0.76212543,-9.395411
454865676,454864649,-0.07406497,-0.36051995,-9.047459
454910765,454909672,0.0032023117,-0.55436367,-9.665303
454965761,454964729,-0.1899965,-0.39074862,-10.996502
455015774,455014742,-0.25411147,-0.5203363,-9.757886
455065845,455064764,-0.10705696,-1.0362562,-8.948771
455115879,455114796,-0.27033132,-0.66692734,-10.931352
455165877,455164821,0.14439431,-0.79223925,-10.123613
455211005,455209849,0.14750843,-0.69331354,-9.488384
455265949,455264878,-0.21279895,-0.51456594,-9.622807
455311083,455309915,-0.23306477,-0.780684,-8.8360615
455360978,455359928,-0.09809724,-0.54071814,-8.312919
455416001,455414963,-0.2949104,0.25214565,-8.7156725
