timestamp,timestamp_last_signal,rssi,rc_lost_frame_count,rc_total_frame_count,rc_ppm_frame_length,values[0],values[1],values[2],values[3],values[4],values[5],values[6],values[7],values[8],values[9],values[10],values[11],values[12],values[13],values[14],values[15],values[16],values[17],channel_count,rc_failsafe,rc_lost,input_source
394701447,394701447,43,0,0,16350,1517,1605,1107,1523,2074,1011,1002,1002,0,0,0,0,0,0,0,0,0,0,8,0,0,2
395221933,395221933,43,0,0,16350,1517,1605,1107,1524,2073,1011,1002,1002,0,0,0,0,0,0,0,0,0,0,8,0,0,2
395706101,395706101,42,0,0,16351,1518,1604,1107,1524,2074,1010,1002,1002,0,0,0,0,0,0,0,0,0,0,8,0,0,2
396206218,396206218,42,0,0,16351,1518,1604,1107,1524,2074,1010,1002,1002,0,0,0,0,0,0,0,0,0,0,8,0,0,2
396706932,396706932,42,0,0,16350,1517,1605,1106,1524,2074,1011,1002,1002,0,0,0,0,0,0,0,0,0,0,8,0,0,2
397202854,397202854,42,0,0,16351,1517,1605,1107,1524,2073,1011,1002,1002,0,0,0,0,0,0,0,0,0,0,8,0,0,2
397693172,397693172,42,0,0,16350,1518,1604,1107,1524,2074,1010,1002,1002,0,0,0,0,0,0,0,0,0,0,8,0,0,2
398197817,398197817,42,0,0,16351,1517,1605,1106,1524,2074,1011,1002,1002,0,0,0,0,0,0,0,0,0,0,8,0,0,2
398698290,398698290,43,0,0,16350,1517,1605,1107,1523,2074,1011,1002,1002,0,0,0,0,0,0,0,0,0,0,8,0,0,2
399199493,399199493,43,0,0,16350,1517,1605,1106,1524,2074,1011,1002,1002,0,0,0,0,0,0,0,0,0,0,8,0,0,2
399704912,399704912,43,0,0,16350,1517,1605,1106,1524,2074,1011,1002,1002,0,0,0,0,0,0,0,0,0,0,8,0,0,2
400199366,400199366,43,0,0,16350,1518,1604,1107,1524,2074,1010,1002,1002,0,0,0,0,0,0,0,0,0,0,8,0,0,2
400705752,400705752,43,0,0,16350,1517,1605,1107,1524,2073,1011,1002,1002,0,0,0,0,0,0,0,0,0,0,8,0,0,2
401206323,401206323,43,0,0,16351,1517,1605,1106,1524,2074,1011,1002,1002,0,0,0,0,0,0,0,0,0,0,8,0,0,2
401700722,401700722,43,0,0,16350,1517,1605,1107,1523,2074,1011,1002,1002,0,0,0,0,0,0,0,0,0,0,8,0,0,2
402211038,402211038,42,0,0,16350,1517,1605,1107,1524,2073,1011,1002,1002,0,0,0,0,0,0,0,0,0,0,8,0,0,2
402701577,402701577,42,0,0,16350,1517,1605,1106,1524,2074,1010,1003,1002,0,0,0,0,0,0,0,0,0,0,8,0,0,2
403207782,403207782,42,0,0,16350,1517,1605,1106,1524,2074,1011,1002,1002,0,0,0,0,0,0,0,0,0,0,8,0,0,2
403712508,403712508,42,0,0,16350,1518,1604,1107,1524,2073,1011,1002,1002,0,0,0,0,0,0,0,0,0,0,8,0,0,2
404202661,404202661,42,0,0,16350,1518,1604,1107,1524,2074,1010,1002,1002,0,0,0,0,0,0,0,0,0,0,8,0,0,2
404693112,404693112,42,0,0,16350,1518,1604,1107,1524,2074,1010,1002,1003,0,0,0,0,0,0,0,0,0,0,8,0,0,2
405203625,405203625,42,0,0,16350,1517,1605,1107,1523,2074,1011,1002,1002,0,0,0,0,0,0,0,0,0,0,8,0,0,2
405699886,405699886,42,0,0,16350,1517,1605,1107,1524,2073,1011,1002,1002,0,0,0,0,0,0,0,0,0,0,8,0,0,2
406204331,406204331,42,0,0,16350,1518,1604,1107,1524,2074,1010,1002,1002,0,0,0,0,0,0,0,0,0,0,8,0,0,2
406715594,406715594,42,0,0,16350,1517,1604,1107,1524,2074,1010,1002,1003,0,0,0,0,0,0,0,0,0,0,8,0,0,2
407205231,407205231,42,0,0,16350,1517,1605,1107,1524,2073,1011,1002,1002,0,0,0,0,0,0,0,0,0,0,8,0,0,2
407695796,407695796,42,0,0,16351,1518,1604,1107,1524,2074,1010,1002,1002,0,0,0,0,0,0,0,0,0,0,8,0,0,2
408201922,408201922,42,0,0,16351,1518,1604,1107,1524,2074,1010,1003,1002,0,0,0,0,0,0,0,0,0,0,8,0,0,2
408706331,408706331,42,0,0,16351,1518,1605,1106,1524,2074,1011,1002,1002,0,0,0,0,0,0,0,0,0,0,8,0,0,2
409196902,409196902,42,0,0,16351,1518,1605,1106,1524,2074,1011,1002,1002,0,0,0,0,0,0,0,0,0,0,8,0,0,2
409697141,409697141,42,0,0,16350,1518,1605,1107,1523,2074,1011,1002,1002,0,0,0,0,0,0,0,0,0,0,8,0,0,2
410197643,410197643,42,0,0,16350,1516,1605,1107,1524,2073,1011,1002,1002,0,0,0,0,0,0,0,0,0,0,8,0,0,2
410708307,410708307,42,0,0,16350,1517,1604,1107,1524,2074,1011,1002,1002,0,0,0,0,0,0,0,0,0,0,8,0,0,2
411204296,411204296,42,0,0,16350,1517,1604,1107,1524,2074,1011,1002,1002,0,0,0,0,0,0,0,0,0,0,8,0,0,2
411704717,411704717,42,0,0,16350,1517,1605,1106,1524,2074,1011,1002,1002,0,0,0,0,0,0,0,0,0,0,8,0,0,2
412209348,412209348,42,0,0,16349,1516,1605,1107,1524,2073,1011,1002,1002,0,0,0,0,0,0,0,0,0,0,8,0,0,2
412705561,412705561,42,0,0,16349,1517,1605,1107,1523,2074,1011,1002,1002,0,0,0,0,0,0,0,0,0,0,8,0,0,2
413205808,413205808,42,0,0,16351,1518,1604,1107,1524,2074,1010,1002,1002,0,0,0,0,0,0,0,0,0,0,8,0,0,2
413700771,413700771,42,0,0,16437,1517,1692,1106,1524,2074,1011,1002,1002,0,0,0,0,0,0,0,0,0,0,8,0,0,2
414210812,414210812,42,0,0,16236,1517,1491,1107,1524,2073,1011,1002,1002,0,0,0,0,0,0,0,0,0,0,8,0,0,2
414707074,414707074,42,0,0,16374,1542,1603,1107,1524,2074,1010,1002,1002,0,0,0,0,0,0,0,0,0,0,8,0,0,2
415207629,415207629,42,0,0,16396,1565,1603,1106,1524,2074,1011,1002,1002,0,0,0,0,0,0,0,0,0,0,8,0,0,2
415712052,415712052,42,0,0,16351,1519,1604,1106,1524,2074,1010,1003,1002,0,0,0,0,0,0,0,0,0,0,8,0,0,2
416698901,416698901,42,0,0,16505,1672,1604,1107,1524,2074,1010,1002,1002,0,0,0,0,0,0,0,0,0,0,8,0,0,2
417199229,417199229,42,0,0,16208,1376,1604,1106,1524,2074,1011,1002,1002,0,0,0,0,0,0,0,0,0,0,8,0,0,2
417693715,417693715,42,0,0,16350,1518,1604,1106,1524,2074,1011,1002,1002,0,0,0,0,0,0,0,0,0,0,8,0,0,2
418214123,418214123,42,0,0,16350,1517,1604,1107,1524,2074,1010,1002,1002,0,0,0,0,0,0,0,0,0,0,8,0,0,2
418704851,418704851,42,0,0,16350,1517,1604,1107,1524,2074,1010,1002,1002,0,0,0,0,0,0,0,0,0,0,8,0,0,2
419214986,419214986,42,0,0,16350,1517,1604,1107,1524,2074,1010,1002,1002,0,0,0,0,0,0,0,0,0,0,8,0,0,2
419711272,419711272,42,0,0,16351,1517,1604,1107,1527,2074,1011,1002,1002,0,0,0,0,0,0,0,0,0,0,8,0,0,2
420202291,420202291,42,0,0,16343,1517,1604,1107,1490,2074,1011,1002,1002,0,0,0,0,0,0,0,0,0,0,8,0,0,2
420702102,420702102,42,0,0,16347,1517,1604,1107,1522,2074,1010,1003,1002,0,0,0,0,0,0,0,0,0,0,8,0,0,2
421186953,421186953,42,0,0,16349,1517,1604,1107,1524,2073,1011,1002,1002,0,0,0,0,0,0,0,0,0,0,8,0,0,2
421693491,421693491,42,0,0,16315,1518,1604,1106,1489,2074,1010,1002,1002,0,0,0,0,0,0,0,0,0,0,8,0,0,2
422203141,422203141,42,0,0,16273,1517,1604,1107,1447,2074,1010,1002,1003,0,0,0,0,0,0,0,0,0,0,8,0,0,2
422713581,422713581,42,0,0,16348,1517,1604,1107,1522,2074,1011,1002,1002,0,0,0,0,0,0,0,0,0,0,8,0,0,2
423208584,423208584,42,0,0,16496,1517,1604,1107,1672,2074,1011,1002,1002,0,0,0,0,0,0,0,0,0,0,8,0,0,2
423698581,423698581,42,0,0,16351,1517,1604,1107,1525,2074,1011,1002,1002,0,0,0,0,0,0,0,0,0,0,8,0,0,2
424209216,424209216,42,0,0,16468,1517,1604,1222,1527,2074,1010,1002,1002,0,0,0,0,0,0,0,0,0,0,8,0,0,2
424706001,424706001,42,0,0,16500,1518,1604,1255,1526,2073,1011,1002,1002,0,0,0,0,0,0,0,0,0,0,8,0,0,2
425196584,425196584,42,0,0,16562,1517,1604,1318,1525,2074,1011,1002,1002,0,0,0,0,0,0,0,0,0,0,8,0,0,2
425696554,425696554,42,0,0,16592,1517,1605,1348,1524,2074,1010,1003,1002,0,0,0,0,0,0,0,0,0,0,8,0,0,2
426197128,426197128,42,0,0,16668,1517,1604,1377,1575,2074,1011,1002,1002,0,0,0,0,0,0,0,0,0,0,8,0,0,2
426711177,426711177,42,0,0,16798,1517,1604,1509,1570,2074,1011,1002,1002,0,0,0,0,0,0,0,0,0,0,8,0,0,2
427207366,427207366,42,0,0,16850,1517,1630,1578,1528,2073,1011,1002,1002,0,0,0,0,0,0,0,0,0,0,8,0,0,2
427701997,427701997,42,0,0,17033,1517,1713,1680,1525,2074,1010,1002,1003,0,0,0,0,0,0,0,0,0,0,8,0,0,2
428212181,428212181,42,0,0,17048,1515,1702,1681,1525,2074,1011,1002,1002,0,0,0,0,0,0,0,0,0,0,8,0,0,2
428708585,428708585,42,0,0,16893,1483,1606,1682,1525,2073,1011,1002,1002,0,0,0,0,0,0,0,0,0,0,8,0,0,2
429193182,429193182,42,0,0,16836,1430,1603,1680,1525,2074,1010,1003,1002,0,0,0,0,0,0,0,0,0,0,8,0,0,2
429704764,429704764,42,0,0,16803,1456,1603,1623,1525,2074,1010,1002,1003,0,0,0,0,0,0,0,0,0,0,8,0,0,2
430213774,430213774,42,0,0,16784,1459,1580,1622,1525,2074,1010,1002,1002,0,0,0,0,0,0,0,0,0,0,8,0,0,2
430695006,430695006,42,0,0,16775,1479,1551,1623,1524,2074,1010,1002,1003,0,0,0,0,0,0,0,0,0,0,8,0,0,2
431714842,431714842,42,0,0,16896,1517,1636,1622,1525,2074,1010,1003,1002,0,0,0,0,0,0,0,0,0,0,8,0,0,2
432205194,432205194,42,0,0,16910,1525,1640,1623,1525,2073,1011,1002,1002,0,0,0,0,0,0,0,0,0,0,8,0,0,2
432696483,432696483,42,0,0,16882,1490,1641,1623,1524,2074,1011,1002,1002,0,0,0,0,0,0,0,0,0,0,8,0,0,2
433186079,433186079,42,0,0,16913,1500,1667,1623,1525,2074,1011,1002,1002,0,0,0,0,0,0,0,0,0,0,8,0,0,2
433692222,433692222,42,0,0,16984,1478,1685,1699,1524,2074,1010,1003,1002,0,0,0,0,0,0,0,0,0,0,8,0,0,2
434208126,434208126,42,0,0,16916,1444,1645,1699,1524,2074,1010,1003,1002,0,0,0,0,0,0,0,0,0,0,8,0,0,2
434703162,434703162,42,0,0,16911,1445,1647,1697,1525,2073,1011,1002,1002,0,0,0,0,0,0,0,0,0,0,8,0,0,2
435208932,435208932,42,0,0,16935,1443,1675,1698,1524,2074,1011,1002,1002,0,0,0,0,0,0,0,0,0,0,8,0,0,2
435698192,435698192,42,0,0,17002,1454,1728,1698,1525,2073,1011,1002,1002,0,0,0,0,0,0,0,0,0,0,8,0,0,2
436208171,436208171,42,0,0,17096,1500,1762,1712,1524,2074,1011,1002,1002,0,0,0,0,0,0,0,0,0,0,8,0,0,2
436714425,436714425,42,0,0,17262,1517,1844,1716,1587,2074,1011,1002,1002,0,0,0,0,0,0,0,0,0,0,8,0,0,2
437199610,437199610,42,0,0,17175,1510,1764,1716,1587,2074,1011,1002,1002,0,0,0,0,0,0,0,0,0,0,8,0,0,2
437689406,437689406,42,0,0,16940,1470,1610,1680,1583,2073,1011,1002,1002,0,0,0,0,0,0,0,0,0,0,8,0,0,2
438211185,438211185,42,0,0,17034,1517,1690,1654,1576,2073,1011,1002,1002,0,0,0,0,0,0,0,0,0,0,8,0,0,2
438709842,438709842,42,0,0,17073,1546,1712,1654,1564,2073,1011,1002,1002,0,0,0,0,0,0,0,0,0,0,8,0,0,2
439196459,439196459,42,0,0,17073,1518,1742,1654,1561,2074,1011,1002,1002,0,0,0,0,0,0,0,0,0,0,8,0,0,2
439691528,439691528,42,0,0,17073,1518,1742,1654,1561,2074,1010,1002,1003,0,0,0,0,0,0,0,0,0,0,8,0,0,2
440191695,440191695,42,0,0,16529,1518,1742,1109,1562,2074,1010,1002,1002,0,0,0,0,0,0,0,0,0,0,8,0,0,2
440707225,440707225,42,0,0,16528,1518,1742,1109,1562,2073,1011,1002,1002,0,0,0,0,0,0,0,0,0,0,8,0,0,2
441207859,441207859,42,0,0,16528,1518,1742,1109,1562,2073,1011,1002,1002,0,0,0,0,0,0,0,0,0,0,8,0,0,2
441712629,441712629,42,0,0,16529,1518,1742,1109,1562,2074,1010,1002,1002,0,0,0,0,0,0,0,0,0,0,8,0,0,2
442203075,442203075,42,0,0,16864,1327,1732,1681,1527,2073,1011,1002,1002,0,0,0,0,0,0,0,0,0,0,8,0,0,2
442708985,442708985,42,0,0,16842,1309,1728,1681,1527,2073,1011,1002,1002,0,0,0,0,0,0,0,0,0,0,8,0,0,2
443214424,443214424,42,0,0,17123,1560,1757,1682,1527,2073,1011,1002,1002,0,0,0,0,0,0,0,0,0,0,8,0,0,2
443703492,443703492,42,0,0,17104,1512,1786,1682,1527,2073,1011,1002,1002,0,0,0,0,0,0,0,0,0,0,8,0,0,2
444209976,444209976,42,0,0,17066,1502,1759,1681,1527,2073,1010,1002,1002,0,0,0,0,0,0,0,0,0,0,8,0,0,2
444709633,444709633,42,0,0,16917,1480,1662,1651,1526,2074,1011,1002,1002,0,0,0,0,0,0,0,0,0,0,8,0,0,2
445200348,445200348,42,0,0,16881,1485,1624,1650,1526,2074,1010,1002,1002,0,0,0,0,0,0,0,0,0,0,8,0,0,2
445715276,445715276,42,0,0,16923,1500,1649,1649,1527,2073,1011,1002,1002,0,0,0,0,0,0,0,0,0,0,8,0,0,2
446200662,446200662,42,0,0,16965,1475,1683,1683,1526,2074,1010,1002,1003,0,0,0,0,0,0,0,0,0,0,8,0,0,2
446710995,446710995,42,0,0,17047,1469,1765,1681,1527,2074,1010,1002,1002,0,0,0,0,0,0,0,0,0,0,8,0,0,2
447187030,447187030,42,0,0,17011,1466,1740,1681,1527,2073,1011,1002,1002,0,0,0,0,0,0,0,0,0,0,8,0,0,2
447702851,447702851,42,0,0,17037,1483,1749,1681,1527,2074,1010,1002,1002,0,0,0,0,0,0,0,0,0,0,8,0,0,2
448212548,448212548,42,0,0,17022,1470,1746,1682,1527,2073,1011,1002,1002,0,0,0,0,0,0,0,0,0,0,8,0,0,2
448682818,448682818,42,0,0,17075,1488,1782,1681,1526,2074,1011,1002,1002,0,0,0,0,0,0,0,0,0,0,8,0,0,2
449197004,449197004,42,0,0,17046,1538,1703,1681,1528,2073,1011,1002,1002,0,0,0,0,0,0,0,0,0,0,8,0,0,2
449697733,449697733,42,0,0,16932,1459,1668,1682,1526,2073,1011,1002,1002,0,0,0,0,0,0,0,0,0,0,8,0,0,2
450208105,450208105,42,0,0,16967,1498,1665,1681,1527,2074,1011,1002,1002,0,0,0,0,0,0,0,0,0,0,8,0,0,2
450707839,450707839,42,0,0,16986,1499,1680,1682,1527,2074,1010,1002,1003,0,0,0,0,0,0,0,0,0,0,8,0,0,2
451189156,451189156,42,0,0,16967,1494,1667,1682,1526,2074,1011,1002,1002,0,0,0,0,0,0,0,0,0,0,8,0,0,2
451688166,451688166,42,0,0,16986,1505,1676,1682,1526,2073,1011,1002,1002,0,0,0,0,0,0,0,0,0,0,8,0,0,2
452199895,452199895,42,0,0,16995,1502,1688,1682,1526,2074,1010,1002,1002,0,0,0,0,0,0,0,0,0,0,8,0,0,2
452714472,452714472,42,0,0,16985,1492,1688,1681,1527,2073,1011,1002,1002,0,0,0,0,0,0,0,0,0,0,8,0,0,2
453199784,453199784,42,0,0,16976,1497,1673,1681,1527,2074,1010,1002,1002,0,0,0,0,0,0,0,0,0,0,8,0,0,2
453705179,453705179,42,0,0,16937,1461,1670,1682,1526,2074,1010,1002,1003,0,0,0,0,0,0,0,0,0,0,8,0,0,2
454200529,454200529,42,0,0,16937,1451,1681,1681,1527,2073,1011,1002,1002,0,0,0,0,0,0,0,0,0,0,8,0,0,2
454710071,454710071,42,0,0,16935,1449,1681,1681,1527,2073,1011,1002,1002,0,0,0,0,0,0,0,0,0,0,8,0,0,2
455195905,455195905,42,0,0,16944,1441,1700,1680,1526,2074,1010,1002,1003,0,0,0,0,0,0,0,0,0,0,8,0,0,2
455691355,455691355,42,0,0,17072,1485,1784,1681,1526,2074,1011,1002,1002,0,0,0,0,0,0,0,0,0,0,8,0,0,2
456210754,456210754,42,0,0,17017,1494,1747,1650,1527,2073,1011,1002,1002,0,0,0,0,0,0,0,0,0,0,8,0,0,2
456711139,456711139,42,0,0,17098,1505,1817,1652,1526,2074,1011,1002,1002,0,0,0,0,0,0,0,0,0,0,8,0,0,2
457212247,457212247,42,0,0,17222,1506,1889,1716,1526,2074,1010,1002,1003,0,0,0,0,0,0,0,0,0,0,8,0,0,2
457692433,457692433,42,0,0,17125,1464,1832,1715,1527,2073,1011,1002,1002,0,0,0,0,0,0,0,0,0,0,8,0,0,2
458211766,458211766,42,0,0,17017,1451,1730,1712,1527,2073,1011,1002,1002,0,0,0,0,0,0,0,0,0,0,8,0,0,2
458693013,458693013,42,0,0,17060,1528,1728,1680,1527,2073,1011,1002,1002,0,0,0,0,0,0,0,0,0,0,8,0,0,2
459202719,459202719,42,0,0,16981,1503,1705,1651,1527,2074,1010,1002,1002,0,0,0,0,0,0,0,0,0,0,8,0,0,2
459713453,459713453,42,0,0,16814,1519,1614,1556,1528,2073,1011,1002,1002,0,0,0,0,0,0,0,0,0,0,8,0,0,2
460213001,460213001,42,0,0,16810,1496,1639,1558,1526,2074,1010,1002,1002,0,0,0,0,0,0,0,0,0,0,8,0,0,2
460713197,460713197,42,0,0,16795,1437,1665,1557,1526,2073,1011,1002,1002,0,0,0,0,0,0,0,0,0,0,8,0,0,2
461214308,461214308,42,0,0,16798,1458,1743,1474,1525,2074,1010,1002,1003,0,0,0,0,0,0,0,0,0,0,8,0,0,2
461704714,461704714,42,0,0,16831,1452,1788,1468,1525,2074,1010,1003,1002,0,0,0,0,0,0,0,0,0,0,8,0,0,2
462205588,462205588,42,0,0,16819,1439,1786,1471,1525,2074,1011,1002,1002,0,0,0,0,0,0,0,0,0,0,8,0,0,2
462704368,462704368,42,0,0,16863,1516,1755,1472,1526,2074,1010,1002,1003,0,0,0,0,0,0,0,0,0,0,8,0,0,2
463204485,463204485,42,0,0,16788,1518,1680,1472,1526,2073,1011,1002,1002,0,0,0,0,0,0,0,0,0,0,8,0,0,2
463714921,463714921,42,0,0,16741,1519,1632,1466,1527,2074,1010,1002,1002,0,0,0,0,0,0,0,0,0,0,8,0,0,2
464205896,464205896,42,0,0,16802,1482,1726,1470,1526,2074,1010,1002,1002,0,0,0,0,0,0,0,0,0,0,8,0,0,2
464701766,464701766,42,0,0,16783,1449,1717,1503,1526,2074,1011,1002,1002,0,0,0,0,0,0,0,0,0,0,8,0,0,2
465201053,465201053,42,0,0,16876,1490,1730,1532,1525,2074,1011,1002,1002,0,0,0,0,0,0,0,0,0,0,8,0,0,2
465697010,465697010,42,0,0,16941,1516,1767,1534,1526,2074,1010,1002,1003,0,0,0,0,0,0,0,0,0,0,8,0,0,2
466196288,466196288,42,0,0,16874,1540,1679,1532,1526,2073,1011,1002,1002,0,0,0,0,0,0,0,0,0,0,8,0,0,2
466706338,466706338,42,0,0,16966,1518,1792,1532,1527,2074,1010,1002,1002,0,0,0,0,0,0,0,0,0,0,8,0,0,2
467212824,467212824,42,0,0,16763,1440,1662,1530,1527,2073,1011,1002,1002,0,0,0,0,0,0,0,0,0,0,8,0,0,2
467707001,467707001,42,0,0,16739,1519,1628,1468,1526,2074,1010,1002,1002,0,0,0,0,0,0,0,0,0,0,8,0,0,2
468203159,468203159,42,0,0,16647,1423,1633,1468,1527,2073,1011,1002,1002,0,0,0,0,0,0,0,0,0,0,8,0,0,2
468708321,468708321,42,0,0,16673,1543,1602,1405,1525,2074,1011,1002,1002,0,0,0,0,0,0,0,0,0,0,8,0,0,2
469194284,469194284,42,0,0,16579,1518,1593,1344,1526,2074,1010,1002,1002,0,0,0,0,0,0,0,0,0,0,8,0,0,2
469709040,469709040,42,0,0,16726,1517,1741,1345,1525,2074,1011,1002,1002,0,0,0,0,0,0,0,0,0,0,8,0,0,2
470208223,470208223,42,0,0,16735,1517,1743,1344,1526,2074,1010,1002,1002,0,0,0,0,0,0,0,0,0,0,8,0,0,2
470714477,470714477,42,0,0,16567,1484,1632,1344,1526,2073,1011,1002,1002,0,0,0,0,0,0,0,0,0,0,8,0,0,2
471189244,471189244,42,0,0,16386,1283,1636,1344,1526,2073,1011,1002,1002,0,0,0,0,0,0,0,0,0,0,8,0,0,2
471715070,471715070,42,0,0,16625,1517,1641,1344,1526,2073,1011,1002,1002,0,0,0,0,0,0,0,0,0,0,8,0,0,2
472210240,472210240,42,0,0,16552,1451,1634,1344,1526,2073,1011,1002,1002,0,0,0,0,0,0,0,0,0,0,8,0,0,2
472700531,472700531,42,0,0,16609,1526,1615,1344,1527,2073,1011,1002,1002,0,0,0,0,0,0,0,0,0,0,8,0,0,2
473200214,473200214,42,0,0,16620,1519,1631,1344,1526,2074,1010,1002,1002,0,0,0,0,0,0,0,0,0,0,8,0,0,2
473706095,473706095,42,0,0,16585,1476,1640,1346,1525,2074,1011,1002,1002,0,0,0,0,0,0,0,0,0,0,8,0,0,2
474210438,474210438,42,0,0,16645,1516,1661,1345,1526,2073,1011,1002,1002,0,0,0,0,0,0,0,0,0,0,8,0,0,2
474700598,474700598,42,0,0,16338,1449,1658,1108,1525,2074,1011,1002,1002,0,0,0,0,0,0,0,0,0,0,8,0,0,2
475207900,475207900,42,0,0,16465,1491,1744,1108,1525,2074,1011,1002,1002,0,0,0,0,0,0,0,0,0,0,8,0,0,2
475702645,475702645,42,0,0,16508,1480,1797,1108,1525,2074,1011,1002,1002,0,0,0,0,0,0,0,0,0,0,8,0,0,2
476181669,476181669,42,0,0,16341,1449,1665,1109,1525,2074,1010,1002,1002,0,0,0,0,0,0,0,0,0,0,8,0,0,2
476707743,476707743,42,0,0,16731,1475,1660,1474,1525,2074,1010,1002,1002,0,0,0,0,0,0,0,0,0,0,8,0,0,2
477202857,477202857,42,0,0,16847,1417,1658,1650,1525,2074,1010,1002,1002,0,0,0,0,0,0,0,0,0,0,8,0,0,2
477713022,477713022,42,0,0,16793,1491,1529,1652,1525,2073,1011,1002,1002,0,0,0,0,0,0,0,0,0,0,8,0,0,2
478213453,478213453,42,0,0,16846,1514,1554,1651,1525,2073,1011,1002,1002,0,0,0,0,0,0,0,0,0,0,8,0,0,2
478712674,478712674,42,0,0,16827,1454,1600,1650,1525,2074,1011,1002,1002,0,0,0,0,0,0,0,0,0,0,8,0,0,2
479193238,479193238,42,0,0,16858,1443,1642,1651,1525,2074,1010,1002,1002,0,0,0,0,0,0,0,0,0,0,8,0,0,2
479714142,479714142,42,0,0,16858,1427,1658,1650,1525,2074,1010,1002,1002,0,0,0,0,0,0,0,0,0,0,8,0,0,2
480214418,480214418,42,0,0,16975,1447,1755,1650,1525,2074,1010,1002,1002,0,0,0,0,0,0,0,0,0,0,8,0,0,2
480714039,480714039,42,0,0,16913,1403,1737,1651,1524,2074,1011,1002,1002,0,0,0,0,0,0,0,0,0,0,8,0,0,2
481195483,481195483,42,0,0,17050,1469,1810,1653,1525,2074,1011,1002,1002,0,0,0,0,0,0,0,0,0,0,8,0,0,2
481715228,481715228,42,0,0,17002,1477,1748,1650,1524,2074,1011,1002,1002,0,0,0,0,0,0,0,0,0,0,8,0,0,2
482210314,482210314,42,0,0,16960,1513,1706,1619,1525,2074,1010,1002,1003,0,0,0,0,0,0,0,0,0,0,8,0,0,2
482695685,482695685,42,0,0,16952,1507,1703,1620,1524,2074,1011,1002,1002,0,0,0,0,0,0,0,0,0,0,8,0,0,2
483211262,483211262,42,0,0,16862,1505,1615,1620,1525,2074,1010,1002,1002,0,0,0,0,0,0,0,0,0,0,8,0,0,2
483715504,483715504,42,0,0,16723,1518,1461,1621,1525,2073,1011,1002,1002,0,0,0,0,0,0,0,0,0,0,8,0,0,2
484205591,484205591,42,0,0,16877,1518,1618,1623,1525,2074,1010,1002,1002,0,0,0,0,0,0,0,0,0,0,8,0,0,2
484701766,484701766,42,0,0,16854,1511,1599,1623,1525,2074,1010,1003,1002,0,0,0,0,0,0,0,0,0,0,8,0,0,2
485192255,485192255,42,0,0,16846,1501,1625,1598,1525,2074,1011,1002,1002,0,0,0,0,0,0,0,0,0,0,8,0,0,2
485707142,485707142,42,0,0,16971,1483,1743,1623,1524,2074,1010,1003,1002,0,0,0,0,0,0,0,0,0,0,8,0,0,2
486192566,486192566,42,0,0,16892,1435,1715,1623,1525,2073,1011,1002,1002,0,0,0,0,0,0,0,0,0,0,8,0,0,2
486697632,486697632,42,0,0,16882,1450,1688,1622,1525,2073,1011,1002,1002,0,0,0,0,0,0,0,0,0,0,8,0,0,2
487212414,487212414,42,0,0,16851,1446,1663,1623,1524,2074,1010,1002,1002,0,0,0,0,0,0,0,0,0,0,8,0,0,2
487698172,487698172,42,0,0,16880,1479,1658,1621,1524,2074,1011,1002,1002,0,0,0,0,0,0,0,0,0,0,8,0,0,2
488213295,488213295,42,0,0,16843,1458,1643,1623,1524,2074,1010,1003,1002,0,0,0,0,0,0,0,0,0,0,8,0,0,2
488713860,488713860,42,0,0,16853,1451,1658,1622,1525,2074,1010,1002,1002,0,0,0,0,0,0,0,0,0,0,8,0,0,2
489208126,489208126,42,0,0,16900,1499,1658,1622,1525,2074,1011,1002,1002,0,0,0,0,0,0,0,0,0,0,8,0,0,2
489698396,489698396,42,0,0,16928,1501,1672,1622,1524,2074,1010,1002,1002,0,0,0,0,0,0,0,0,0,0,8,0,0,2
490199489,490199489,42,0,0,16918,1513,1659,1622,1525,2073,1011,1002,1002,0,0,0,0,0,0,0,0,0,0,8,0,0,2
490709769,490709769,42,0,0,16883,1480,1659,1622,1525,2073,1011,1002,1002,0,0,0,0,0,0,0,0,0,0,8,0,0,2
491209811,491209811,42,0,0,16896,1492,1659,1623,1525,2073,1011,1002,1002,0,0,0,0,0,0,0,0,0,0,8,0,0,2
491689413,491689413,42,0,0,16901,1498,1659,1622,1525,2074,1010,1002,1002,0,0,0,0,0,0,0,0,0,0,8,0,0,2
492215300,492215300,42,0,0,16882,1477,1659,1623,1525,2074,1010,1002,1002,0,0,0,0,0,0,0,0,0,0,8,0,0,2
492705630,492705630,42,0,0,16851,1438,1661,1622,1525,2074,1010,1002,1002,0,0,0,0,0,0,0,0,0,0,8,0,0,2
493210842,493210842,42,0,0,16888,1483,1661,1622,1525,2074,1010,1002,1002,0,0,0,0,0,0,0,0,0,0,8,0,0,2
493706165,493706165,42,0,0,16910,1507,1659,1623,1525,2073,1011,1002,1002,0,0,0,0,0,0,0,0,0,0,8,0,0,2
494211423,494211423,42,0,0,16905,1501,1659,1622,1525,2074,1010,1003,1002,0,0,0,0,0,0,0,0,0,0,8,0,0,2
494702175,494702175,42,0,0,16895,1491,1659,1623,1525,2073,1011,1002,1002,0,0,0,0,0,0,0,0,0,0,8,0,0,2
495201006,495201006,42,0,0,16921,1515,1661,1622,1525,2074,1010,1002,1003,0,0,0,0,0,0,0,0,0,0,8,0,0,2
495697072,495697072,42,0,0,16923,1517,1661,1623,1525,2074,1010,1002,1002,0,0,0,0,0,0,0,0,0,0,8,0,0,2
496201326,496201326,42,0,0,16887,1465,1668,1622,1525,2074,1010,1002,1002,0,0,0,0,0,0,0,0,0,0,8,0,0,2
496707555,496707555,42,0,0,16902,1498,1660,1622,1525,2074,1010,1002,1002,0,0,0,0,0,0,0,0,0,0,8,0,0,2
497212808,497212808,42,0,0,16900,1479,1680,1622,1525,2073,1011,1002,1002,0,0,0,0,0,0,0,0,0,0,8,0,0,2
497702098,497702098,42,0,0,16913,1460,1709,1622,1525,2073,1011,1002,1002,0,0,0,0,0,0,0,0,0,0,8,0,0,2
498212407,498212407,42,0,0,16955,1456,1755,1622,1524,2074,1011,1002,1002,0,0,0,0,0,0,0,0,0,0,8,0,0,2
498704539,498704539,42,0,0,17015,1465,1806,1622,1525,2073,1011,1002,1002,0,0,0,0,0,0,0,0,0,0,8,0,0,2
499198701,499198701,42,0,0,17064,1483,1837,1622,1525,2074,1010,1002,1002,0,0,0,0,0,0,0,0,0,0,8,0,0,2
499714479,499714479,42,0,0,17071,1518,1809,1622,1525,2074,1010,1002,1002,0,0,0,0,0,0,0,0,0,0,8,0,0,2
500203566,500203566,42,0,0,17063,1518,1801,1622,1525,2073,1011,1002,1002,0,0,0,0,0,0,0,0,0,0,8,0,0,2
500709435,500709435,42,0,0,16926,1483,1690,1622,1525,2073,1011,1002,1002,0,0,0,0,0,0,0,0,0,0,8,0,0,2
501193808,501193808,42,0,0,16867,1452,1669,1623,1525,2074,1011,1002,1002,0,0,0,0,0,0,0,0,0,0,8,0,0,2
501703822,501703822,42,0,0,16780,1401,1658,1599,1525,2073,1011,1002,1002,0,0,0,0,0,0,0,0,0,0,8,0,0,2
502205051,502205051,42,0,0,16718,1400,1638,1558,1524,2074,1011,1002,1002,0,0,0,0,0,0,0,0,0,0,8,0,0,2
502695347,502695347,42,0,0,16750,1512,1552,1562,1525,2073,1011,1002,1002,0,0,0,0,0,0,0,0,0,0,8,0,0,2
503200573,503200573,42,0,0,16661,1515,1462,1561,1525,2074,1010,1002,1002,0,0,0,0,0,0,0,0,0,0,8,0,0,2
503701198,503701198,42,0,0,16826,1517,1620,1561,1525,2074,1010,1002,1002,0,0,0,0,0,0,0,0,0,0,8,0,0,2
504210849,504210849,42,0,0,16789,1444,1662,1561,1525,2073,1011,1002,1002,0,0,0,0,0,0,0,0,0,0,8,0,0,2
504705400,504705400,42,0,0,16781,1436,1667,1559,1525,2074,1010,1002,1003,0,0,0,0,0,0,0,0,0,0,8,0,0,2
505191535,505191535,42,0,0,16845,1466,1700,1558,1525,2074,1010,1002,1003,0,0,0,0,0,0,0,0,0,0,8,0,0,2
505711962,505711962,42,0,0,16914,1471,1762,1558,1525,2074,1011,1002,1002,0,0,0,0,0,0,0,0,0,0,8,0,0,2
506206950,506206950,42,0,0,17002,1506,1824,1558,1525,2074,1010,1002,1002,0,0,0,0,0,0,0,0,0,0,8,0,0,2
506697709,506697709,42,0,0,16921,1472,1756,1558,1525,2074,1010,1002,1002,0,0,0,0,0,0,0,0,0,0,8,0,0,2
507202208,507202208,42,0,0,16874,1449,1765,1537,1525,2074,1011,1002,1002,0,0,0,0,0,0,0,0,0,0,8,0,0,2
507706753,507706753,42,0,0,16799,1439,1750,1468,1525,2073,1011,1002,1002,0,0,0,0,0,0,0,0,0,0,8,0,0,2
508192628,508192628,42,0,0,16834,1497,1747,1468,1524,2074,1011,1002,1002,0,0,0,0,0,0,0,0,0,0,8,0,0,2
508697229,508697229,42,0,0,16821,1497,1734,1468,1524,2074,1011,1002,1002,0,0,0,0,0,0,0,0,0,0,8,0,0,2
509203301,509203301,42,0,0,16673,1480,1695,1376,1524,2074,1011,1002,1002,0,0,0,0,0,0,0,0,0,0,8,0,0,2
509708583,509708583,42,0,0,16543,1478,1662,1280,1525,2073,1011,1002,1002,0,0,0,0,0,0,0,0,0,0,8,0,0,2
510207784,510207784,42,0,0,16603,1517,1684,1280,1525,2074,1010,1002,1002,0,0,0,0,0,0,0,0,0,0,8,0,0,2
510713825,510713825,42,0,0,16514,1491,1644,1256,1525,2074,1011,1002,1002,0,0,0,0,0,0,0,0,0,0,8,0,0,2
511209129,511209129,42,0,0,16496,1506,1615,1252,1525,2073,1011,1002,1002,0,0,0,0,0,0,0,0,0,0,8,0,0,2
511694274,511694274,42,0,0,16505,1501,1629,1254,1525,2074,1010,1002,1002,0,0,0,0,0,0,0,0,0,0,8,0,0,2
512199578,512199578,42,0,0,16532,1483,1643,1284,1525,2073,1011,1002,1002,0,0,0,0,0,0,0,0,0,0,8,0,0,2
512700304,512700304,42,0,0,16625,1528,1664,1315,1525,2074,1010,1002,1002,0,0,0,0,0,0,0,0,0,0,8,0,0,2
513209256,513209256,42,0,0,16754,1517,1738,1377,1525,2073,1011,1002,1002,0,0,0,0,0,0,0,0,0,0,8,0,0,2
513695204,513695204,42,0,0,16630,1440,1660,1402,1524,2074,1011,1002,1002,0,0,0,0,0,0,0,0,0,0,8,0,0,2
514205396,514205396,42,0,0,16535,1456,1609,1344,1525,2074,1010,1002,1002,0,0,0,0,0,0,0,0,0,0,8,0,0,2
514700685,514700685,42,0,0,16679,1489,1594,1472,1525,2073,1011,1002,1002,0,0,0,0,0,0,0,0,0,0,8,0,0,2
515210261,515210261,42,0,0,16692,1473,1587,1515,1525,2074,1010,1002,1002,0,0,0,0,0,0,0,0,0,0,8,0,0,2
515710467,515710467,42,0,0,16788,1515,1619,1532,1525,2074,1011,1002,1002,0,0,0,0,0,0,0,0,0,0,8,0,0,2
516206259,516206259,42,0,0,16740,1475,1643,1500,1525,2073,1011,1002,1002,0,0,0,0,0,0,0,0,0,0,8,0,0,2
516696718,516696718,42,0,0,16783,1524,1664,1467,1525,2074,1011,1002,1002,0,0,0,0,0,0,0,0,0,0,8,0,0,2
517201752,517201752,42,0,0,16828,1505,1766,1438,1524,2074,1010,1002,1002,0,0,0,0,0,0,0,0,0,0,8,0,0,2
517702044,517702044,42,0,0,16755,1464,1731,1438,1525,2073,1011,1002,1002,0,0,0,0,0,0,0,0,0,0,8,0,0,2
518212340,518212340,42,0,0,16774,1447,1768,1436,1524,2074,1010,1002,1002,0,0,0,0,0,0,0,0,0,0,8,0,0,2
518702477,518702477,42,0,0,16766,1460,1747,1437,1525,2073,1011,1002,1002,0,0,0,0,0,0,0,0,0,0,8,0,0,2
519212757,519212757,42,0,0,16628,1402,1662,1443,1524,2074,1010,1002,1002,0,0,0,0,0,0,0,0,0,0,8,0,0,2
519702141,519702141,42,0,0,16748,1524,1662,1443,1524,2074,1011,1002,1002,0,0,0,0,0,0,0,0,0,0,8,0,0,2
520208137,520208137,42,0,0,16734,1534,1629,1450,1524,2074,1011,1002,1002,0,0,0,0,0,0,0,0,0,0,8,0,0,2
520708603,520708603,42,0,0,16768,1545,1651,1450,1525,2073,1011,1002,1002,0,0,0,0,0,0,0,0,0,0,8,0,0,2
521209092,521209092,42,0,0,16807,1532,1687,1466,1525,2074,1010,1002,1002,0,0,0,0,0,0,0,0,0,0,8,0,0,2
521698905,521698905,42,0,0,16689,1453,1658,1467,1525,2073,1011,1002,1002,0,0,0,0,0,0,0,0,0,0,8,0,0,2
522213115,522213115,42,0,0,16749,1410,1681,1531,1525,2074,1011,1002,1002,0,0,0,0,0,0,0,0,0,0,8,0,0,2
522709191,522709191,42,0,0,16748,1479,1677,1471,1525,2073,1011,1002,1002,0,0,0,0,0,0,0,0,0,0,8,0,0,2
523203692,523203692,42,0,0,16804,1517,1694,1471,1525,2074,1010,1002,1002,0,0,0,0,0,0,0,0,0,0,8,0,0,2
523704007,523704007,42,0,0,16821,1509,1727,1462,1525,2074,1011,1002,1002,0,0,0,0,0,0,0,0,0,0,8,0,0,2
524214306,524214306,42,0,0,16550,1454,1603,1371,1525,2074,1010,1002,1002,0,0,0,0,0,0,0,0,0,0,8,0,0,2
524695233,524695233,42,0,0,16738,1531,1715,1375,1525,2074,1010,1002,1002,0,0,0,0,0,0,0,0,0,0,8,0,0,2
525210469,525210469,42,0,0,16439,1430,1710,1149,1525,2073,1011,1002,1002,0,0,0,0,0,0,0,0,0,0,8,0,0,2
525700649,525700649,42,0,0,16481,1496,1755,1108,1525,2074,1010,1002,1002,0,0,0,0,0,0,0,0,0,0,8,0,0,2
526214843,526214843,42,0,0,16418,1408,1780,1108,1525,2073,1011,1002,1002,0,0,0,0,0,0,0,0,0,0,8,0,0,2
526711701,526711701,42,0,0,16341,1459,1653,1108,1525,2073,1011,1002,1002,0,0,0,0,0,0,0,0,0,0,8,0,0,2
527205525,527205525,42,0,0,16538,1512,1614,1290,1525,2074,1010,1002,1002,0,0,0,0,0,0,0,0,0,0,8,0,0,2
527711436,527711436,42,0,0,16472,1510,1551,1289,1525,2073,1011,1002,1002,0,0,0,0,0,0,0,0,0,0,8,0,0,2
528212826,528212826,42,0,0,16533,1519,1629,1242,1525,2073,1011,1002,1002,0,0,0,0,0,0,0,0,0,0,8,0,0,2
528701979,528701979,42,0,0,16457,1487,1739,1109,1524,2074,1011,1002,1002,0,0,0,0,0,0,0,0,0,0,8,0,0,2
529206338,529206338,42,0,0,16749,1521,1997,1109,1525,2074,1010,1002,1002,0,0,0,0,0,0,0,0,0,0,8,0,0,2
529706573,529706573,42,0,0,17341,1622,1996,1518,1525,2073,1011,1002,1002,0,0,0,0,0,0,0,0,0,0,8,0,0,2
530207783,530207783,42,0,0,16281,1535,1517,1107,1524,2074,1011,1002,1002,0,0,0,0,0,0,0,0,0,0,8,0,0,2
530692863,530692863,42,0,0,16612,1520,1658,1312,1525,2073,1011,1002,1002,0,0,0,0,0,0,0,0,0,0,8,0,0,2
531197347,531197347,42,0,0,16717,1528,1751,1316,1526,2074,1010,1002,1002,0,0,0,0,0,0,0,0,0,0,8,0,0,2
531698416,531698416,42,0,0,16604,1557,1643,1283,1524,2074,1010,1002,1002,0,0,0,0,0,0,0,0,0,0,8,0,0,2
532199042,532199042,42,0,0,16513,1438,1634,1320,1524,2074,1010,1002,1002,0,0,0,0,0,0,0,0,0,0,8,0,0,2
532714626,532714626,42,0,0,16512,1360,1658,1330,1566,2074,1011,1002,1002,0,0,0,0,0,0,0,0,0,0,8,0,0,2
533203877,533203877,42,0,0,16931,1378,1691,1719,1526,2074,1010,1002,1002,0,0,0,0,0,0,0,0,0,0,8,0,0,2
533704334,533704334,42,0,0,16913,1404,1657,1718,1537,2074,1010,1003,1002,0,0,0,0,0,0,0,0,0,0,8,0,0,2
534214485,534214485,42,0,0,16778,1422,1516,1714,1532,2073,1011,1002,1002,0,0,0,0,0,0,0,0,0,0,8,0,0,2
534714937,534714937,42,0,0,16792,1405,1647,1612,1526,2074,1011,1002,1002,0,0,0,0,0,0,0,0,0,0,8,0,0,2
535210085,535210085,42,0,0,16972,1515,1656,1678,1526,2073,1011,1002,1002,0,0,0,0,0,0,0,0,0,0,8,0,0,2
535705603,535705603,42,0,0,16889,1456,1628,1682,1525,2074,1011,1002,1002,0,0,0,0,0,0,0,0,0,0,8,0,0,2
536199623,536199623,42,0,0,16897,1429,1658,1680,1526,2073,1011,1002,1002,0,0,0,0,0,0,0,0,0,0,8,0,0,2
536695673,536695673,42,0,0,17057,1509,1745,1680,1526,2073,1011,1002,1002,0,0,0,0,0,0,0,0,0,0,8,0,0,2
537210905,537210905,42,0,0,16999,1507,1687,1681,1526,2074,1010,1003,1002,0,0,0,0,0,0,0,0,0,0,8,0,0,2
537700468,537700468,42,0,0,16926,1437,1672,1681,1526,2074,1010,1002,1002,0,0,0,0,0,0,0,0,0,0,8,0,0,2
538210556,538210556,42,0,0,16930,1453,1659,1681,1526,2074,1010,1002,1002,0,0,0,0,0,0,0,0,0,0,8,0,0,2
538711556,538711556,42,0,0,16949,1494,1651,1680,1527,2073,1011,1002,1002,0,0,0,0,0,0,0,0,0,0,8,0,0,2
539211781,539211781,42,0,0,16854,1493,1560,1680,1527,2073,1011,1002,1002,0,0,0,0,0,0,0,0,0,0,8,0,0,2
539701914,539701914,42,0,0,16905,1512,1590,1681,1525,2074,1011,1002,1002,0,0,0,0,0,0,0,0,0,0,8,0,0,2
540197568,540197568,42,0,0,16893,1507,1582,1680,1526,2073,1011,1002,1002,0,0,0,0,0,0,0,0,0,0,8,0,0,2
540702420,540702420,42,0,0,16961,1400,1756,1682,1526,2074,1010,1002,1002,0,0,0,0,0,0,0,0,0,0,8,0,0,2
541212476,541212476,42,0,0,17032,1475,1754,1681,1525,2074,1011,1002,1002,0,0,0,0,0,0,0,0,0,0,8,0,0,2
541712114,541712114,42,0,0,17005,1469,1731,1682,1526,2073,1011,1002,1002,0,0,0,0,0,0,0,0,0,0,8,0,0,2
542213052,542213052,42,0,0,16913,1471,1661,1651,1525,2074,1011,1002,1002,0,0,0,0,0,0,0,0,0,0,8,0,0,2
543208503,543208503,42,0,0,16890,1481,1636,1650,1526,2074,1010,1002,1002,0,0,0,0,0,0,0,0,0,0,8,0,0,2
543713105,543713105,42,0,0,16899,1517,1614,1650,1525,2074,1011,1002,1002,0,0,0,0,0,0,0,0,0,0,8,0,0,2
544194115,544194115,42,0,0,16920,1487,1660,1650,1526,2074,1010,1002,1002,0,0,0,0,0,0,0,0,0,0,8,0,0,2
544693996,544693996,42,0,0,16955,1517,1666,1649,1526,2074,1010,1002,1002,0,0,0,0,0,0,0,0,0,0,8,0,0,2
545193483,545193483,42,0,0,16956,1518,1666,1649,1526,2074,1010,1002,1002,0,0,0,0,0,0,0,0,0,0,8,0,0,2
545704971,545704971,42,0,0,16416,1518,1666,1110,1525,2074,1011,1002,1002,0,0,0,0,0,0,0,0,0,0,8,0,0,2
546204619,546204619,42,0,0,16416,1517,1666,1110,1526,2073,1011,1002,1002,0,0,0,0,0,0,0,0,0,0,8,0,0,2
546704224,546704224,42,0,0,16416,1517,1666,1110,1526,2073,1011,1002,1002,0,0,0,0,0,0,0,0,0,0,8,0,0,2
547210623,547210623,42,0,0,16416,1517,1667,1109,1526,2074,1010,1002,1002,0,0,0,0,0,0,0,0,0,0,8,0,0,2
547704665,547704665,42,0,0,16416,1517,1666,1110,1526,2074,1010,1002,1002,0,0,0,0,0,0,0,0,0,0,8,0,0,2
548210645,548210645,42,0,0,16416,1518,1666,1109,1526,2074,1010,1003,1002,0,0,0,0,0,0,0,0,0,0,8,0,0,2
548714990,548714990,42,0,0,16416,1517,1666,1110,1526,2073,1011,1002,1002,0,0,0,0,0,0,0,0,0,0,8,0,0,2
549196058,549196058,42,0,0,17048,1436,1787,1618,1526,2074,1010,1002,1002,0,0,0,0,0,0,0,0,0,0,8,0,0,2
549695549,549695549,42,0,0,16818,1460,1755,1479,1526,2074,1011,1002,1002,0,0,0,0,0,0,0,0,0,0,8,0,0,2
550205462,550205462,42,0,0,16730,1414,1659,1534,1526,2074,1010,1002,1002,0,0,0,0,0,0,0,0,0,0,8,0,0,2
550707350,550707350,42,0,0,16776,1437,1689,1534,1526,2074,1010,1002,1002,0,0,0,0,0,0,0,0,0,0,8,0,0,2
551206888,551206888,42,0,0,16904,1469,1776,1536,1526,2073,1011,1002,1002,0,0,0,0,0,0,0,0,0,0,8,0,0,2
551706165,551706165,42,0,0,16832,1429,1717,1562,1526,2074,1010,1002,1003,0,0,0,0,0,0,0,0,0,0,8,0,0,2
552202256,552202256,42,0,0,16878,1515,1674,1566,1526,2073,1011,1002,1002,0,0,0,0,0,0,0,0,0,0,8,0,0,2
552692595,552692595,42,0,0,16670,1521,1460,1565,1527,2073,1011,1002,1002,0,0,0,0,0,0,0,0,0,0,8,0,0,2
553192739,553192739,42,0,0,16807,1457,1658,1563,1526,2074,1011,1002,1002,0,0,0,0,0,0,0,0,0,0,8,0,0,2
553707125,553707125,42,0,0,16950,1460,1739,1623,1526,2074,1010,1002,1003,0,0,0,0,0,0,0,0,0,0,8,0,0,2
554208237,554208237,42,0,0,16988,1511,1733,1622,1525,2074,1011,1002,1002,0,0,0,0,0,0,0,0,0,0,8,0,0,2
554704804,554704804,42,0,0,16939,1500,1694,1623,1525,2074,1010,1002,1002,0,0,0,0,0,0,0,0,0,0,8,0,0,2
555208706,555208706,42,0,0,16903,1487,1662,1623,1526,2074,1010,1002,1002,0,0,0,0,0,0,0,0,0,0,8,0,0,2
555715250,555715250,42,0,0,16860,1512,1603,1622,1526,2074,1010,1002,1003,0,0,0,0,0,0,0,0,0,0,8,0,0,2
556208226,556208226,42,0,0,16893,1516,1633,1622,1525,2073,1011,1002,1002,0,0,0,0,0,0,0,0,0,0,8,0,0,2
556699225,556699225,42,0,0,16921,1517,1663,1622,1525,2074,1011,1002,1002,0,0,0,0,0,0,0,0,0,0,8,0,0,2
557204783,557204783,42,0,0,16774,1456,1661,1535,1525,2074,1010,1002,1003,0,0,0,0,0,0,0,0,0,0,8,0,0,2
557700310,557700310,42,0,0,16783,1468,1662,1532,1525,2073,1010,1002,1002,0,0,0,0,0,0,0,0,0,0,8,0,0,2
558214839,558214839,42,0,0,16751,1433,1659,1532,1525,2073,1011,1002,1002,0,0,0,0,0,0,0,0,0,0,8,0,0,2
558715104,558715104,42,0,0,16792,1498,1643,1530,1525,2073,1010,1002,1002,0,0,0,0,0,0,0,0,0,0,8,0,0,2
559205241,559205241,42,0,0,16811,1517,1642,1531,1525,2073,1011,1002,1002,0,0,0,0,0,0,0,0,0,0,8,0,0,2
559715579,559715579,42,0,0,16755,1518,1584,1531,1525,2073,1011,1002,1002,0,0,0,0,0,0,0,0,0,0,8,0,0,2
560205233,560205233,42,0,0,16770,1476,1642,1530,1525,2073,1011,1002,1002,0,0,0,0,0,0,0,0,0,0,8,0,0,2
560700840,560700840,42,0,0,16726,1484,1590,1530,1525,2073,1011,1002,1002,0,0,0,0,0,0,0,0,0,0,8,0,0,2
561191108,561191108,42,0,0,16694,1489,1553,1530,1525,2073,1011,1002,1002,0,0,0,0,0,0,0,0,0,0,8,0,0,2
561706376,561706376,42,0,0,16738,1487,1599,1532,1525,2073,1010,1002,1002,0,0,0,0,0,0,0,0,0,0,8,0,0,2
562196474,562196474,42,0,0,16729,1489,1586,1531,1525,2074,1010,1002,1002,0,0,0,0,0,0,0,0,0,0,8,0,0,2
562710980,562710980,42,0,0,16706,1433,1620,1531,1525,2073,1011,1002,1002,0,0,0,0,0,0,0,0,0,0,8,0,0,2
563197081,563197081,42,0,0,16731,1431,1657,1533,1525,2073,1011,1002,1002,0,0,0,0,0,0,0,0,0,0,8,0,0,2
563691413,563691413,42,0,0,16772,1459,1659,1532,1525,2073,1011,1002,1002,0,0,0,0,0,0,0,0,0,0,8,0,0,2
564211431,564211431,42,0,0,16799,1486,1659,1532,1525,2074,1010,1002,1002,0,0,0,0,0,0,0,0,0,0,8,0,0,2
564707699,564707699,42,0,0,16900,1495,1753,1531,1525,2074,1010,1002,1002,0,0,0,0,0,0,0,0,0,0,8,0,0,2
565207872,565207872,42,0,0,16889,1494,1743,1531,1525,2074,1010,1002,1002,0,0,0,0,0,0,0,0,0,0,8,0,0,2
565697932,565697932,42,0,0,16819,1494,1671,1532,1525,2073,1011,1002,1002,0,0,0,0,0,0,0,0,0,0,8,0,0,2
566212505,566212505,42,0,0,16735,1416,1665,1531,1525,2074,1011,1002,1002,0,0,0,0,0,0,0,0,0,0,8,0,0,2
566699222,566699222,42,0,0,16804,1493,1658,1531,1525,2073,1011,1002,1002,0,0,0,0,0,0,0,0,0,0,8,0,0,2
567198794,567198794,42,0,0,16797,1491,1652,1531,1525,2074,1010,1003,1002,0,0,0,0,0,0,0,0,0,0,8,0,0,2
567713133,567713133,42,0,0,16827,1515,1659,1531,1525,2073,1011,1002,1002,0,0,0,0,0,0,0,0,0,0,8,0,0,2
568204204,568204204,42,0,0,16821,1518,1640,1532,1524,2074,1010,1002,1002,0,0,0,0,0,0,0,0,0,0,8,0,0,2
568713592,568713592,42,0,0,16673,1517,1500,1533,1526,2073,1011,1002,1002,0,0,0,0,0,0,0,0,0,0,8,0,0,2
569209437,569209437,42,0,0,16744,1474,1616,1532,1524,2074,1011,1002,1002,0,0,0,0,0,0,0,0,0,0,8,0,0,2
569714636,569714636,42,0,0,16760,1485,1626,1531,1525,2074,1011,1002,1002,0,0,0,0,0,0,0,0,0,0,8,0,0,2
570213930,570213930,42,0,0,16766,1480,1633,1531,1525,2073,1011,1002,1002,0,0,0,0,0,0,0,0,0,0,8,0,0,2
570700065,570700065,42,0,0,16745,1432,1659,1531,1525,2074,1011,1002,1002,0,0,0,0,0,0,0,0,0,0,8,0,0,2
571205591,571205591,42,0,0,16830,1461,1713,1534,1525,2074,1010,1002,1002,0,0,0,0,0,0,0,0,0,0,8,0,0,2
571715023,571715023,42,0,0,16906,1490,1759,1535,1525,2074,1010,1002,1002,0,0,0,0,0,0,0,0,0,0,8,0,0,2
572215998,572215998,42,0,0,16835,1466,1714,1533,1525,2073,1011,1002,1002,0,0,0,0,0,0,0,0,0,0,8,0,0,2
572715360,572715360,42,0,0,16834,1465,1715,1532,1525,2073,1011,1002,1002,0,0,0,0,0,0,0,0,0,0,8,0,0,2
573215430,573215430,42,0,0,16764,1450,1688,1504,1525,2074,1010,1002,1002,0,0,0,0,0,0,0,0,0,0,8,0,0,2
573701339,573701339,42,0,0,16838,1513,1697,1506,1525,2073,1011,1002,1002,0,0,0,0,0,0,0,0,0,0,8,0,0,2
574205656,574205656,42,0,0,16777,1464,1685,1505,1526,2073,1011,1002,1002,0,0,0,0,0,0,0,0,0,0,8,0,0,2
574696058,574696058,42,0,0,16729,1405,1697,1505,1525,2073,1011,1002,1002,0,0,0,0,0,0,0,0,0,0,8,0,0,2
575212238,575212238,42,0,0,16849,1482,1732,1515,1525,2073,1011,1002,1002,0,0,0,0,0,0,0,0,0,0,8,0,0,2
575692282,575692282,42,0,0,16750,1413,1673,1534,1525,2073,1011,1002,1002,0,0,0,0,0,0,0,0,0,0,8,0,0,2
576212510,576212510,42,0,0,16781,1446,1681,1533,1525,2074,1010,1002,1002,0,0,0,0,0,0,0,0,0,0,8,0,0,2
576697694,576697694,42,0,0,16761,1454,1662,1533,1524,2073,1010,1002,1002,0,0,0,0,0,0,0,0,0,0,8,0,0,2
577197434,577197434,42,0,0,16762,1504,1604,1532,1525,2073,1011,1002,1002,0,0,0,0,0,0,0,0,0,0,8,0,0,2
577703137,577703137,42,0,0,16771,1482,1635,1532,1525,2073,1011,1002,1002,0,0,0,0,0,0,0,0,0,0,8,0,0,2
578193235,578193235,42,0,0,16817,1494,1669,1532,1525,2074,1010,1002,1002,0,0,0,0,0,0,0,0,0,0,8,0,0,2
578707660,578707660,42,0,0,16818,1494,1669,1533,1525,2073,1011,1002,1002,0,0,0,0,0,0,0,0,0,0,8,0,0,2
579203611,579203611,42,0,0,16690,1374,1662,1532,1525,2074,1010,1002,1002,0,0,0,0,0,0,0,0,0,0,8,0,0,2
579713867,579713867,42,0,0,16760,1448,1664,1536,1525,2073,1011,1002,1002,0,0,0,0,0,0,0,0,0,0,8,0,0,2
580204225,580204225,42,0,0,16791,1417,1717,1534,1525,2074,1011,1002,1002,0,0,0,0,0,0,0,0,0,0,8,0,0,2
580698556,580698556,42,0,0,16803,1424,1722,1534,1525,2074,1010,1002,1002,0,0,0,0,0,0,0,0,0,0,8,0,0,2
581208771,581208771,42,0,0,16868,1444,1776,1535,1524,2074,1011,1002,1002,0,0,0,0,0,0,0,0,0,0,8,0,0,2
581705188,581705188,42,0,0,16922,1518,1747,1535,1525,2073,1011,1002,1002,0,0,0,0,0,0,0,0,0,0,8,0,0,2
582199415,582199415,42,0,0,16945,1538,1750,1533,1525,2074,1010,1002,1003,0,0,0,0,0,0,0,0,0,0,8,0,0,2
582705270,582705270,42,0,0,17030,1518,1826,1563,1526,2074,1010,1002,1002,0,0,0,0,0,0,0,0,0,0,8,0,0,2
583715660,583715660,42,0,0,16704,1449,1639,1493,1526,2074,1010,1002,1002,0,0,0,0,0,0,0,0,0,0,8,0,0,2
584200761,584200761,42,0,0,16624,1424,1609,1468,1525,2074,1010,1002,1002,0,0,0,0,0,0,0,0,0,0,8,0,0,2
584691425,584691425,42,0,0,16712,1512,1609,1468,1526,2073,1011,1002,1002,0,0,0,0,0,0,0,0,0,0,8,0,0,2
585186687,585186687,42,0,0,16696,1433,1681,1469,1525,2074,1010,1002,1002,0,0,0,0,0,0,0,0,0,0,8,0,0,2
585696441,585696441,42,0,0,16958,1569,1796,1470,1525,2074,1011,1002,1002,0,0,0,0,0,0,0,0,0,0,8,0,0,2
586206720,586206720,42,0,0,16870,1532,1745,1470,1525,2074,1011,1002,1002,0,0,0,0,0,0,0,0,0,0,8,0,0,2
587212025,587212025,42,0,0,16842,1547,1708,1467,1525,2074,1011,1002,1002,0,0,0,0,0,0,0,0,0,0,8,0,0,2
587707077,587707077,42,0,0,16710,1483,1661,1437,1525,2074,1011,1002,1002,0,0,0,0,0,0,0,0,0,0,8,0,0,2
588202475,588202475,42,0,0,16750,1531,1664,1437,1525,2074,1011,1002,1002,0,0,0,0,0,0,0,0,0,0,8,0,0,2
588711788,588711788,42,0,0,16629,1405,1659,1437,1524,2075,1010,1002,1002,0,0,0,0,0,0,0,0,0,0,8,0,0,2
589197707,589197707,42,0,0,16761,1462,1689,1489,1525,2074,1011,1002,1002,0,0,0,0,0,0,0,0,0,0,8,0,0,2
589698643,589698643,42,0,0,16790,1507,1692,1469,1525,2074,1010,1002,1003,0,0,0,0,0,0,0,0,0,0,8,0,0,2
590212343,590212343,42,0,0,16797,1492,1714,1473,1525,2074,1010,1002,1002,0,0,0,0,0,0,0,0,0,0,8,0,0,2
590713501,590713501,42,0,0,16925,1519,1742,1535,1524,2074,1011,1002,1002,0,0,0,0,0,0,0,0,0,0,8,0,0,2
591203592,591203592,42,0,0,16800,1495,1662,1520,1525,2074,1011,1002,1002,0,0,0,0,0,0,0,0,0,0,8,0,0,2
591712971,591712971,42,0,0,16768,1516,1661,1469,1525,2072,1011,1002,1002,0,0,0,0,0,0,0,0,0,0,8,0,0,2
592194190,592194190,42,0,0,16675,1461,1657,1437,1525,2073,1011,1002,1002,0,0,0,0,0,0,0,0,0,0,8,0,0,2
592699147,592699147,42,0,0,16619,1461,1631,1404,1525,2073,1011,1002,1002,0,0,0,0,0,0,0,0,0,0,8,0,0,2
593213746,593213746,42,0,0,16544,1423,1626,1373,1525,2073,1011,1002,1002,0,0,0,0,0,0,0,0,0,0,8,0,0,2
593694782,593694782,42,0,0,16568,1459,1614,1373,1525,2074,1010,1002,1002,0,0,0,0,0,0,0,0,0,0,8,0,0,2
594714401,594714401,42,0,0,16706,1545,1664,1375,1525,2073,1011,1002,1002,0,0,0,0,0,0,0,0,0,0,8,0,0,2
595710584,595710584,42,0,0,16696,1504,1770,1310,1525,2073,1011,1002,1002,0,0,0,0,0,0,0,0,0,0,8,0,0,2
596200717,596200717,42,0,0,16888,1523,1902,1347,1525,2074,1010,1002,1002,0,0,0,0,0,0,0,0,0,0,8,0,0,2
596705192,596705192,42,0,0,16666,1452,1689,1403,1524,2074,1011,1002,1002,0,0,0,0,0,0,0,0,0,0,8,0,0,2
597196709,597196709,42,0,0,16588,1449,1567,1450,1525,2074,1010,1002,1002,0,0,0,0,0,0,0,0,0,0,8,0,0,2
597706393,597706393,42,0,0,16666,1481,1615,1449,1524,2074,1011,1002,1002,0,0,0,0,0,0,0,0,0,0,8,0,0,2
598195810,598195810,42,0,0,16621,1439,1624,1436,1525,2074,1010,1002,1002,0,0,0,0,0,0,0,0,0,0,8,0,0,2
598691747,598691747,42,0,0,16818,1514,1677,1505,1525,2073,1011,1002,1002,0,0,0,0,0,0,0,0,0,0,8,0,0,2
599211934,599211934,42,0,0,16837,1448,1727,1533,1525,2074,1010,1003,1002,0,0,0,0,0,0,0,0,0,0,8,0,0,2
599687694,599687694,42,0,0,16917,1508,1756,1531,1525,2074,1010,1002,1002,0,0,0,0,0,0,0,0,0,0,8,0,0,2
600202372,600202372,42,0,0,16771,1522,1658,1469,1525,2073,1011,1002,1002,0,0,0,0,0,0,0,0,0,0,8,0,0,2
600697410,600697410,42,0,0,16650,1519,1641,1374,1525,2074,1011,1002,1002,0,0,0,0,0,0,0,0,0,0,8,0,0,2
601202814,601202814,42,0,0,16661,1501,1662,1375,1525,2074,1011,1002,1002,0,0,0,0,0,0,0,0,0,0,8,0,0,2
601708499,601708499,42,0,0,16592,1433,1662,1376,1524,2074,1010,1002,1002,0,0,0,0,0,0,0,0,0,0,8,0,0,2
602198338,602198338,42,0,0,16584,1424,1663,1375,1525,2073,1011,1002,1002,0,0,0,0,0,0,0,0,0,0,8,0,0,2
602698256,602698256,42,0,0,16530,1525,1775,1109,1524,2074,1010,1002,1002,0,0,0,0,0,0,0,0,0,0,8,0,0,2
603207699,603207699,42,0,0,16413,1504,1677,1109,1526,2074,1010,1002,1002,0,0,0,0,0,0,0,0,0,0,8,0,0,2
603713853,603713853,42,0,0,16320,1515,1573,1108,1527,2073,1011,1002,1002,0,0,0,0,0,0,0,0,0,0,8,0,0,2
604208036,604208036,42,0,0,16606,1458,1915,1109,1526,2074,1011,1002,1002,0,0,0,0,0,0,0,0,0,0,8,0,0,2
604699062,604699062,42,0,0,16553,1498,1819,1109,1530,2073,1011,1002,1002,0,0,0,0,0,0,0,0,0,0,8,0,0,2
605208639,605208639,42,0,0,16283,1428,1624,1108,1526,2073,1011,1002,1002,0,0,0,0,0,0,0,0,0,0,8,0,0,2
605708931,605708931,42,0,0,16913,1517,1733,1541,1525,2073,1011,1002,1002,0,0,0,0,0,0,0,0,0,0,8,0,0,2
606208891,606208891,42,0,0,16840,1435,1681,1604,1523,2074,1010,1002,1002,0,0,0,0,0,0,0,0,0,0,8,0,0,2
606705065,606705065,42,0,0,16261,1299,1488,1350,1527,2073,1011,1002,1002,0,0,0,0,0,0,0,0,0,0,8,0,0,2
607199358,607199358,42,0,0,16615,1273,1616,1509,1620,2074,1010,1002,1002,0,0,0,0,0,0,0,0,0,0,8,0,0,2
607699641,607699641,42,0,0,16775,1284,1662,1540,1692,2074,1010,1002,1002,0,0,0,0,0,0,0,0,0,0,8,0,0,2
608195721,608195721,42,0,0,16807,1395,1591,1568,1655,2074,1011,1002,1002,0,0,0,0,0,0,0,0,0,0,8,0,0,2
608707253,608707253,42,0,0,16804,1261,1659,1627,1661,2074,1010,1002,1002,0,0,0,0,0,0,0,0,0,0,8,0,0,2
609210293,609210293,42,0,0,16675,1281,1644,1467,1699,2074,1010,1002,1002,0,0,0,0,0,0,0,0,0,0,8,0,0,2
609705811,609705811,42,0,0,16508,1456,1448,1375,1632,2073,1011,1002,1002,0,0,0,0,0,0,0,0,0,0,8,0,0,2
610190560,610190560,42,0,0,16974,1459,1735,1607,1576,2074,1010,1002,1002,0,0,0,0,0,0,0,0,0,0,8,0,0,2
610711169,610711169,42,0,0,16816,1419,1666,1596,1538,2073,1011,1002,1002,0,0,0,0,0,0,0,0,0,0,8,0,0,2
611197002,611197002,42,0,0,16716,1439,1532,1596,1552,2074,1010,1002,1002,0,0,0,0,0,0,0,0,0,0,8,0,0,2
611701454,611701454,42,0,0,16595,1346,1561,1534,1553,2074,1010,1002,1002,0,0,0,0,0,0,0,0,0,0,8,0,0,2
612202270,612202270,42,0,0,16763,1403,1658,1563,1542,2074,1010,1002,1002,0,0,0,0,0,0,0,0,0,0,8,0,0,2
612712484,612712484,42,0,0,16756,1531,1722,1380,1526,2073,1011,1002,1002,0,0,0,0,0,0,0,0,0,0,8,0,0,2
613207736,613207736,42,0,0,16854,1605,1659,1470,1527,2073,1011,1002,1002,0,0,0,0,0,0,0,0,0,0,8,0,0,2
613693438,613693438,42,0,0,16820,1566,1633,1500,1525,2073,1011,1002,1002,0,0,0,0,0,0,0,0,0,0,8,0,0,2
614212431,614212431,42,0,0,16669,1502,1544,1502,1524,2074,1010,1002,1002,0,0,0,0,0,0,0,0,0,0,8,0,0,2
614713342,614713342,42,0,0,16600,1502,1626,1345,1525,2074,1010,1002,1002,0,0,0,0,0,0,0,0,0,0,8,0,0,2
615212850,615212850,42,0,0,16739,1506,2005,1108,1522,2074,1011,1002,1002,0,0,0,0,0,0,0,0,0,0,8,0,0,2
615713856,615713856,42,0,0,16472,1544,1714,1106,1511,2074,1010,1002,1002,0,0,0,0,0,0,0,0,0,0,8,0,0,2
616209147,616209147,42,0,0,16711,1609,1875,1107,1523,2074,1010,1002,1002,0,0,0,0,0,0,0,0,0,0,8,0,0,2
616699339,616699339,42,0,0,16751,1518,2005,1107,1524,2074,1010,1002,1002,0,0,0,0,0,0,0,0,0,0,8,0,0,2
617203651,617203651,42,0,0,16512,1525,1759,1107,1524,2073,1011,1002,1002,0,0,0,0,0,0,0,0,0,0,8,0,0,2
617704260,617704260,42,0,0,16527,1556,1746,1107,1521,2074,1011,1002,1002,0,0,0,0,0,0,0,0,0,0,8,0,0,2
618210108,618210108,42,0,0,16454,1518,1709,1106,1524,2073,1011,1002,1002,0,0,0,0,0,0,0,0,0,0,8,0,0,2
618700699,618700699,42,0,0,16404,1518,1658,1107,1523,2074,1011,1002,1002,0,0,0,0,0,0,0,0,0,0,8,0,0,2
619195470,619195470,42,0,0,16405,1518,1659,1106,1524,2074,1010,1002,1002,0,0,0,0,0,0,0,0,0,0,8,0,0,2
619710629,619710629,42,0,0,16404,1517,1660,1106,1524,2074,1010,1002,1002,0,0,0,0,0,0,0,0,0,0,8,0,0,2
620205118,620205118,42,0,0,16404,1518,1659,1106,1524,2074,1010,1002,1002,0,0,0,0,0,0,0,0,0,0,8,0,0,2
620705206,620705206,42,0,0,16404,1518,1659,1107,1523,2074,1011,1002,1002,0,0,0,0,0,0,0,0,0,0,8,0,0,2
621201760,621201760,42,0,0,16404,1518,1659,1106,1524,2074,1010,1002,1002,0,0,0,0,0,0,0,0,0,0,8,0,0,2
621705696,621705696,42,0,0,16404,1518,1659,1107,1523,2074,1011,1002,1002,0,0,0,0,0,0,0,0,0,0,8,0,0,2
622211684,622211684,42,0,0,16404,1518,1659,1107,1523,2075,1010,1002,1002,0,0,0,0,0,0,0,0,0,0,8,0,0,2
622692452,622692452,42,0,0,16405,1518,1659,1106,1524,2074,1011,1002,1002,0,0,0,0,0,0,0,0,0,0,8,0,0,2
623212307,623212307,42,0,0,16404,1518,1659,1106,1524,2074,1010,1002,1002,0,0,0,0,0,0,0,0,0,0,8,0,0,2
623702280,623702280,42,0,0,16405,1518,1659,1107,1523,2074,1011,1002,1002,0,0,0,0,0,0,0,0,0,0,8,0,0,2
624196894,624196894,42,0,0,16404,1518,1659,1106,1524,2074,1010,1002,1002,0,0,0,0,0,0,0,0,0,0,8,0,0,2
624703304,624703304,42,0,0,16404,1518,1659,1107,1523,2074,1011,1002,1002,0,0,0,0,0,0,0,0,0,0,8,0,0,2
625207427,625207427,42,0,0,16405,1518,1660,1107,1523,2074,1011,1002,1002,0,0,0,0,0,0,0,0,0,0,8,0,0,2
626203663,626203663,42,0,0,16408,1518,1660,1109,1523,2074,1011,1002,1002,0,0,0,0,0,0,0,0,0,0,8,0,0,2
626694733,626694733,42,0,0,16407,1518,1659,1109,1524,2074,1010,1002,1002,0,0,0,0,0,0,0,0,0,0,8,0,0,2
627198283,627198283,42,0,0,16408,1517,1660,1109,1523,2075,1010,1002,1002,0,0,0,0,0,0,0,0,0,0,8,0,0,2
627714359,627714359,42,0,0,16408,1518,1659,1109,1524,2074,1010,1002,1002,0,0,0,0,0,0,0,0,0,0,8,0,0,2
628214763,628214763,42,0,0,16407,1517,1660,1109,1523,2075,1010,1002,1002,0,0,0,0,0,0,0,0,0,0,8,0,0,2
628708720,628708720,42,0,0,16407,1517,1660,1109,1523,2075,1010,1002,1002,0,0,0,0,0,0,0,0,0,0,8,0,0,2
629209285,629209285,42,0,0,16408,1518,1660,1109,1523,2074,1011,1002,1002,0,0,0,0,0,0,0,0,0,0,8,0,0,2
629695893,629695893,42,0,0,16407,1518,1659,1109,1524,2074,1010,1002,1002,0,0,0,0,0,0,0,0,0,0,8,0,0,2
630199684,630199684,42,0,0,16408,1518,1660,1109,1523,2074,1011,1002,1002,0,0,0,0,0,0,0,0,0,0,8,0,0,2
630705592,630705592,42,0,0,16408,1517,1660,1109,1523,2075,1010,1002,1002,0,0,0,0,0,0,0,0,0,0,8,0,0,2
631210130,631210130,42,0,0,16408,1518,1660,1109,1523,2074,1011,1002,1002,0,0,0,0,0,0,0,0,0,0,8,0,0,2
631696763,631696763,42,0,0,16408,1518,1659,1109,1524,2074,1010,1002,1002,0,0,0,0,0,0,0,0,0,0,8,0,0,2
632196448,632196448,42,0,0,16408,1518,1660,1109,1523,2074,1011,1002,1002,0,0,0,0,0,0,0,0,0,0,8,0,0,2
632700755,632700755,42,0,0,16408,1518,1659,1109,1524,2074,1010,1002,1002,0,0,0,0,0,0,0,0,0,0,8,0,0,2
633197940,633197940,42,0,0,16407,1517,1660,1109,1523,2075,1010,1002,1002,0,0,0,0,0,0,0,0,0,0,8,0,0,2
633697966,633697966,42,0,0,16408,1518,1659,1110,1523,2074,1011,1002,1002,0,0,0,0,0,0,0,0,0,0,8,0,0,2
634191350,634191350,42,0,0,16407,1517,1660,1109,1523,2075,1010,1002,1002,0,0,0,0,0,0,0,0,0,0,8,0,0,2
635197895,635197895,42,0,0,16408,1518,1660,1109,1523,2074,1011,1002,1002,0,0,0,0,0,0,0,0,0,0,8,0,0,2
635707963,635707963,42,0,0,16407,1518,1660,1109,1523,2074,1011,1002,1002,0,0,0,0,0,0,0,0,0,0,8,0,0,2
636208393,636208393,42,0,0,16408,1518,1660,1109,1523,2074,1011,1002,1002,0,0,0,0,0,0,0,0,0,0,8,0,0,2
637193409,637193409,42,0,0,16408,1518,1659,1110,1523,2074,1011,1002,1002,0,0,0,0,0,0,0,0,0,0,8,0,0,2
637708948,637708948,42,0,0,16408,1518,1659,1110,1523,2074,1011,1002,1002,0,0,0,0,0,0,0,0,0,0,8,0,0,2
638203522,638203522,42,0,0,16408,1518,1660,1109,1523,2074,1011,1002,1002,0,0,0,0,0,0,0,0,0,0,8,0,0,2
638709460,638709460,42,0,0,16407,1517,1660,1109,1523,2075,1010,1002,1002,0,0,0,0,0,0,0,0,0,0,8,0,0,2
639210270,639210270,42,0,0,16407,1518,1659,1109,1524,2074,1010,1002,1002,0,0,0,0,0,0,0,0,0,0,8,0,0,2
639700650,639700650,42,0,0,16407,1518,1660,1109,1523,2074,1011,1002,1002,0,0,0,0,0,0,0,0,0,0,8,0,0,2
640204408,640204408,42,0,0,16409,1518,1660,1110,1524,2074,1010,1002,1002,0,0,0,0,0,0,0,0,0,0,8,0,0,2
640715061,640715061,42,0,0,16412,1518,1661,1110,1525,2074,1010,1002,1003,0,0,0,0,0,0,0,0,0,0,8,0,0,2
641200864,641200864,42,0,0,16409,1517,1660,1109,1525,2074,1010,1002,1002,0,0,0,0,0,0,0,0,0,0,8,0,0,2
641701687,641701687,42,0,0,16408,1517,1660,1110,1524,2074,1011,1002,1002,0,0,0,0,0,0,0,0,0,0,8,0,0,2
642195581,642195581,42,0,0,16409,1517,1660,1109,1525,2074,1010,1002,1002,0,0,0,0,0,0,0,0,0,0,8,0,0,2
642695544,642695544,42,0,0,16408,1518,1659,1110,1523,2074,1011,1002,1002,0,0,0,0,0,0,0,0,0,0,8,0,0,2
643191735,643191735,42,0,0,16408,1518,1659,1110,1523,2074,1011,1002,1002,0,0,0,0,0,0,0,0,0,0,8,0,0,2
643712172,643712172,42,0,0,16408,1517,1660,1109,1524,2074,1011,1002,1002,0,0,0,0,0,0,0,0,0,0,8,0,0,2
644212427,644212427,42,0,0,16410,1518,1660,1110,1524,2075,1010,1002,1002,0,0,0,0,0,0,0,0,0,0,8,0,0,2
644706806,644706806,42,0,0,16408,1517,1659,1109,1525,2074,1010,1002,1002,0,0,0,0,0,0,0,0,0,0,8,0,0,2
645212859,645212859,42,0,0,16407,1517,1659,1109,1524,2075,1010,1002,1002,0,0,0,0,0,0,0,0,0,0,8,0,0,2
645707416,645707416,42,0,0,16407,1518,1659,1109,1524,2074,1011,1002,1002,0,0,0,0,0,0,0,0,0,0,8,0,0,2
646697800,646697800,42,0,0,16411,1518,1660,1111,1524,2074,1011,1002,1002,0,0,0,0,0,0,0,0,0,0,8,0,0,2
647203936,647203936,42,0,0,16411,1518,1660,1111,1524,2074,1011,1002,1002,0,0,0,0,0,0,0,0,0,0,8,0,0,2
647698467,647698467,42,0,0,16407,1517,1660,1109,1523,2074,1011,1002,1002,0,0,0,0,0,0,0,0,0,0,8,0,0,2
648204365,648204365,42,0,0,16411,1517,1659,1110,1525,2074,1010,1002,1002,0,0,0,0,0,0,0,0,0,0,8,0,0,2
648705536,648705536,42,0,0,16409,1517,1659,1110,1525,2074,1010,1002,1002,0,0,0,0,0,0,0,0,0,0,8,0,0,2
649204798,649204798,42,0,0,16408,1518,1659,1110,1523,2075,1010,1002,1002,0,0,0,0,0,0,0,0,0,0,8,0,0,2
649695631,649695631,42,0,0,16408,1517,1659,1111,1523,2074,1011,1002,1002,0,0,0,0,0,0,0,0,0,0,8,0,0,2
650199854,650199854,42,0,0,16408,1517,1659,1111,1523,2074,1011,1002,1002,0,0,0,0,0,0,0,0,0,0,8,0,0,2
650696353,650696353,42,0,0,16408,1518,1659,1110,1523,2074,1011,1002,1002,0,0,0,0,0,0,0,0,0,0,8,0,0,2
651200200,651200200,42,0,0,16408,1517,1660,1110,1523,2074,1011,1002,1002,0,0,0,0,0,0,0,0,0,0,8,0,0,2
651706300,651706300,42,0,0,16408,1517,1659,1110,1524,2074,1010,1003,1002,0,0,0,0,0,0,0,0,0,0,8,0,0,2
652200962,652200962,42,0,0,16408,1518,1659,1110,1523,2075,1010,1002,1002,0,0,0,0,0,0,0,0,0,0,8,0,0,2
652690818,652690818,42,0,0,16408,1517,1659,1111,1523,2074,1011,1002,1002,0,0,0,0,0,0,0,0,0,0,8,0,0,2
653197038,653197038,42,0,0,16407,1517,1659,1110,1524,2074,1010,1002,1002,0,0,0,0,0,0,0,0,0,0,8,0,0,2
653697360,653697360,42,0,0,16407,1517,1659,1110,1524,2074,1011,1002,1002,0,0,0,0,0,0,0,0,0,0,8,0,0,2
654191676,654191676,42,0,0,16408,1517,1659,1110,1523,2075,1010,1002,1002,0,0,0,0,0,0,0,0,0,0,8,0,0,2
654708646,654708646,42,0,0,16407,1517,1659,1110,1523,2074,1011,1002,1002,0,0,0,0,0,0,0,0,0,0,8,0,0,2
655207982,655207982,42,0,0,16407,1518,1659,1109,1523,2074,1011,1002,1002,0,0,0,0,0,0,0,0,0,0,8,0,0,2
655708504,655708504,42,0,0,16406,1517,1659,1109,1523,2075,1010,1002,1002,0,0,0,0,0,0,0,0,0,0,8,0,0,2
656198499,656198499,42,0,0,16407,1517,1659,1109,1524,2074,1011,1002,1002,0,0,0,0,0,0,0,0,0,0,8,0,0,2
656709713,656709713,42,0,0,16407,1517,1660,1109,1523,2074,1011,1002,1002,0,0,0,0,0,0,0,0,0,0,8,0,0,2
657703413,657703413,42,0,0,16407,1517,1659,1110,1523,2074,1011,1002,1002,0,0,0,0,0,0,0,0,0,0,8,0,0,2
658193980,658193980,42,0,0,16407,1517,1659,1109,1524,2074,1010,1002,1003,0,0,0,0,0,0,0,0,0,0,8,0,0,2
658699982,658699982,42,0,0,16407,1517,1659,1110,1523,2074,1011,1002,1002,0,0,0,0,0,0,0,0,0,0,8,0,0,2
659210314,659210314,42,0,0,16407,1517,1659,1109,1524,2074,1010,1002,1002,0,0,0,0,0,0,0,0,0,0,8,0,0,2
659701025,659701025,42,0,0,16407,1517,1660,1109,1523,2074,1011,1002,1002,0,0,0,0,0,0,0,0,0,0,8,0,0,2
660200658,660200658,42,0,0,16407,1517,1659,1109,1524,2074,1010,1002,1002,0,0,0,0,0,0,0,0,0,0,8,0,0,2
660701165,660701165,42,0,0,16407,1518,1659,1109,1523,2074,1011,1002,1002,0,0,0,0,0,0,0,0,0,0,8,0,0,2
661211947,661211947,42,0,0,16407,1517,1659,1109,1524,2074,1011,1002,1002,0,0,0,0,0,0,0,0,0,0,8,0,0,2
661712392,661712392,42,0,0,16404,1518,1659,1106,1524,2075,1010,1002,1002,0,0,0,0,0,0,0,0,0,0,8,0,0,2
662206074,662206074,42,0,0,16405,1517,1659,1106,1525,2074,1010,1003,1002,0,0,0,0,0,0,0,0,0,0,8,0,0,2
662702018,662702018,42,0,0,16404,1517,1659,1106,1525,2074,1010,1002,1002,0,0,0,0,0,0,0,0,0,0,8,0,0,2
663202325,663202325,42,0,0,16404,1518,1659,1106,1524,2075,1010,1002,1002,0,0,0,0,0,0,0,0,0,0,8,0,0,2
663703422,663703422,42,0,0,16405,1518,1659,1106,1524,2074,1011,1002,1002,0,0,0,0,0,0,0,0,0,0,8,0,0,2
664197239,664197239,42,0,0,16405,1518,1659,1106,1524,2074,1011,1002,1002,0,0,0,0,0,0,0,0,0,0,8,0,0,2
664714655,664714655,42,0,0,16405,1518,1659,1106,1524,2074,1011,1002,1002,0,0,0,0,0,0,0,0,0,0,8,0,0,2
665194106,665194106,42,0,0,16405,1518,1659,1106,1524,2074,1011,1002,1002,0,0,0,0,0,0,0,0,0,0,8,0,0,2
665697860,665697860,42,0,0,16405,1517,1659,1107,1524,2074,1011,1002,1002,0,0,0,0,0,0,0,0,0,0,8,0,0,2
666214700,666214700,42,0,0,16405,1517,1660,1106,1524,2074,1011,1002,1002,0,0,0,0,0,0,0,0,0,0,8,0,0,2
666704376,666704376,42,0,0,16405,1517,1660,1106,1524,2074,1011,1002,1002,0,0,0,0,0,0,0,0,0,0,8,0,0,2
667709361,667709361,42,0,0,16405,1517,1659,1106,1526,2075,1010,1002,1002,0,0,0,0,0,0,0,0,0,0,8,0,0,2
668195631,668195631,42,0,0,16407,1517,1659,1106,1526,2074,1011,1002,1002,0,0,0,0,0,0,0,0,0,0,8,0,0,2
668696366,668696366,42,0,0,16406,1517,1659,1106,1526,2074,1011,1002,1002,0,0,0,0,0,0,0,0,0,0,8,0,0,2
669210186,669210186,42,0,0,16406,1517,1660,1106,1526,2074,1010,1002,1003,0,0,0,0,0,0,0,0,0,0,8,0,0,2
669690455,669690455,42,0,0,16407,1518,1659,1106,1526,2074,1011,1002,1002,0,0,0,0,0,0,0,0,0,0,8,0,0,2
670210798,670210798,42,0,0,16407,1517,1659,1106,1526,2075,1010,1002,1002,0,0,0,0,0,0,0,0,0,0,8,0,0,2
670700771,670700771,42,0,0,16406,1517,1659,1107,1526,2074,1010,1002,1002,0,0,0,0,0,0,0,0,0,0,8,0,0,2
671191205,671191205,42,0,0,16408,1517,1660,1106,1526,2075,1010,1002,1002,0,0,0,0,0,0,0,0,0,0,8,0,0,2
671711234,671711234,42,0,0,16407,1517,1659,1107,1526,2074,1011,1002,1002,0,0,0,0,0,0,0,0,0,0,8,0,0,2
672211494,672211494,42,0,0,16407,1517,1660,1106,1526,2074,1011,1002,1002,0,0,0,0,0,0,0,0,0,0,8,0,0,2
672702671,672702671,42,0,0,16408,1518,1659,1107,1526,2074,1011,1002,1002,0,0,0,0,0,0,0,0,0,0,8,0,0,2
673198019,673198019,42,0,0,16408,1518,1659,1107,1526,2074,1011,1002,1002,0,0,0,0,0,0,0,0,0,0,8,0,0,2
673712506,673712506,42,0,0,16408,1517,1659,1107,1526,2074,1011,1002,1002,0,0,0,0,0,0,0,0,0,0,8,0,0,2
674202796,674202796,42,0,0,16408,1517,1660,1107,1526,2074,1010,1002,1002,0,0,0,0,0,0,0,0,0,0,8,0,0,2
674698877,674698877,42,0,0,16407,1517,1660,1106,1526,2075,1010,1002,1002,0,0,0,0,0,0,0,0,0,0,8,0,0,2
675203414,675203414,42,0,0,16408,1517,1660,1106,1526,2075,1010,1002,1002,0,0,0,0,0,0,0,0,0,0,8,0,0,2
675699468,675699468,42,0,0,16407,1517,1660,1106,1526,2074,1011,1002,1002,0,0,0,0,0,0,0,0,0,0,8,0,0,2
676203842,676203842,42,0,0,16407,1517,1659,1107,1526,2074,1011,1002,1002,0,0,0,0,0,0,0,0,0,0,8,0,0,2
676704070,676704070,42,0,0,16407,1517,1660,1106,1526,2074,1011,1002,1002,0,0,0,0,0,0,0,0,0,0,8,0,0,2
677214330,677214330,42,0,0,16406,1518,1660,1106,1525,2074,1011,1002,1002,0,0,0,0,0,0,0,0,0,0,8,0,0,2
677704789,677704789,42,0,0,16407,1518,1659,1107,1524,2074,1011,1002,1002,0,0,0,0,0,0,0,0,0,0,8,0,0,2
678205056,678205056,42,0,0,16406,1517,1660,1107,1524,2074,1011,1002,1002,0,0,0,0,0,0,0,0,0,0,8,0,0,2
678696933,678696933,42,0,0,16406,1518,1659,1107,1524,2074,1011,1002,1002,0,0,0,0,0,0,0,0,0,0,8,0,0,2
679196900,679196900,42,0,0,16406,1518,1659,1107,1524,2074,1011,1002,1002,0,0,0,0,0,0,0,0,0,0,8,0,0,2
679710887,679710887,42,0,0,16406,1518,1660,1106,1525,2074,1010,1002,1002,0,0,0,0,0,0,0,0,0,0,8,0,0,2
680196954,680196954,42,0,0,16406,1518,1660,1106,1525,2074,1010,1002,1003,0,0,0,0,0,0,0,0,0,0,8,0,0,2
680697464,680697464,42,0,0,16407,1518,1660,1106,1525,2074,1010,1002,1003,0,0,0,0,0,0,0,0,0,0,8,0,0,2
681201845,681201845,42,0,0,16406,1518,1660,1106,1525,2074,1010,1002,1003,0,0,0,0,0,0,0,0,0,0,8,0,0,2
681697799,681697799,42,0,0,16406,1518,1659,1107,1524,2074,1011,1002,1002,0,0,0,0,0,0,0,0,0,0,8,0,0,2
682207721,682207721,42,0,0,16407,1518,1660,1107,1524,2074,1011,1002,1002,0,0,0,0,0,0,0,0,0,0,8,0,0,2
682702612,682702612,42,0,0,16407,1518,1659,1107,1524,2075,1010,1002,1002,0,0,0,0,0,0,0,0,0,0,8,0,0,2
683208868,683208868,42,0,0,16406,1518,1659,1107,1525,2074,1010,1002,1002,0,0,0,0,0,0,0,0,0,0,8,0,0,2
683708327,683708327,42,0,0,16406,1518,1659,1107,1525,2074,1010,1002,1002,0,0,0,0,0,0,0,0,0,0,8,0,0,2
684198400,684198400,42,0,0,16406,1518,1660,1106,1525,2074,1010,1002,1003,0,0,0,0,0,0,0,0,0,0,8,0,0,2
684704607,684704607,42,0,0,16406,1518,1660,1106,1525,2074,1011,1002,1002,0,0,0,0,0,0,0,0,0,0,8,0,0,2
685209144,685209144,42,0,0,16406,1518,1660,1106,1525,2074,1011,1002,1002,0,0,0,0,0,0,0,0,0,0,8,0,0,2
685705352,685705352,42,0,0,16406,1518,1660,1106,1525,2074,1010,1002,1003,0,0,0,0,0,0,0,0,0,0,8,0,0,2
686205457,686205457,42,0,0,16406,1518,1659,1107,1524,2074,1011,1002,1002,0,0,0,0,0,0,0,0,0,0,8,0,0,2
686705738,686705738,42,0,0,16406,1518,1660,1106,1525,2074,1010,1002,1003,0,0,0,0,0,0,0,0,0,0,8,0,0,2
687206099,687206099,42,0,0,16407,1518,1659,1107,1524,2074,1011,1002,1002,0,0,0,0,0,0,0,0,0,0,8,0,0,2
687696398,687696398,42,0,0,16407,1518,1659,1107,1525,2074,1010,1002,1002,0,0,0,0,0,0,0,0,0,0,8,0,0,2
688210966,688210966,42,0,0,16406,1518,1659,1107,1524,2074,1011,1002,1002,0,0,0,0,0,0,0,0,0,0,8,0,0,2
688707075,688707075,42,0,0,16406,1518,1660,1106,1525,2074,1010,1002,1002,0,0,0,0,0,0,0,0,0,0,8,0,0,2
689211425,689211425,42,0,0,16407,1518,1660,1106,1525,2074,1010,1002,1003,0,0,0,0,0,0,0,0,0,0,8,0,0,2
689697729,689697729,42,0,0,16406,1518,1659,1107,1524,2075,1010,1002,1002,0,0,0,0,0,0,0,0,0,0,8,0,0,2
690208403,690208403,42,0,0,16406,1518,1659,1107,1524,2075,1010,1002,1002,0,0,0,0,0,0,0,0,0,0,8,0,0,2
690712309,690712309,42,0,0,16407,1518,1660,1106,1525,2074,1011,1002,1002,0,0,0,0,0,0,0,0,0,0,8,0,0,2
691208918,691208918,42,0,0,16407,1517,1660,1107,1524,2074,1011,1002,1002,0,0,0,0,0,0,0,0,0,0,8,0,0,2
691703047,691703047,42,0,0,16406,1518,1659,1107,1524,2075,1010,1002,1002,0,0,0,0,0,0,0,0,0,0,8,0,0,2
692203228,692203228,42,0,0,16406,1517,1660,1107,1524,2074,1011,1002,1002,0,0,0,0,0,0,0,0,0,0,8,0,0,2
692703696,692703696,42,0,0,16406,1518,1659,1107,1524,2075,1010,1002,1002,0,0,0,0,0,0,0,0,0,0,8,0,0,2
693194665,693194665,42,0,0,16406,1517,1660,1107,1524,2074,1011,1002,1002,0,0,0,0,0,0,0,0,0,0,8,0,0,2
693710568,693710568,42,0,0,16407,1518,1659,1107,1525,2074,1010,1002,1002,0,0,0,0,0,0,0,0,0,0,8,0,0,2
694214564,694214564,42,0,0,16407,1518,1659,1107,1524,2075,1010,1002,1002,0,0,0,0,0,0,0,0,0,0,8,0,0,2
694704659,694704659,42,0,0,16407,1518,1660,1106,1525,2074,1010,1003,1002,0,0,0,0,0,0,0,0,0,0,8,0,0,2
695195474,695195474,42,0,0,16407,1518,1660,1106,1525,2074,1011,1002,1002,0,0,0,0,0,0,0,0,0,0,8,0,0,2
695711481,695711481,42,0,0,16407,1518,1659,1107,1525,2074,1010,1002,1002,0,0,0,0,0,0,0,0,0,0,8,0,0,2
