timestamp,accel_device_id_primary,accel_device_ids[0],accel_device_ids[1],accel_device_ids[2],accel_device_ids[3],accel_inconsistency_m_s_s[0],accel_inconsistency_m_s_s[1],accel_inconsistency_m_s_s[2],accel_inconsistency_m_s_s[3],gyro_device_id_primary,gyro_device_ids[0],gyro_device_ids[1],gyro_device_ids[2],gyro_device_ids[3],gyro_inconsistency_rad_s[0],gyro_inconsistency_rad_s[1],gyro_inconsistency_rad_s[2],gyro_inconsistency_rad_s[3],accel_healthy[0],accel_healthy[1],accel_healthy[2],accel_healthy[3],gyro_healthy[0],gyro_healthy[1],gyro_healthy[2],gyro_healthy[3]
394713318,2162698,2162698,1114122,0,0,0.08564659,0.08564653,0.0,0.0,2162698,2162698,2228234,0,0,0.008747121,0.008747121,0.0,0.0,1,1,0,0,1,1,0,0
394913548,2162698,2162698,1114122,0,0,0.11646008,0.11646003,0.0,0.0,2162698,2162698,2228234,0,0,0.008956433,0.008956433,0.0,0.0,1,1,0,0,1,1,0,0
395113859,2162698,2162698,1114122,0,0,0.11515611,0.115156114,0.0,0.0,2162698,2162698,2228234,0,0,0.008727912,0.008727913,0.0,0.0,1,1,0,0,1,1,0,0
395313840,2162698,2162698,1114122,0,0,0.12300283,0.123002835,0.0,0.0,2162698,2162698,2228234,0,0,0.0096375365,0.0096375365,0.0,0.0,1,1,0,0,1,1,0,0
395514219,2162698,2162698,1114122,0,0,0.091928035,0.091927975,0.0,0.0,2162698,2162698,2228234,0,0,0.008468666,0.008468666,0.0,0.0,1,1,0,0,1,1,0,0
395714158,2162698,2162698,1114122,0,0,0.11636656,0.11636658,0.0,0.0,2162698,2162698,2228234,0,0,0.008563302,0.008563302,0.0,0.0,1,1,0,0,1,1,0,0
395914432,2162698,2162698,1114122,0,0,0.12022669,0.12022672,0.0,0.0,2162698,2162698,2228234,0,0,0.008937049,0.008937049,0.0,0.0,1,1,0,0,1,1,0,0
396114893,2162698,2162698,1114122,0,0,0.10062802,0.10062798,0.0,0.0,2162698,2162698,2228234,0,0,0.008522426,0.008522426,0.0,0.0,1,1,0,0,1,1,0,0
396314619,2162698,2162698,1114122,0,0,0.12606126,0.12606122,0.0,0.0,2162698,2162698,2228234,0,0,0.009441778,0.009441778,0.0,0.0,1,1,0,0,1,1,0,0
396514823,2162698,2162698,1114122,0,0,0.11542502,0.11542495,0.0,0.0,2162698,2162698,2228234,0,0,0.00995026,0.009950259,0.0,0.0,1,1,0,0,1,1,0,0
396714949,2162698,2162698,1114122,0,0,0.103654996,0.103655055,0.0,0.0,2162698,2162698,2228234,0,0,0.01029956,0.010299559,0.0,0.0,1,1,0,0,1,1,0,0
396915097,2162698,2162698,1114122,0,0,0.11661052,0.116610564,0.0,0.0,2162698,2162698,2228234,0,0,0.009236898,0.009236898,0.0,0.0,1,1,0,0,1,1,0,0
397115252,2162698,2162698,1114122,0,0,0.09894334,0.09894332,0.0,0.0,2162698,2162698,2228234,0,0,0.009691572,0.009691573,0.0,0.0,1,1,0,0,1,1,0,0
397315729,2162698,2162698,1114122,0,0,0.11789542,0.11789547,0.0,0.0,2162698,2162698,2228234,0,0,0.010617596,0.010617597,0.0,0.0,1,1,0,0,1,1,0,0
397715781,2162698,2162698,1114122,0,0,0.11633492,0.11633486,0.0,0.0,2162698,2162698,2228234,0,0,0.008516743,0.008516743,0.0,0.0,1,1,0,0,1,1,0,0
397910992,2162698,2162698,1114122,0,0,0.10679777,0.10679776,0.0,0.0,2162698,2162698,2228234,0,0,0.009935792,0.009935792,0.0,0.0,1,1,0,0,1,1,0,0
398111079,2162698,2162698,1114122,0,0,0.10754003,0.107540086,0.0,0.0,2162698,2162698,2228234,0,0,0.008820098,0.008820098,0.0,0.0,1,1,0,0,1,1,0,0
398311232,2162698,2162698,1114122,0,0,0.14241284,0.14241278,0.0,0.0,2162698,2162698,2228234,0,0,0.008378123,0.008378122,0.0,0.0,1,1,0,0,1,1,0,0
398511563,2162698,2162698,1114122,0,0,0.12754121,0.1275412,0.0,0.0,2162698,2162698,2228234,0,0,0.009395956,0.009395956,0.0,0.0,1,1,0,0,1,1,0,0
398711688,2162698,2162698,1114122,0,0,0.122627355,0.12262728,0.0,0.0,2162698,2162698,2228234,0,0,0.009667738,0.009667738,0.0,0.0,1,1,0,0,1,1,0,0
398911750,2162698,2162698,1114122,0,0,0.092055276,0.092055306,0.0,0.0,2162698,2162698,2228234,0,0,0.008592436,0.008592436,0.0,0.0,1,1,0,0,1,1,0,0
399111929,2162698,2162698,1114122,0,0,0.11493647,0.11493651,0.0,0.0,2162698,2162698,2228234,0,0,0.009691538,0.009691538,0.0,0.0,1,1,0,0,1,1,0,0
399512332,2162698,2162698,1114122,0,0,0.1015155,0.10151537,0.0,0.0,2162698,2162698,2228234,0,0,0.009367584,0.009367584,0.0,0.0,1,1,0,0,1,1,0,0
399712439,2162698,2162698,1114122,0,0,0.11845662,0.1184566,0.0,0.0,2162698,2162698,2228234,0,0,0.008780147,0.008780147,0.0,0.0,1,1,0,0,1,1,0,0
399912796,2162698,2162698,1114122,0,0,0.118000604,0.11800067,0.0,0.0,2162698,2162698,2228234,0,0,0.0079324795,0.0079324795,0.0,0.0,1,1,0,0,1,1,0,0
400513046,2162698,2162698,1114122,0,0,0.11274129,0.11274126,0.0,0.0,2162698,2162698,2228234,0,0,0.009564246,0.009564246,0.0,0.0,1,1,0,0,1,1,0,0
400713200,2162698,2162698,1114122,0,0,0.10476362,0.104763635,0.0,0.0,2162698,2162698,2228234,0,0,0.009697417,0.009697418,0.0,0.0,1,1,0,0,1,1,0,0
401113581,2162698,2162698,1114122,0,0,0.11389477,0.113894746,0.0,0.0,2162698,2162698,2228234,0,0,0.009413292,0.009413291,0.0,0.0,1,1,0,0,1,1,0,0
401313898,2162698,2162698,1114122,0,0,0.1125281,0.112528145,0.0,0.0,2162698,2162698,2228234,0,0,0.010123425,0.010123424,0.0,0.0,1,1,0,0,1,1,0,0
401513991,2162698,2162698,1114122,0,0,0.107810736,0.10781068,0.0,0.0,2162698,2162698,2228234,0,0,0.008460791,0.00846079,0.0,0.0,1,1,0,0,1,1,0,0
401714235,2162698,2162698,1114122,0,0,0.10546439,0.10546435,0.0,0.0,2162698,2162698,2228234,0,0,0.009050147,0.009050147,0.0,0.0,1,1,0,0,1,1,0,0
401914452,2162698,2162698,1114122,0,0,0.11224861,0.11224857,0.0,0.0,2162698,2162698,2228234,0,0,0.010141905,0.010141905,0.0,0.0,1,1,0,0,1,1,0,0
402114639,2162698,2162698,1114122,0,0,0.11410517,0.114105165,0.0,0.0,2162698,2162698,2228234,0,0,0.008489664,0.008489664,0.0,0.0,1,1,0,0,1,1,0,0
402314887,2162698,2162698,1114122,0,0,0.11106579,0.11106582,0.0,0.0,2162698,2162698,2228234,0,0,0.008863209,0.008863209,0.0,0.0,1,1,0,0,1,1,0,0
402514943,2162698,2162698,1114122,0,0,0.10761531,0.10761525,0.0,0.0,2162698,2162698,2228234,0,0,0.007516235,0.0075162346,0.0,0.0,1,1,0,0,1,1,0,0
402715230,2162698,2162698,1114122,0,0,0.116758615,0.11675863,0.0,0.0,2162698,2162698,2228234,0,0,0.008579027,0.008579027,0.0,0.0,1,1,0,0,1,1,0,0
402915052,2162698,2162698,1114122,0,0,0.11622538,0.11622537,0.0,0.0,2162698,2162698,2228234,0,0,0.009122464,0.009122464,0.0,0.0,1,1,0,0,1,1,0,0
403115241,2162698,2162698,1114122,0,0,0.08790789,0.08790785,0.0,0.0,2162698,2162698,2228234,0,0,0.009345903,0.009345904,0.0,0.0,1,1,0,0,1,1,0,0
403315632,2162698,2162698,1114122,0,0,0.111502975,0.111503035,0.0,0.0,2162698,2162698,2228234,0,0,0.009618184,0.009618184,0.0,0.0,1,1,0,0,1,1,0,0
403515552,2162698,2162698,1114122,0,0,0.12859952,0.12859952,0.0,0.0,2162698,2162698,2228234,0,0,0.009090549,0.009090548,0.0,0.0,1,1,0,0,1,1,0,0
403715963,2162698,2162698,1114122,0,0,0.11334123,0.11334126,0.0,0.0,2162698,2162698,2228234,0,0,0.009086134,0.009086135,0.0,0.0,1,1,0,0,1,1,0,0
403916117,2162698,2162698,1114122,0,0,0.08848235,0.08848239,0.0,0.0,2162698,2162698,2228234,0,0,0.008794091,0.008794091,0.0,0.0,1,1,0,0,1,1,0,0
404111070,2162698,2162698,1114122,0,0,0.117057756,0.11705778,0.0,0.0,2162698,2162698,2228234,0,0,0.009024004,0.009024004,0.0,0.0,1,1,0,0,1,1,0,0
404311168,2162698,2162698,1114122,0,0,0.12642784,0.12642787,0.0,0.0,2162698,2162698,2228234,0,0,0.009263316,0.009263315,0.0,0.0,1,1,0,0,1,1,0,0
404511320,2162698,2162698,1114122,0,0,0.100868866,0.10086886,0.0,0.0,2162698,2162698,2228234,0,0,0.0090545835,0.0090545835,0.0,0.0,1,1,0,0,1,1,0,0
404711516,2162698,2162698,1114122,0,0,0.122135386,0.12213534,0.0,0.0,2162698,2162698,2228234,0,0,0.008830338,0.008830338,0.0,0.0,1,1,0,0,1,1,0,0
404911740,2162698,2162698,1114122,0,0,0.111604325,0.1116043,0.0,0.0,2162698,2162698,2228234,0,0,0.00846464,0.008464641,0.0,0.0,1,1,0,0,1,1,0,0
405111822,2162698,2162698,1114122,0,0,0.12902473,0.12902471,0.0,0.0,2162698,2162698,2228234,0,0,0.008659808,0.008659808,0.0,0.0,1,1,0,0,1,1,0,0
405312057,2162698,2162698,1114122,0,0,0.10771004,0.10771009,0.0,0.0,2162698,2162698,2228234,0,0,0.008952855,0.008952855,0.0,0.0,1,1,0,0,1,1,0,0
405512289,2162698,2162698,1114122,0,0,0.1040757,0.104075745,0.0,0.0,2162698,2162698,2228234,0,0,0.008986497,0.008986496,0.0,0.0,1,1,0,0,1,1,0,0
405712431,2162698,2162698,1114122,0,0,0.12031981,0.12031993,0.0,0.0,2162698,2162698,2228234,0,0,0.008617829,0.008617829,0.0,0.0,1,1,0,0,1,1,0,0
405912494,2162698,2162698,1114122,0,0,0.13214204,0.13214222,0.0,0.0,2162698,2162698,2228234,0,0,0.009220795,0.009220795,0.0,0.0,1,1,0,0,1,1,0,0
406112686,2162698,2162698,1114122,0,0,0.11288221,0.112882264,0.0,0.0,2162698,2162698,2228234,0,0,0.008009346,0.008009346,0.0,0.0,1,1,0,0,1,1,0,0
406312796,2162698,2162698,1114122,0,0,0.12446385,0.12446385,0.0,0.0,2162698,2162698,2228234,0,0,0.009528319,0.009528321,0.0,0.0,1,1,0,0,1,1,0,0
406513038,2162698,2162698,1114122,0,0,0.10439102,0.10439103,0.0,0.0,2162698,2162698,2228234,0,0,0.009342805,0.0093428055,0.0,0.0,1,1,0,0,1,1,0,0
406713436,2162698,2162698,1114122,0,0,0.122287154,0.122287154,0.0,0.0,2162698,2162698,2228234,0,0,0.009842444,0.009842444,0.0,0.0,1,1,0,0,1,1,0,0
406913364,2162698,2162698,1114122,0,0,0.12205598,0.122056,0.0,0.0,2162698,2162698,2228234,0,0,0.009106978,0.009106979,0.0,0.0,1,1,0,0,1,1,0,0
407313714,2162698,2162698,1114122,0,0,0.13122503,0.131225,0.0,0.0,2162698,2162698,2228234,0,0,0.009402673,0.009402672,0.0,0.0,1,1,0,0,1,1,0,0
407513860,2162698,2162698,1114122,0,0,0.09814056,0.09814057,0.0,0.0,2162698,2162698,2228234,0,0,0.008076807,0.008076807,0.0,0.0,1,1,0,0,1,1,0,0
407714085,2162698,2162698,1114122,0,0,0.09574576,0.09574588,0.0,0.0,2162698,2162698,2228234,0,0,0.010160779,0.010160779,0.0,0.0,1,1,0,0,1,1,0,0
407914177,2162698,2162698,1114122,0,0,0.096165486,0.09616545,0.0,0.0,2162698,2162698,2228234,0,0,0.007634137,0.007634137,0.0,0.0,1,1,0,0,1,1,0,0
408114556,2162698,2162698,1114122,0,0,0.10793687,0.10793681,0.0,0.0,2162698,2162698,2228234,0,0,0.008679913,0.008679914,0.0,0.0,1,1,0,0,1,1,0,0
408314443,2162698,2162698,1114122,0,0,0.09685159,0.096851565,0.0,0.0,2162698,2162698,2228234,0,0,0.008549573,0.008549573,0.0,0.0,1,1,0,0,1,1,0,0
408514617,2162698,2162698,1114122,0,0,0.1036005,0.10360046,0.0,0.0,2162698,2162698,2228234,0,0,0.009082692,0.009082691,0.0,0.0,1,1,0,0,1,1,0,0
408714837,2162698,2162698,1114122,0,0,0.083934605,0.08393456,0.0,0.0,2162698,2162698,2228234,0,0,0.008533804,0.008533804,0.0,0.0,1,1,0,0,1,1,0,0
408914923,2162698,2162698,1114122,0,0,0.08940463,0.089404576,0.0,0.0,2162698,2162698,2228234,0,0,0.008259528,0.008259528,0.0,0.0,1,1,0,0,1,1,0,0
409115160,2162698,2162698,1114122,0,0,0.11125924,0.11125921,0.0,0.0,2162698,2162698,2228234,0,0,0.009079073,0.009079073,0.0,0.0,1,1,0,0,1,1,0,0
409315487,2162698,2162698,1114122,0,0,0.0956374,0.09563744,0.0,0.0,2162698,2162698,2228234,0,0,0.007859957,0.0078599565,0.0,0.0,1,1,0,0,1,1,0,0
409515512,2162698,2162698,1114122,0,0,0.090138264,0.09013823,0.0,0.0,2162698,2162698,2228234,0,0,0.008561395,0.008561395,0.0,0.0,1,1,0,0,1,1,0,0
409715629,2162698,2162698,1114122,0,0,0.07977801,0.07977803,0.0,0.0,2162698,2162698,2228234,0,0,0.009124947,0.009124947,0.0,0.0,1,1,0,0,1,1,0,0
409915759,2162698,2162698,1114122,0,0,0.11669719,0.11669719,0.0,0.0,2162698,2162698,2228234,0,0,0.008003025,0.008003025,0.0,0.0,1,1,0,0,1,1,0,0
410110872,2162698,2162698,1114122,0,0,0.09493828,0.094938256,0.0,0.0,2162698,2162698,2228234,0,0,0.008925094,0.008925094,0.0,0.0,1,1,0,0,1,1,0,0
410311033,2162698,2162698,1114122,0,0,0.08550618,0.08550619,0.0,0.0,2162698,2162698,2228234,0,0,0.0087402705,0.0087402705,0.0,0.0,1,1,0,0,1,1,0,0
410511187,2162698,2162698,1114122,0,0,0.09678204,0.09678194,0.0,0.0,2162698,2162698,2228234,0,0,0.009401858,0.009401859,0.0,0.0,1,1,0,0,1,1,0,0
410711425,2162698,2162698,1114122,0,0,0.1039076,0.10390765,0.0,0.0,2162698,2162698,2228234,0,0,0.0082133,0.008213299,0.0,0.0,1,1,0,0,1,1,0,0
410911579,2162698,2162698,1114122,0,0,0.106603116,0.106603175,0.0,0.0,2162698,2162698,2228234,0,0,0.008786926,0.008786925,0.0,0.0,1,1,0,0,1,1,0,0
411111762,2162698,2162698,1114122,0,0,0.091206186,0.09120623,0.0,0.0,2162698,2162698,2228234,0,0,0.007911541,0.007911541,0.0,0.0,1,1,0,0,1,1,0,0
411311885,2162698,2162698,1114122,0,0,0.106426165,0.1064262,0.0,0.0,2162698,2162698,2228234,0,0,0.008523439,0.008523439,0.0,0.0,1,1,0,0,1,1,0,0
411512247,2162698,2162698,1114122,0,0,0.11182258,0.11182254,0.0,0.0,2162698,2162698,2228234,0,0,0.008665756,0.008665756,0.0,0.0,1,1,0,0,1,1,0,0
411712159,2162698,2162698,1114122,0,0,0.11625468,0.116254546,0.0,0.0,2162698,2162698,2228234,0,0,0.008447467,0.008447467,0.0,0.0,1,1,0,0,1,1,0,0
411912368,2162698,2162698,1114122,0,0,0.12582013,0.12582012,0.0,0.0,2162698,2162698,2228234,0,0,0.007616009,0.007616008,0.0,0.0,1,1,0,0,1,1,0,0
412112564,2162698,2162698,1114122,0,0,0.11497408,0.11497411,0.0,0.0,2162698,2162698,2228234,0,0,0.008680794,0.008680794,0.0,0.0,1,1,0,0,1,1,0,0
412312696,2162698,2162698,1114122,0,0,0.10726959,0.10726973,0.0,0.0,2162698,2162698,2228234,0,0,0.008972548,0.008972549,0.0,0.0,1,1,0,0,1,1,0,0
412512819,2162698,2162698,1114122,0,0,0.11133637,0.11133637,0.0,0.0,2162698,2162698,2228234,0,0,0.008926172,0.008926172,0.0,0.0,1,1,0,0,1,1,0,0
412713023,2162698,2162698,1114122,0,0,0.102393225,0.10239333,0.0,0.0,2162698,2162698,2228234,0,0,0.008967629,0.008967629,0.0,0.0,1,1,0,0,1,1,0,0
412913161,2162698,2162698,1114122,0,0,0.07754956,0.07754957,0.0,0.0,2162698,2162698,2228234,0,0,0.00923283,0.009232832,0.0,0.0,1,1,0,0,1,1,0,0
413113538,2162698,2162698,1114122,0,0,0.116418555,0.11641857,0.0,0.0,2162698,2162698,2228234,0,0,0.009038147,0.009038147,0.0,0.0,1,1,0,0,1,1,0,0
413313483,2162698,2162698,1114122,0,0,0.07469953,0.074699566,0.0,0.0,2162698,2162698,2228234,0,0,0.00857243,0.00857243,0.0,0.0,1,1,0,0,1,1,0,0
413513881,2162698,2162698,1114122,0,0,0.1119156,0.11191557,0.0,0.0,2162698,2162698,2228234,0,0,0.0069665113,0.006966511,0.0,0.0,1,1,0,0,1,1,0,0
413714075,2162698,2162698,1114122,0,0,0.11162514,0.111625,0.0,0.0,2162698,2162698,2228234,0,0,0.007967849,0.007967849,0.0,0.0,1,1,0,0,1,1,0,0
413914135,2162698,2162698,1114122,0,0,0.0977245,0.09772444,0.0,0.0,2162698,2162698,2228234,0,0,0.008031458,0.008031458,0.0,0.0,1,1,0,0,1,1,0,0
414114281,2162698,2162698,1114122,0,0,0.10928971,0.10928974,0.0,0.0,2162698,2162698,2228234,0,0,0.008061019,0.008061018,0.0,0.0,1,1,0,0,1,1,0,0
414314430,2162698,2162698,1114122,0,0,0.11005338,0.11005354,0.0,0.0,2162698,2162698,2228234,0,0,0.0085295,0.0085295,0.0,0.0,1,1,0,0,1,1,0,0
414514677,2162698,2162698,1114122,0,0,0.12057046,0.120570466,0.0,0.0,2162698,2162698,2228234,0,0,0.008016239,0.008016239,0.0,0.0,1,1,0,0,1,1,0,0
414714933,2162698,2162698,1114122,0,0,0.1168827,0.11688276,0.0,0.0,2162698,2162698,2228234,0,0,0.008219219,0.008219219,0.0,0.0,1,1,0,0,1,1,0,0
414914845,2162698,2162698,1114122,0,0,0.10958837,0.10958835,0.0,0.0,2162698,2162698,2228234,0,0,0.008663053,0.008663053,0.0,0.0,1,1,0,0,1,1,0,0
415115247,2162698,2162698,1114122,0,0,0.108389065,0.108389124,0.0,0.0,2162698,2162698,2228234,0,0,0.008223698,0.008223698,0.0,0.0,1,1,0,0,1,1,0,0
415315364,2162698,2162698,1114122,0,0,0.10880496,0.10880492,0.0,0.0,2162698,2162698,2228234,0,0,0.0083552,0.0083552,0.0,0.0,1,1,0,0,1,1,0,0
415515554,2162698,2162698,1114122,0,0,0.120667376,0.120667376,0.0,0.0,2162698,2162698,2228234,0,0,0.008368274,0.008368275,0.0,0.0,1,1,0,0,1,1,0,0
415715857,2162698,2162698,1114122,0,0,0.11283703,0.11283704,0.0,0.0,2162698,2162698,2228234,0,0,0.008261329,0.008261329,0.0,0.0,1,1,0,0,1,1,0,0
416116228,2162698,2162698,1114122,0,0,0.115710065,0.115710095,0.0,0.0,2162698,2162698,2228234,0,0,0.00880722,0.0088072205,0.0,0.0,1,1,0,0,1,1,0,0
416311191,2162698,2162698,1114122,0,0,0.109474644,0.109474696,0.0,0.0,2162698,2162698,2228234,0,0,0.0072956723,0.0072956714,0.0,0.0,1,1,0,0,1,1,0,0
416511175,2162698,2162698,1114122,0,0,0.09833586,0.09833589,0.0,0.0,2162698,2162698,2228234,0,0,0.008050681,0.008050681,0.0,0.0,1,1,0,0,1,1,0,0
416711223,2162698,2162698,1114122,0,0,0.0965853,0.09658529,0.0,0.0,2162698,2162698,2228234,0,0,0.007884812,0.007884811,0.0,0.0,1,1,0,0,1,1,0,0
417111672,2162698,2162698,1114122,0,0,0.123429626,0.123429656,0.0,0.0,2162698,2162698,2228234,0,0,0.0077175186,0.0077175195,0.0,0.0,1,1,0,0,1,1,0,0
417311831,2162698,2162698,1114122,0,0,0.115227655,0.115227655,0.0,0.0,2162698,2162698,2228234,0,0,0.008234002,0.008234003,0.0,0.0,1,1,0,0,1,1,0,0
417511900,2162698,2162698,1114122,0,0,0.101964295,0.10196425,0.0,0.0,2162698,2162698,2228234,0,0,0.008730971,0.008730971,0.0,0.0,1,1,0,0,1,1,0,0
417712199,2162698,2162698,1114122,0,0,0.10572149,0.10572147,0.0,0.0,2162698,2162698,2228234,0,0,0.008906417,0.008906416,0.0,0.0,1,1,0,0,1,1,0,0
417912306,2162698,2162698,1114122,0,0,0.10538749,0.10538749,0.0,0.0,2162698,2162698,2228234,0,0,0.0073662596,0.0073662596,0.0,0.0,1,1,0,0,1,1,0,0
418112405,2162698,2162698,1114122,0,0,0.09703501,0.097034976,0.0,0.0,2162698,2162698,2228234,0,0,0.007930899,0.007930898,0.0,0.0,1,1,0,0,1,1,0,0
418312599,2162698,2162698,1114122,0,0,0.09746078,0.097460784,0.0,0.0,2162698,2162698,2228234,0,0,0.008712517,0.008712516,0.0,0.0,1,1,0,0,1,1,0,0
418512790,2162698,2162698,1114122,0,0,0.10398348,0.10398336,0.0,0.0,2162698,2162698,2228234,0,0,0.007512041,0.0075120414,0.0,0.0,1,1,0,0,1,1,0,0
418713046,2162698,2162698,1114122,0,0,0.1079237,0.10792373,0.0,0.0,2162698,2162698,2228234,0,0,0.007930675,0.007930675,0.0,0.0,1,1,0,0,1,1,0,0
418913126,2162698,2162698,1114122,0,0,0.11241788,0.11241778,0.0,0.0,2162698,2162698,2228234,0,0,0.0085686,0.0085686,0.0,0.0,1,1,0,0,1,1,0,0
419113294,2162698,2162698,1114122,0,0,0.106983416,0.10698333,0.0,0.0,2162698,2162698,2228234,0,0,0.008499697,0.008499697,0.0,0.0,1,1,0,0,1,1,0,0
419313533,2162698,2162698,1114122,0,0,0.108048685,0.108048715,0.0,0.0,2162698,2162698,2228234,0,0,0.0091499165,0.009149916,0.0,0.0,1,1,0,0,1,1,0,0
419513524,2162698,2162698,1114122,0,0,0.10532804,0.105328,0.0,0.0,2162698,2162698,2228234,0,0,0.009197717,0.009197717,0.0,0.0,1,1,0,0,1,1,0,0
419713744,2162698,2162698,1114122,0,0,0.09216286,0.09216288,0.0,0.0,2162698,2162698,2228234,0,0,0.008032107,0.008032106,0.0,0.0,1,1,0,0,1,1,0,0
419913911,2162698,2162698,1114122,0,0,0.103903376,0.103903346,0.0,0.0,2162698,2162698,2228234,0,0,0.008694908,0.008694908,0.0,0.0,1,1,0,0,1,1,0,0
420114114,2162698,2162698,1114122,0,0,0.10064345,0.10064332,0.0,0.0,2162698,2162698,2228234,0,0,0.008104793,0.008104793,0.0,0.0,1,1,0,0,1,1,0,0
420314195,2162698,2162698,1114122,0,0,0.08485119,0.08485119,0.0,0.0,2162698,2162698,2228234,0,0,0.008157921,0.008157921,0.0,0.0,1,1,0,0,1,1,0,0
420514344,2162698,2162698,1114122,0,0,0.10159029,0.10159026,0.0,0.0,2162698,2162698,2228234,0,0,0.008040795,0.008040795,0.0,0.0,1,1,0,0,1,1,0,0
420714525,2162698,2162698,1114122,0,0,0.09660232,0.09660229,0.0,0.0,2162698,2162698,2228234,0,0,0.0077090873,0.007709087,0.0,0.0,1,1,0,0,1,1,0,0
420914740,2162698,2162698,1114122,0,0,0.113201626,0.11320169,0.0,0.0,2162698,2162698,2228234,0,0,0.008678723,0.008678723,0.0,0.0,1,1,0,0,1,1,0,0
421114846,2162698,2162698,1114122,0,0,0.13029143,0.13029143,0.0,0.0,2162698,2162698,2228234,0,0,0.007908898,0.0079088975,0.0,0.0,1,1,0,0,1,1,0,0
421315099,2162698,2162698,1114122,0,0,0.12115626,0.12115633,0.0,0.0,2162698,2162698,2228234,0,0,0.008001971,0.00800197,0.0,0.0,1,1,0,0,1,1,0,0
421515175,2162698,2162698,1114122,0,0,0.11175126,0.11175119,0.0,0.0,2162698,2162698,2228234,0,0,0.008053931,0.008053931,0.0,0.0,1,1,0,0,1,1,0,0
421715338,2162698,2162698,1114122,0,0,0.09542535,0.09542531,0.0,0.0,2162698,2162698,2228234,0,0,0.0071775727,0.007177574,0.0,0.0,1,1,0,0,1,1,0,0
421915530,2162698,2162698,1114122,0,0,0.09939158,0.09939165,0.0,0.0,2162698,2162698,2228234,0,0,0.009177648,0.0091776475,0.0,0.0,1,1,0,0,1,1,0,0
422115679,2162698,2162698,1114122,0,0,0.12248646,0.122486524,0.0,0.0,2162698,2162698,2228234,0,0,0.00795917,0.00795917,0.0,0.0,1,1,0,0,1,1,0,0
422315837,2162698,2162698,1114122,0,0,0.08324835,0.08324836,0.0,0.0,2162698,2162698,2228234,0,0,0.008003201,0.0080032,0.0,0.0,1,1,0,0,1,1,0,0
422511019,2162698,2162698,1114122,0,0,0.105696544,0.10569642,0.0,0.0,2162698,2162698,2228234,0,0,0.008387056,0.008387057,0.0,0.0,1,1,0,0,1,1,0,0
422711298,2162698,2162698,1114122,0,0,0.11296,0.112959966,0.0,0.0,2162698,2162698,2228234,0,0,0.0071940683,0.0071940683,0.0,0.0,1,1,0,0,1,1,0,0
422911334,2162698,2162698,1114122,0,0,0.11421696,0.11421705,0.0,0.0,2162698,2162698,2228234,0,0,0.009009471,0.009009472,0.0,0.0,1,1,0,0,1,1,0,0
423111520,2162698,2162698,1114122,0,0,0.0964965,0.09649646,0.0,0.0,2162698,2162698,2228234,0,0,0.0076809125,0.007680911,0.0,0.0,1,1,0,0,1,1,0,0
423311822,2162698,2162698,1114122,0,0,0.09089244,0.09089239,0.0,0.0,2162698,2162698,2228234,0,0,0.0075682667,0.0075682662,0.0,0.0,1,1,0,0,1,1,0,0
423511789,2162698,2162698,1114122,0,0,0.10974711,0.10974719,0.0,0.0,2162698,2162698,2228234,0,0,0.008421543,0.008421543,0.0,0.0,1,1,0,0,1,1,0,0
423712117,2162698,2162698,1114122,0,0,0.112287365,0.11228733,0.0,0.0,2162698,2162698,2228234,0,0,0.0084005585,0.008400558,0.0,0.0,1,1,0,0,1,1,0,0
423912241,2162698,2162698,1114122,0,0,0.08676077,0.086760804,0.0,0.0,2162698,2162698,2228234,0,0,0.008569104,0.008569104,0.0,0.0,1,1,0,0,1,1,0,0
424112275,2162698,2162698,1114122,0,0,0.120708786,0.120708875,0.0,0.0,2162698,2162698,2228234,0,0,0.008023742,0.008023742,0.0,0.0,1,1,0,0,1,1,0,0
424312533,2162698,2162698,1114122,0,0,0.10956401,0.10956401,0.0,0.0,2162698,2162698,2228234,0,0,0.00898164,0.0089816395,0.0,0.0,1,1,0,0,1,1,0,0
424512735,2162698,2162698,1114122,0,0,0.11070691,0.11070697,0.0,0.0,2162698,2162698,2228234,0,0,0.007959894,0.007959894,0.0,0.0,1,1,0,0,1,1,0,0
424712869,2162698,2162698,1114122,0,0,0.12632336,0.1263234,0.0,0.0,2162698,2162698,2228234,0,0,0.009526079,0.009526079,0.0,0.0,1,1,0,0,1,1,0,0
424912933,2162698,2162698,1114122,0,0,0.10909206,0.109092094,0.0,0.0,2162698,2162698,2228234,0,0,0.009041355,0.009041356,0.0,0.0,1,1,0,0,1,1,0,0
425113100,2162698,2162698,1114122,0,0,0.10470949,0.1047095,0.0,0.0,2162698,2162698,2228234,0,0,0.007269434,0.0072694337,0.0,0.0,1,1,0,0,1,1,0,0
425313276,2162698,2162698,1114122,0,0,0.103514135,0.10351419,0.0,0.0,2162698,2162698,2228234,0,0,0.008487438,0.008487437,0.0,0.0,1,1,0,0,1,1,0,0
425513432,2162698,2162698,1114122,0,0,0.11407214,0.11407211,0.0,0.0,2162698,2162698,2228234,0,0,0.010445783,0.010445783,0.0,0.0,1,1,0,0,1,1,0,0
425713706,2162698,2162698,1114122,0,0,0.09141386,0.09141385,0.0,0.0,2162698,2162698,2228234,0,0,0.009763992,0.009763992,0.0,0.0,1,1,0,0,1,1,0,0
425913884,2162698,2162698,1114122,0,0,0.18594816,0.185948,0.0,0.0,2162698,2162698,2228234,0,0,0.009584609,0.00958461,0.0,0.0,1,1,0,0,1,1,0,0
426114049,2162698,2162698,1114122,0,0,0.08540823,0.08540808,0.0,0.0,2162698,2162698,2228234,0,0,0.0083227195,0.008322719,0.0,0.0,1,1,0,0,1,1,0,0
426314180,2162698,2162698,1114122,0,0,0.13567586,0.13567579,0.0,0.0,2162698,2162698,2228234,0,0,0.0117864115,0.011786412,0.0,0.0,1,1,0,0,1,1,0,0
426514353,2162698,2162698,1114122,0,0,0.11963431,0.1196343,0.0,0.0,2162698,2162698,2228234,0,0,0.012148133,0.012148131,0.0,0.0,1,1,0,0,1,1,0,0
426714461,2162698,2162698,1114122,0,0,0.109899856,0.10989985,0.0,0.0,2162698,2162698,2228234,0,0,0.00972863,0.00972863,0.0,0.0,1,1,0,0,1,1,0,0
426914640,2162698,2162698,1114122,0,0,0.07797432,0.07797436,0.0,0.0,2162698,2162698,2228234,0,0,0.009527755,0.009527753,0.0,0.0,1,1,0,0,1,1,0,0
427114774,2162698,2162698,1114122,0,0,0.14056793,0.14056788,0.0,0.0,2162698,2162698,2228234,0,0,0.008530567,0.008530567,0.0,0.0,1,1,0,0,1,1,0,0
427314866,2162698,2162698,1114122,0,0,0.15069161,0.15069163,0.0,0.0,2162698,2162698,2228234,0,0,0.01160365,0.011603649,0.0,0.0,1,1,0,0,1,1,0,0
427515076,2162698,2162698,1114122,0,0,0.11414989,0.11414984,0.0,0.0,2162698,2162698,2228234,0,0,0.01321079,0.013210791,0.0,0.0,1,1,0,0,1,1,0,0
427715194,2162698,2162698,1114122,0,0,0.10999412,0.10999403,0.0,0.0,2162698,2162698,2228234,0,0,0.011578003,0.011578003,0.0,0.0,1,1,0,0,1,1,0,0
427915339,2162698,2162698,1114122,0,0,0.09672192,0.096721806,0.0,0.0,2162698,2162698,2228234,0,0,0.008764303,0.008764303,0.0,0.0,1,1,0,0,1,1,0,0
428115566,2162698,2162698,1114122,0,0,0.085189916,0.08518984,0.0,0.0,2162698,2162698,2228234,0,0,0.010471744,0.0104717435,0.0,0.0,1,1,0,0,1,1,0,0
428315773,2162698,2162698,1114122,0,0,0.06967452,0.069674596,0.0,0.0,2162698,2162698,2228234,0,0,0.010903539,0.01090354,0.0,0.0,1,1,0,0,1,1,0,0
428515824,2162698,2162698,1114122,0,0,0.056809347,0.056809373,0.0,0.0,2162698,2162698,2228234,0,0,0.00956021,0.009560208,0.0,0.0,1,1,0,0,1,1,0,0
428711010,2162698,2162698,1114122,0,0,0.061694063,0.061694108,0.0,0.0,2162698,2162698,2228234,0,0,0.010542744,0.010542744,0.0,0.0,1,1,0,0,1,1,0,0
428911126,2162698,2162698,1114122,0,0,0.10287474,0.1028747,0.0,0.0,2162698,2162698,2228234,0,0,0.011303904,0.011303902,0.0,0.0,1,1,0,0,1,1,0,0
429111287,2162698,2162698,1114122,0,0,0.07073632,0.070736334,0.0,0.0,2162698,2162698,2228234,0,0,0.008281001,0.008281,0.0,0.0,1,1,0,0,1,1,0,0
429311431,2162698,2162698,1114122,0,0,0.25063944,0.2506396,0.0,0.0,2162698,2162698,2228234,0,0,0.010265414,0.010265419,0.0,0.0,1,1,0,0,1,1,0,0
429512250,2162698,2162698,1114122,0,0,0.109337606,0.10933761,0.0,0.0,2162698,2162698,2228234,0,0,0.00897329,0.008973291,0.0,0.0,1,1,0,0,1,1,0,0
429711792,2162698,2162698,1114122,0,0,0.08690713,0.086907186,0.0,0.0,2162698,2162698,2228234,0,0,0.00876125,0.008761252,0.0,0.0,1,1,0,0,1,1,0,0
430112169,2162698,2162698,1114122,0,0,0.11555259,0.11555277,0.0,0.0,2162698,2162698,2228234,0,0,0.004891658,0.004891658,0.0,0.0,1,1,0,0,1,1,0,0
430313040,2162698,2162698,1114122,0,0,0.14343096,0.14343105,0.0,0.0,2162698,2162698,2228234,0,0,0.0095277615,0.009527762,0.0,0.0,1,1,0,0,1,1,0,0
430512345,2162698,2162698,1114122,0,0,0.116214894,0.11621491,0.0,0.0,2162698,2162698,2228234,0,0,0.009912424,0.009912425,0.0,0.0,1,1,0,0,1,1,0,0
430713062,2162698,2162698,1114122,0,0,0.120111644,0.12011168,0.0,0.0,2162698,2162698,2228234,0,0,0.004959516,0.0049595167,0.0,0.0,1,1,0,0,1,1,0,0
430912664,2162698,2162698,1114122,0,0,0.11807366,0.1180736,0.0,0.0,2162698,2162698,2228234,0,0,0.008314478,0.008314479,0.0,0.0,1,1,0,0,1,1,0,0
431113692,2162698,2162698,1114122,0,0,0.14218147,0.14218149,0.0,0.0,2162698,2162698,2228234,0,0,0.01621692,0.016216923,0.0,0.0,1,1,0,0,1,1,0,0
431313000,2162698,2162698,1114122,0,0,0.14933158,0.14933158,0.0,0.0,2162698,2162698,2228234,0,0,0.018049017,0.018049022,0.0,0.0,1,1,0,0,1,1,0,0
431513770,2162698,2162698,1114122,0,0,0.2204069,0.22040693,0.0,0.0,2162698,2162698,2228234,0,0,0.009909192,0.009909191,0.0,0.0,1,1,0,0,1,1,0,0
431713327,2162698,2162698,1114122,0,0,0.12924926,0.12924926,0.0,0.0,2162698,2162698,2228234,0,0,0.0069087725,0.0069087725,0.0,0.0,1,1,0,0,1,1,0,0
431914700,2162698,2162698,1114122,0,0,0.12959267,0.12959267,0.0,0.0,2162698,2162698,2228234,0,0,0.0052558146,0.005255814,0.0,0.0,1,1,0,0,1,1,0,0
432113565,2162698,2162698,1114122,0,0,0.124662206,0.12466222,0.0,0.0,2162698,2162698,2228234,0,0,0.004408621,0.004408621,0.0,0.0,1,1,0,0,1,1,0,0
432514128,2162698,2162698,1114122,0,0,0.12256895,0.122568995,0.0,0.0,2162698,2162698,2228234,0,0,0.007906028,0.007906026,0.0,0.0,1,1,0,0,1,1,0,0
432714848,2162698,2162698,1114122,0,0,0.11881251,0.118812434,0.0,0.0,2162698,2162698,2228234,0,0,0.0041842307,0.0041842298,0.0,0.0,1,1,0,0,1,1,0,0
432914326,2162698,2162698,1114122,0,0,0.1038553,0.10385533,0.0,0.0,2162698,2162698,2228234,0,0,0.00823836,0.00823836,0.0,0.0,1,1,0,0,1,1,0,0
433114975,2162698,2162698,1114122,0,0,0.09601923,0.09601928,0.0,0.0,2162698,2162698,2228234,0,0,0.0073271664,0.007327168,0.0,0.0,1,1,0,0,1,1,0,0
433314678,2162698,2162698,1114122,0,0,0.13975815,0.13975808,0.0,0.0,2162698,2162698,2228234,0,0,0.009390079,0.0093900785,0.0,0.0,1,1,0,0,1,1,0,0
433515348,2162698,2162698,1114122,0,0,0.12274733,0.122747295,0.0,0.0,2162698,2162698,2228234,0,0,0.003970171,0.0039701695,0.0,0.0,1,1,0,0,1,1,0,0
433714731,2162698,2162698,1114122,0,0,0.09527136,0.09527138,0.0,0.0,2162698,2162698,2228234,0,0,0.008550322,0.008550321,0.0,0.0,1,1,0,0,1,1,0,0
434115392,2162698,2162698,1114122,0,0,0.06685915,0.06685916,0.0,0.0,2162698,2162698,2228234,0,0,0.0048747314,0.0048747314,0.0,0.0,1,1,0,0,1,1,0,0
434315676,2162698,2162698,1114122,0,0,0.11199352,0.111993514,0.0,0.0,2162698,2162698,2228234,0,0,0.0051797326,0.005179732,0.0,0.0,1,1,0,0,1,1,0,0
434515369,2162698,2162698,1114122,0,0,0.06965401,0.06965399,0.0,0.0,2162698,2162698,2228234,0,0,0.009782722,0.009782726,0.0,0.0,1,1,0,0,1,1,0,0
434716519,2162698,2162698,1114122,0,0,0.08628369,0.0862837,0.0,0.0,2162698,2162698,2228234,0,0,0.008437284,0.008437284,0.0,0.0,1,1,0,0,1,1,0,0
434915618,2162698,2162698,1114122,0,0,0.05587162,0.05587164,0.0,0.0,2162698,2162698,2228234,0,0,0.005626918,0.0056269146,0.0,0.0,1,1,0,0,1,1,0,0
435116646,2162698,2162698,1114122,0,0,0.114130236,0.11413024,0.0,0.0,2162698,2162698,2228234,0,0,0.0088867685,0.0088867685,0.0,0.0,1,1,0,0,1,1,0,0
435311216,2162698,2162698,1114122,0,0,0.071414255,0.07141424,0.0,0.0,2162698,2162698,2228234,0,0,0.0047288416,0.0047288397,0.0,0.0,1,1,0,0,1,1,0,0
435511079,2162698,2162698,1114122,0,0,0.09765341,0.09765341,0.0,0.0,2162698,2162698,2228234,0,0,0.008168145,0.008168146,0.0,0.0,1,1,0,0,1,1,0,0
435711215,2162698,2162698,1114122,0,0,0.11988725,0.11988722,0.0,0.0,2162698,2162698,2228234,0,0,0.0029942344,0.0029942354,0.0,0.0,1,1,0,0,1,1,0,0
435917456,2162698,2162698,1114122,0,0,0.107311256,0.107311316,0.0,0.0,2162698,2162698,2228234,0,0,0.005367044,0.0053670444,0.0,0.0,1,1,0,0,1,1,0,0
436111679,2162698,2162698,1114122,0,0,0.11418936,0.114189364,0.0,0.0,2162698,2162698,2228234,0,0,0.0101377955,0.010137798,0.0,0.0,1,1,0,0,1,1,0,0
436311898,2162698,2162698,1114122,0,0,0.08133056,0.0813306,0.0,0.0,2162698,2162698,2228234,0,0,0.008905322,0.008905328,0.0,0.0,1,1,0,0,1,1,0,0
436517440,2162698,2162698,1114122,0,0,0.14714786,0.14714792,0.0,0.0,2162698,2162698,2228234,0,0,0.005135538,0.005135537,0.0,0.0,1,1,0,0,1,1,0,0
436712013,2162698,2162698,1114122,0,0,0.23104167,0.23104139,0.0,0.0,2162698,2162698,2228234,0,0,0.008384331,0.008384327,0.0,0.0,1,1,0,0,1,1,0,0
436917894,2162698,2162698,1114122,0,0,0.12499964,0.12499952,0.0,0.0,2162698,2162698,2228234,0,0,0.009227876,0.009227873,0.0,0.0,1,1,0,0,1,1,0,0
437112153,2162698,2162698,1114122,0,0,0.060872257,0.060872234,0.0,0.0,2162698,2162698,2228234,0,0,0.009462243,0.009462238,0.0,0.0,1,1,0,0,1,1,0,0
437312338,2162698,2162698,1114122,0,0,0.06214926,0.06214939,0.0,0.0,2162698,2162698,2228234,0,0,0.007856902,0.007856899,0.0,0.0,1,1,0,0,1,1,0,0
437512514,2162698,2162698,1114122,0,0,0.13518688,0.13518701,0.0,0.0,2162698,2162698,2228234,0,0,0.011179475,0.011179477,0.0,0.0,1,1,0,0,1,1,0,0
437718599,2162698,2162698,1114122,0,0,0.1708661,0.17086613,0.0,0.0,2162698,2162698,2228234,0,0,0.008309287,0.008309285,0.0,0.0,1,1,0,0,1,1,0,0
437918541,2162698,2162698,1114122,0,0,0.09437935,0.09437936,0.0,0.0,2162698,2162698,2228234,0,0,0.005221416,0.005221421,0.0,0.0,1,1,0,0,1,1,0,0
438112827,2162698,2162698,1114122,0,0,0.08693016,0.08693017,0.0,0.0,2162698,2162698,2228234,0,0,0.0027805911,0.002780588,0.0,0.0,1,1,0,0,1,1,0,0
438318990,2162698,2162698,1114122,0,0,0.10564145,0.1056414,0.0,0.0,2162698,2162698,2228234,0,0,0.0024479278,0.0024479283,0.0,0.0,1,1,0,0,1,1,0,0
438513199,2162698,2162698,1114122,0,0,0.15165055,0.15165052,0.0,0.0,2162698,2162698,2228234,0,0,0.0053123,0.005312301,0.0,0.0,1,1,0,0,1,1,0,0
438719235,2162698,2162698,1114122,0,0,0.062372897,0.062372938,0.0,0.0,2162698,2162698,2228234,0,0,0.0068265935,0.006826592,0.0,0.0,1,1,0,0,1,1,0,0
438913452,2162698,2162698,1114122,0,0,0.09052147,0.090521425,0.0,0.0,2162698,2162698,2228234,0,0,0.004041532,0.0040415307,0.0,0.0,1,1,0,0,1,1,0,0
439119666,2162698,2162698,1114122,0,0,0.12578095,0.12578095,0.0,0.0,2162698,2162698,2228234,0,0,0.007081007,0.0070810076,0.0,0.0,1,1,0,0,1,1,0,0
439313677,2162698,2162698,1114122,0,0,0.0572953,0.057295293,0.0,0.0,2162698,2162698,2228234,0,0,0.009191696,0.009191691,0.0,0.0,1,1,0,0,1,1,0,0
439519739,2162698,2162698,1114122,0,0,0.09453088,0.094530955,0.0,0.0,2162698,2162698,2228234,0,0,0.013828966,0.013828964,0.0,0.0,1,1,0,0,1,1,0,0
439720019,2162698,2162698,1114122,0,0,0.12840356,0.12840353,0.0,0.0,2162698,2162698,2228234,0,0,0.010781782,0.010781783,0.0,0.0,1,1,0,0,1,1,0,0
439914105,2162698,2162698,1114122,0,0,0.09088583,0.09088583,0.0,0.0,2162698,2162698,2228234,0,0,0.008613359,0.00861336,0.0,0.0,1,1,0,0,1,1,0,0
440119921,2162698,2162698,1114122,0,0,0.030078119,0.030078119,0.0,0.0,2162698,2162698,2228234,0,0,0.008290539,0.008290539,0.0,0.0,1,1,0,0,1,1,0,0
440314317,2162698,2162698,1114122,0,0,0.0812233,0.08122325,0.0,0.0,2162698,2162698,2228234,0,0,0.011645442,0.011645445,0.0,0.0,1,1,0,0,1,1,0,0
440514450,2162698,2162698,1114122,0,0,0.12215651,0.122156486,0.0,0.0,2162698,2162698,2228234,0,0,0.008228466,0.008228466,0.0,0.0,1,1,0,0,1,1,0,0
440714721,2162698,2162698,1114122,0,0,0.11479122,0.114791244,0.0,0.0,2162698,2162698,2228234,0,0,0.01406241,0.014062411,0.0,0.0,1,1,0,0,1,1,0,0
440914745,2162698,2162698,1114122,0,0,0.13836627,0.13836625,0.0,0.0,2162698,2162698,2228234,0,0,0.0112814875,0.011281487,0.0,0.0,1,1,0,0,1,1,0,0
441114874,2162698,2162698,1114122,0,0,0.12485818,0.12485816,0.0,0.0,2162698,2162698,2228234,0,0,0.00508294,0.0050829407,0.0,0.0,1,1,0,0,1,1,0,0
441315123,2162698,2162698,1114122,0,0,0.08035355,0.080353566,0.0,0.0,2162698,2162698,2228234,0,0,0.0033032482,0.0033032484,0.0,0.0,1,1,0,0,1,1,0,0
441515207,2162698,2162698,1114122,0,0,0.11814761,0.11814765,0.0,0.0,2162698,2162698,2228234,0,0,0.015660394,0.015660396,0.0,0.0,1,1,0,0,1,1,0,0
441715405,2162698,2162698,1114122,0,0,0.08353054,0.083530486,0.0,0.0,2162698,2162698,2228234,0,0,0.010933113,0.0109331105,0.0,0.0,1,1,0,0,1,1,0,0
441915430,2162698,2162698,1114122,0,0,0.09877376,0.09877369,0.0,0.0,2162698,2162698,2228234,0,0,0.010730346,0.010730347,0.0,0.0,1,1,0,0,1,1,0,0
442115577,2162698,2162698,1114122,0,0,0.11779286,0.11779285,0.0,0.0,2162698,2162698,2228234,0,0,0.018325578,0.01832559,0.0,0.0,1,1,0,0,1,1,0,0
442321681,2162698,2162698,1114122,0,0,0.126004,0.12600395,0.0,0.0,2162698,2162698,2228234,0,0,0.0059707263,0.0059707295,0.0,0.0,1,1,0,0,1,1,0,0
442515935,2162698,2162698,1114122,0,0,0.06611697,0.066116944,0.0,0.0,2162698,2162698,2228234,0,0,0.00469335,0.0046933545,0.0,0.0,1,1,0,0,1,1,0,0
442710901,2162698,2162698,1114122,0,0,0.10905585,0.10905591,0.0,0.0,2162698,2162698,2228234,0,0,0.0044151745,0.0044151726,0.0,0.0,1,1,0,0,1,1,0,0
442911718,2162698,2162698,1114122,0,0,0.097120166,0.09712015,0.0,0.0,2162698,2162698,2228234,0,0,0.014059563,0.01405957,0.0,0.0,1,1,0,0,1,1,0,0
443111146,2162698,2162698,1114122,0,0,0.09482694,0.094827026,0.0,0.0,2162698,2162698,2228234,0,0,0.01768624,0.01768625,0.0,0.0,1,1,0,0,1,1,0,0
443311896,2162698,2162698,1114122,0,0,0.11302589,0.11302622,0.0,0.0,2162698,2162698,2228234,0,0,0.020632077,0.020632088,0.0,0.0,1,1,0,0,1,1,0,0
443511550,2162698,2162698,1114122,0,0,0.11320046,0.11320044,0.0,0.0,2162698,2162698,2228234,0,0,0.01578188,0.01578187,0.0,0.0,1,1,0,0,1,1,0,0
443711703,2162698,2162698,1114122,0,0,0.13053443,0.13053417,0.0,0.0,2162698,2162698,2228234,0,0,0.008161865,0.008161862,0.0,0.0,1,1,0,0,1,1,0,0
443912056,2162698,2162698,1114122,0,0,0.04980122,0.049801305,0.0,0.0,2162698,2162698,2228234,0,0,0.011016509,0.011016508,0.0,0.0,1,1,0,0,1,1,0,0
444111824,2162698,2162698,1114122,0,0,0.051110405,0.051110417,0.0,0.0,2162698,2162698,2228234,0,0,0.027892955,0.027892955,0.0,0.0,1,1,0,0,1,1,0,0
444312022,2162698,2162698,1114122,0,0,0.17542158,0.17542164,0.0,0.0,2162698,2162698,2228234,0,0,0.008663418,0.008663418,0.0,0.0,1,1,0,0,1,1,0,0
444512905,2162698,2162698,1114122,0,0,0.19216277,0.19216305,0.0,0.0,2162698,2162698,2228234,0,0,0.008232403,0.0082324045,0.0,0.0,1,1,0,0,1,1,0,0
444712161,2162698,2162698,1114122,0,0,0.08194045,0.08194044,0.0,0.0,2162698,2162698,2228234,0,0,0.0061610155,0.0061610187,0.0,0.0,1,1,0,0,1,1,0,0
444913195,2162698,2162698,1114122,0,0,0.09607462,0.0960747,0.0,0.0,2162698,2162698,2228234,0,0,0.005151385,0.005151386,0.0,0.0,1,1,0,0,1,1,0,0
445112535,2162698,2162698,1114122,0,0,0.071841784,0.07184178,0.0,0.0,2162698,2162698,2228234,0,0,0.012539449,0.012539449,0.0,0.0,1,1,0,0,1,1,0,0
445313532,2162698,2162698,1114122,0,0,0.15397,0.15397,0.0,0.0,2162698,2162698,2228234,0,0,0.0070615015,0.007061504,0.0,0.0,1,1,0,0,1,1,0,0
445513234,2162698,2162698,1114122,0,0,0.17199948,0.17199941,0.0,0.0,2162698,2162698,2228234,0,0,0.015785746,0.015785746,0.0,0.0,1,1,0,0,1,1,0,0
445713570,2162698,2162698,1114122,0,0,0.112598464,0.11259846,0.0,0.0,2162698,2162698,2228234,0,0,0.015896372,0.01589637,0.0,0.0,1,1,0,0,1,1,0,0
445913142,2162698,2162698,1114122,0,0,0.08859741,0.088597424,0.0,0.0,2162698,2162698,2228234,0,0,0.011819224,0.011819216,0.0,0.0,1,1,0,0,1,1,0,0
446113939,2162698,2162698,1114122,0,0,0.12705246,0.12705244,0.0,0.0,2162698,2162698,2228234,0,0,0.007760948,0.0077609513,0.0,0.0,1,1,0,0,1,1,0,0
446313267,2162698,2162698,1114122,0,0,0.10694205,0.106942035,0.0,0.0,2162698,2162698,2228234,0,0,0.0062962524,0.006296254,0.0,0.0,1,1,0,0,1,1,0,0
446514234,2162698,2162698,1114122,0,0,0.1697425,0.16974255,0.0,0.0,2162698,2162698,2228234,0,0,0.0024674886,0.0024674847,0.0,0.0,1,1,0,0,1,1,0,0
446713457,2162698,2162698,1114122,0,0,0.099834085,0.09983401,0.0,0.0,2162698,2162698,2228234,0,0,0.01125356,0.011253561,0.0,0.0,1,1,0,0,1,1,0,0
446914351,2162698,2162698,1114122,0,0,0.07595929,0.075959265,0.0,0.0,2162698,2162698,2228234,0,0,0.00641666,0.006416661,0.0,0.0,1,1,0,0,1,1,0,0
447113691,2162698,2162698,1114122,0,0,0.08958362,0.08958365,0.0,0.0,2162698,2162698,2228234,0,0,0.005007946,0.005007946,0.0,0.0,1,1,0,0,1,1,0,0
447314819,2162698,2162698,1114122,0,0,0.08891343,0.08891341,0.0,0.0,2162698,2162698,2228234,0,0,0.0038657137,0.0038657147,0.0,0.0,1,1,0,0,1,1,0,0
447513930,2162698,2162698,1114122,0,0,0.05449544,0.05449547,0.0,0.0,2162698,2162698,2228234,0,0,0.0049646883,0.004964689,0.0,0.0,1,1,0,0,1,1,0,0
447714940,2162698,2162698,1114122,0,0,0.115167424,0.1151676,0.0,0.0,2162698,2162698,2228234,0,0,0.0056895292,0.0056895264,0.0,0.0,1,1,0,0,1,1,0,0
447914242,2162698,2162698,1114122,0,0,0.0650893,0.06508937,0.0,0.0,2162698,2162698,2228234,0,0,0.004935785,0.0049357847,0.0,0.0,1,1,0,0,1,1,0,0
448115261,2162698,2162698,1114122,0,0,0.06429289,0.064293034,0.0,0.0,2162698,2162698,2228234,0,0,0.003816707,0.003816705,0.0,0.0,1,1,0,0,1,1,0,0
448314984,2162698,2162698,1114122,0,0,0.124985255,0.12498549,0.0,0.0,2162698,2162698,2228234,0,0,0.0070220637,0.0070220637,0.0,0.0,1,1,0,0,1,1,0,0
448514550,2162698,2162698,1114122,0,0,0.13947949,0.13947964,0.0,0.0,2162698,2162698,2228234,0,0,0.008248227,0.008248227,0.0,0.0,1,1,0,0,1,1,0,0
448715424,2162698,2162698,1114122,0,0,0.06509379,0.06509373,0.0,0.0,2162698,2162698,2228234,0,0,0.0038937598,0.0038937603,0.0,0.0,1,1,0,0,1,1,0,0
448915846,2162698,2162698,1114122,0,0,0.15851524,0.15851536,0.0,0.0,2162698,2162698,2228234,0,0,0.003888648,0.0038886478,0.0,0.0,1,1,0,0,1,1,0,0
449114984,2162698,2162698,1114122,0,0,0.11643498,0.11643504,0.0,0.0,2162698,2162698,2228234,0,0,0.0085853655,0.008585359,0.0,0.0,1,1,0,0,1,1,0,0
449315759,2162698,2162698,1114122,0,0,0.0605369,0.060536884,0.0,0.0,2162698,2162698,2228234,0,0,0.009606107,0.00960611,0.0,0.0,1,1,0,0,1,1,0,0
449515352,2162698,2162698,1114122,0,0,0.06508419,0.06508433,0.0,0.0,2162698,2162698,2228234,0,0,0.014188969,0.014188971,0.0,0.0,1,1,0,0,1,1,0,0
449716267,2162698,2162698,1114122,0,0,0.14592136,0.14592129,0.0,0.0,2162698,2162698,2228234,0,0,0.008914806,0.008914805,0.0,0.0,1,1,0,0,1,1,0,0
449915444,2162698,2162698,1114122,0,0,0.13814382,0.13814385,0.0,0.0,2162698,2162698,2228234,0,0,0.006150846,0.0061508473,0.0,0.0,1,1,0,0,1,1,0,0
450116535,2162698,2162698,1114122,0,0,0.22690992,0.22690971,0.0,0.0,2162698,2162698,2228234,0,0,0.0021167204,0.002116722,0.0,0.0,1,1,0,0,1,1,0,0
450315696,2162698,2162698,1114122,0,0,0.08880127,0.08880125,0.0,0.0,2162698,2162698,2228234,0,0,0.0043789735,0.004378974,0.0,0.0,1,1,0,0,1,1,0,0
450516722,2162698,2162698,1114122,0,0,0.048436344,0.04843635,0.0,0.0,2162698,2162698,2228234,0,0,0.0042130463,0.004213046,0.0,0.0,1,1,0,0,1,1,0,0
450716645,2162698,2162698,1114122,0,0,0.06645703,0.066457026,0.0,0.0,2162698,2162698,2228234,0,0,0.008601884,0.008601886,0.0,0.0,1,1,0,0,1,1,0,0
450916739,2162698,2162698,1114122,0,0,0.098867744,0.0988677,0.0,0.0,2162698,2162698,2228234,0,0,0.006203582,0.006203582,0.0,0.0,1,1,0,0,1,1,0,0
451111182,2162698,2162698,1114122,0,0,0.0676339,0.0676339,0.0,0.0,2162698,2162698,2228234,0,0,0.0025542045,0.0025542057,0.0,0.0,1,1,0,0,1,1,0,0
451316924,2162698,2162698,1114122,0,0,0.12524295,0.12524304,0.0,0.0,2162698,2162698,2228234,0,0,0.0056686522,0.00566865,0.0,0.0,1,1,0,0,1,1,0,0
451511401,2162698,2162698,1114122,0,0,0.06379784,0.063797876,0.0,0.0,2162698,2162698,2228234,0,0,0.013143222,0.013143222,0.0,0.0,1,1,0,0,1,1,0,0
451717320,2162698,2162698,1114122,0,0,0.057634264,0.057634283,0.0,0.0,2162698,2162698,2228234,0,0,0.0061616274,0.0061616288,0.0,0.0,1,1,0,0,1,1,0,0
451911579,2162698,2162698,1114122,0,0,0.072555244,0.07255527,0.0,0.0,2162698,2162698,2228234,0,0,0.010321883,0.0103218835,0.0,0.0,1,1,0,0,1,1,0,0
452117633,2162698,2162698,1114122,0,0,0.014126835,0.014126826,0.0,0.0,2162698,2162698,2228234,0,0,0.005003184,0.005003185,0.0,0.0,1,1,0,0,1,1,0,0
452311865,2162698,2162698,1114122,0,0,0.2722077,0.27220768,0.0,0.0,2162698,2162698,2228234,0,0,0.0075333007,0.007533299,0.0,0.0,1,1,0,0,1,1,0,0
452517868,2162698,2162698,1114122,0,0,0.040992856,0.04099282,0.0,0.0,2162698,2162698,2228234,0,0,0.007249548,0.0072495495,0.0,0.0,1,1,0,0,1,1,0,0
452712035,2162698,2162698,1114122,0,0,0.07510424,0.07510423,0.0,0.0,2162698,2162698,2228234,0,0,0.0072705825,0.0072705834,0.0,0.0,1,1,0,0,1,1,0,0
452917949,2162698,2162698,1114122,0,0,0.078144886,0.07814492,0.0,0.0,2162698,2162698,2228234,0,0,0.0025227568,0.002522755,0.0,0.0,1,1,0,0,1,1,0,0
453112346,2162698,2162698,1114122,0,0,0.13160032,0.13160034,0.0,0.0,2162698,2162698,2228234,0,0,0.003682728,0.0036827305,0.0,0.0,1,1,0,0,1,1,0,0
453318320,2162698,2162698,1114122,0,0,0.05796321,0.057963077,0.0,0.0,2162698,2162698,2228234,0,0,0.0076167723,0.0076167737,0.0,0.0,1,1,0,0,1,1,0,0
453512625,2162698,2162698,1114122,0,0,0.05834088,0.058340885,0.0,0.0,2162698,2162698,2228234,0,0,0.009038615,0.009038612,0.0,0.0,1,1,0,0,1,1,0,0
453718345,2162698,2162698,1114122,0,0,0.11391504,0.113915175,0.0,0.0,2162698,2162698,2228234,0,0,0.008600724,0.008600724,0.0,0.0,1,1,0,0,1,1,0,0
453912894,2162698,2162698,1114122,0,0,0.13680127,0.1368014,0.0,0.0,2162698,2162698,2228234,0,0,0.004352526,0.004352521,0.0,0.0,1,1,0,0,1,1,0,0
454112915,2162698,2162698,1114122,0,0,0.06768539,0.06768544,0.0,0.0,2162698,2162698,2228234,0,0,0.00515,0.0051500015,0.0,0.0,1,1,0,0,1,1,0,0
454318823,2162698,2162698,1114122,0,0,0.111047074,0.1110471,0.0,0.0,2162698,2162698,2228234,0,0,0.0046255034,0.004625504,0.0,0.0,1,1,0,0,1,1,0,0
454513142,2162698,2162698,1114122,0,0,0.09783813,0.09783811,0.0,0.0,2162698,2162698,2228234,0,0,0.0051313164,0.00513131,0.0,0.0,1,1,0,0,1,1,0,0
454719028,2162698,2162698,1114122,0,0,0.23983674,0.23983683,0.0,0.0,2162698,2162698,2228234,0,0,0.0030915074,0.0030915083,0.0,0.0,1,1,0,0,1,1,0,0
454913414,2162698,2162698,1114122,0,0,0.060055893,0.060055904,0.0,0.0,2162698,2162698,2228234,0,0,0.002637262,0.0026372597,0.0,0.0,1,1,0,0,1,1,0,0
455119423,2162698,2162698,1114122,0,0,0.1724064,0.17240648,0.0,0.0,2162698,2162698,2228234,0,0,0.0035106353,0.0035106437,0.0,0.0,1,1,0,0,1,1,0,0
455313570,2162698,2162698,1114122,0,0,0.14051926,0.14051926,0.0,0.0,2162698,2162698,2228234,0,0,0.009379185,0.009379193,0.0,0.0,1,1,0,0,1,1,0,0
455519619,2162698,2162698,1114122,0,0,0.11138533,0.11138535,0.0,0.0,2162698,2162698,2228234,0,0,0.0034177273,0.0034177278,0.0,0.0,1,1,0,0,1,1,0,0
455719690,2162698,2162698,1114122,0,0,0.067771606,0.06777154,0.0,0.0,2162698,2162698,2228234,0,0,0.0067801247,0.006780125,0.0,0.0,1,1,0,0,1,1,0,0
455913928,2162698,2162698,1114122,0,0,0.06757385,0.06757389,0.0,0.0,2162698,2162698,2228234,0,0,0.006443557,0.006443556,0.0,0.0,1,1,0,0,1,1,0,0
456120012,2162698,2162698,1114122,0,0,0.10673901,0.10673895,0.0,0.0,2162698,2162698,2228234,0,0,0.0062424825,0.0062424797,0.0,0.0,1,1,0,0,1,1,0,0
456314149,2162698,2162698,1114122,0,0,0.101653405,0.10165342,0.0,0.0,2162698,2162698,2228234,0,0,0.0015113901,0.0015113904,0.0,0.0,1,1,0,0,1,1,0,0
456514256,2162698,2162698,1114122,0,0,0.074511275,0.07451121,0.0,0.0,2162698,2162698,2228234,0,0,0.0113394,0.011339403,0.0,0.0,1,1,0,0,1,1,0,0
456720510,2162698,2162698,1114122,0,0,0.032342155,0.032342162,0.0,0.0,2162698,2162698,2228234,0,0,0.004869868,0.0048698736,0.0,0.0,1,1,0,0,1,1,0,0
456914540,2162698,2162698,1114122,0,0,0.09005639,0.09005634,0.0,0.0,2162698,2162698,2228234,0,0,0.0035514692,0.0035514685,0.0,0.0,1,1,0,0,1,1,0,0
457114621,2162698,2162698,1114122,0,0,0.12310566,0.123105675,0.0,0.0,2162698,2162698,2228234,0,0,0.0070507983,0.007050796,0.0,0.0,1,1,0,0,1,1,0,0
457314736,2162698,2162698,1114122,0,0,0.02130785,0.021307722,0.0,0.0,2162698,2162698,2228234,0,0,0.0055995286,0.005599526,0.0,0.0,1,1,0,0,1,1,0,0
457521098,2162698,2162698,1114122,0,0,0.13258013,0.13258016,0.0,0.0,2162698,2162698,2228234,0,0,0.007457521,0.007457521,0.0,0.0,1,1,0,0,1,1,0,0
457720851,2162698,2162698,1114122,0,0,0.15238471,0.1523848,0.0,0.0,2162698,2162698,2228234,0,0,0.0065115695,0.0065115714,0.0,0.0,1,1,0,0,1,1,0,0
457915203,2162698,2162698,1114122,0,0,0.24981758,0.24981728,0.0,0.0,2162698,2162698,2228234,0,0,0.004073033,0.0040730275,0.0,0.0,1,1,0,0,1,1,0,0
458120922,2162698,2162698,1114122,0,0,0.08637667,0.08637665,0.0,0.0,2162698,2162698,2228234,0,0,0.006325181,0.0063251774,0.0,0.0,1,1,0,0,1,1,0,0
458315584,2162698,2162698,1114122,0,0,0.26020852,0.26020837,0.0,0.0,2162698,2162698,2228234,0,0,0.023947453,0.023947459,0.0,0.0,1,1,0,0,1,1,0,0
458521279,2162698,2162698,1114122,0,0,0.088408336,0.0884085,0.0,0.0,2162698,2162698,2228234,0,0,0.012707417,0.012707414,0.0,0.0,1,1,0,0,1,1,0,0
458715756,2162698,2162698,1114122,0,0,0.35548538,0.3554855,0.0,0.0,2162698,2162698,2228234,0,0,0.010489621,0.010489628,0.0,0.0,1,1,0,0,1,1,0,0
458921720,2162698,2162698,1114122,0,0,0.097622395,0.097622275,0.0,0.0,2162698,2162698,2228234,0,0,0.014982428,0.014982429,0.0,0.0,1,1,0,0,1,1,0,0
459115763,2162698,2162698,1114122,0,0,0.28296363,0.28296366,0.0,0.0,2162698,2162698,2228234,0,0,0.005927235,0.005927238,0.0,0.0,1,1,0,0,1,1,0,0
459315911,2162698,2162698,1114122,0,0,0.04859538,0.04859555,0.0,0.0,2162698,2162698,2228234,0,0,0.0187772,0.018777205,0.0,0.0,1,1,0,0,1,1,0,0
459510952,2162698,2162698,1114122,0,0,0.12653697,0.1265369,0.0,0.0,2162698,2162698,2228234,0,0,0.014027473,0.014027474,0.0,0.0,1,1,0,0,1,1,0,0
459711778,2162698,2162698,1114122,0,0,0.11768066,0.11768068,0.0,0.0,2162698,2162698,2228234,0,0,0.014580657,0.014580659,0.0,0.0,1,1,0,0,1,1,0,0
459911395,2162698,2162698,1114122,0,0,0.041417316,0.041417286,0.0,0.0,2162698,2162698,2228234,0,0,0.011335469,0.011335466,0.0,0.0,1,1,0,0,1,1,0,0
460112050,2162698,2162698,1114122,0,0,0.043619934,0.043619975,0.0,0.0,2162698,2162698,2228234,0,0,0.003870101,0.0038700989,0.0,0.0,1,1,0,0,1,1,0,0
460311512,2162698,2162698,1114122,0,0,0.027723618,0.027723689,0.0,0.0,2162698,2162698,2228234,0,0,0.0069699027,0.0069699045,0.0,0.0,1,1,0,0,1,1,0,0
460512161,2162698,2162698,1114122,0,0,0.07119331,0.071193404,0.0,0.0,2162698,2162698,2228234,0,0,0.009398489,0.009398487,0.0,0.0,1,1,0,0,1,1,0,0
460711609,2162698,2162698,1114122,0,0,0.17253624,0.1725361,0.0,0.0,2162698,2162698,2228234,0,0,0.015315898,0.015315898,0.0,0.0,1,1,0,0,1,1,0,0
460911774,2162698,2162698,1114122,0,0,0.09973603,0.09973594,0.0,0.0,2162698,2162698,2228234,0,0,0.004105082,0.004105084,0.0,0.0,1,1,0,0,1,1,0,0
461312119,2162698,2162698,1114122,0,0,0.03269417,0.03269417,0.0,0.0,2162698,2162698,2228234,0,0,0.008600637,0.008600637,0.0,0.0,1,1,0,0,1,1,0,0
461512548,2162698,2162698,1114122,0,0,0.08990362,0.0899036,0.0,0.0,2162698,2162698,2228234,0,0,0.007983609,0.007983609,0.0,0.0,1,1,0,0,1,1,0,0
461712212,2162698,2162698,1114122,0,0,0.086297624,0.086297475,0.0,0.0,2162698,2162698,2228234,0,0,0.006013304,0.0060133,0.0,0.0,1,1,0,0,1,1,0,0
461912777,2162698,2162698,1114122,0,0,0.05766982,0.057669897,0.0,0.0,2162698,2162698,2228234,0,0,0.0022896775,0.0022896796,0.0,0.0,1,1,0,0,1,1,0,0
462112387,2162698,2162698,1114122,0,0,0.057513542,0.057513483,0.0,0.0,2162698,2162698,2228234,0,0,0.0041343374,0.0041343374,0.0,0.0,1,1,0,0,1,1,0,0
462313393,2162698,2162698,1114122,0,0,0.042031154,0.042031173,0.0,0.0,2162698,2162698,2228234,0,0,0.005416843,0.005416846,0.0,0.0,1,1,0,0,1,1,0,0
462512685,2162698,2162698,1114122,0,0,0.11191991,0.11191961,0.0,0.0,2162698,2162698,2228234,0,0,0.004322856,0.004322858,0.0,0.0,1,1,0,0,1,1,0,0
462713432,2162698,2162698,1114122,0,0,0.06623654,0.066236354,0.0,0.0,2162698,2162698,2228234,0,0,0.009650951,0.009650952,0.0,0.0,1,1,0,0,1,1,0,0
462912874,2162698,2162698,1114122,0,0,0.13529965,0.1352997,0.0,0.0,2162698,2162698,2228234,0,0,0.0067127068,0.0067127044,0.0,0.0,1,1,0,0,1,1,0,0
463113723,2162698,2162698,1114122,0,0,0.15233696,0.15233709,0.0,0.0,2162698,2162698,2228234,0,0,0.009565212,0.0095652165,0.0,0.0,1,1,0,0,1,1,0,0
463313037,2162698,2162698,1114122,0,0,0.13400659,0.13400652,0.0,0.0,2162698,2162698,2228234,0,0,0.009829071,0.009829071,0.0,0.0,1,1,0,0,1,1,0,0
463513870,2162698,2162698,1114122,0,0,0.13045937,0.13045932,0.0,0.0,2162698,2162698,2228234,0,0,0.011028321,0.011028334,0.0,0.0,1,1,0,0,1,1,0,0
463713319,2162698,2162698,1114122,0,0,0.07178784,0.07178783,0.0,0.0,2162698,2162698,2228234,0,0,0.010386902,0.010386904,0.0,0.0,1,1,0,0,1,1,0,0
463913340,2162698,2162698,1114122,0,0,0.046577103,0.046577096,0.0,0.0,2162698,2162698,2228234,0,0,0.008372432,0.008372433,0.0,0.0,1,1,0,0,1,1,0,0
464114125,2162698,2162698,1114122,0,0,0.077431925,0.07743184,0.0,0.0,2162698,2162698,2228234,0,0,0.00889486,0.008894862,0.0,0.0,1,1,0,0,1,1,0,0
464314122,2162698,2162698,1114122,0,0,0.050620396,0.05062035,0.0,0.0,2162698,2162698,2228234,0,0,0.007859989,0.007859991,0.0,0.0,1,1,0,0,1,1,0,0
464513892,2162698,2162698,1114122,0,0,0.060132388,0.060132425,0.0,0.0,2162698,2162698,2228234,0,0,0.018714268,0.018714268,0.0,0.0,1,1,0,0,1,1,0,0
464714392,2162698,2162698,1114122,0,0,0.021655109,0.021655083,0.0,0.0,2162698,2162698,2228234,0,0,0.010581354,0.010581356,0.0,0.0,1,1,0,0,1,1,0,0
464913979,2162698,2162698,1114122,0,0,0.07026417,0.07026419,0.0,0.0,2162698,2162698,2228234,0,0,0.004226344,0.0042263437,0.0,0.0,1,1,0,0,1,1,0,0
465114636,2162698,2162698,1114122,0,0,0.07983993,0.07984008,0.0,0.0,2162698,2162698,2228234,0,0,0.0061015575,0.006101557,0.0,0.0,1,1,0,0,1,1,0,0
465314090,2162698,2162698,1114122,0,0,0.03439371,0.03439365,0.0,0.0,2162698,2162698,2228234,0,0,0.0066420105,0.006642013,0.0,0.0,1,1,0,0,1,1,0,0
465514897,2162698,2162698,1114122,0,0,0.04741159,0.04741154,0.0,0.0,2162698,2162698,2228234,0,0,0.0049957586,0.004995759,0.0,0.0,1,1,0,0,1,1,0,0
465715113,2162698,2162698,1114122,0,0,0.07504992,0.0750498,0.0,0.0,2162698,2162698,2228234,0,0,0.014232338,0.01423234,0.0,0.0,1,1,0,0,1,1,0,0
465915269,2162698,2162698,1114122,0,0,0.104263864,0.10426396,0.0,0.0,2162698,2162698,2228234,0,0,0.011135568,0.011135567,0.0,0.0,1,1,0,0,1,1,0,0
466114599,2162698,2162698,1114122,0,0,0.17012848,0.17012854,0.0,0.0,2162698,2162698,2228234,0,0,0.012921835,0.012921833,0.0,0.0,1,1,0,0,1,1,0,0
466315186,2162698,2162698,1114122,0,0,0.030168615,0.030168453,0.0,0.0,2162698,2162698,2228234,0,0,0.004558965,0.004558964,0.0,0.0,1,1,0,0,1,1,0,0
466514725,2162698,2162698,1114122,0,0,0.08089163,0.08089154,0.0,0.0,2162698,2162698,2228234,0,0,0.01222387,0.01222387,0.0,0.0,1,1,0,0,1,1,0,0
466715388,2162698,2162698,1114122,0,0,0.04136602,0.04136628,0.0,0.0,2162698,2162698,2228234,0,0,0.013783047,0.013783053,0.0,0.0,1,1,0,0,1,1,0,0
466914983,2162698,2162698,1114122,0,0,0.16264221,0.16264236,0.0,0.0,2162698,2162698,2228234,0,0,0.011432691,0.011432693,0.0,0.0,1,1,0,0,1,1,0,0
467115024,2162698,2162698,1114122,0,0,0.4073808,0.40738115,0.0,0.0,2162698,2162698,2228234,0,0,0.02246137,0.022461368,0.0,0.0,1,1,0,0,1,1,0,0
467316548,2162698,2162698,1114122,0,0,0.30324534,0.30324534,0.0,0.0,2162698,2162698,2228234,0,0,0.030047579,0.030047549,0.0,0.0,1,1,0,0,1,1,0,0
467515313,2162698,2162698,1114122,0,0,0.31062433,0.31062412,0.0,0.0,2162698,2162698,2228234,0,0,0.015032973,0.015032974,0.0,0.0,1,1,0,0,1,1,0,0
467716341,2162698,2162698,1114122,0,0,0.12816763,0.12816758,0.0,0.0,2162698,2162698,2228234,0,0,0.03674683,0.03674682,0.0,0.0,1,1,0,0,1,1,0,0
467915462,2162698,2162698,1114122,0,0,0.14020276,0.14020282,0.0,0.0,2162698,2162698,2228234,0,0,0.025244256,0.025244268,0.0,0.0,1,1,0,0,1,1,0,0
468116239,2162698,2162698,1114122,0,0,0.19687541,0.19687545,0.0,0.0,2162698,2162698,2228234,0,0,0.025892425,0.02589243,0.0,0.0,1,1,0,0,1,1,0,0
468315725,2162698,2162698,1114122,0,0,0.03349842,0.033498343,0.0,0.0,2162698,2162698,2228234,0,0,0.0030299139,0.0030299223,0.0,0.0,1,1,0,0,1,1,0,0
468516580,2162698,2162698,1114122,0,0,0.0564508,0.056450866,0.0,0.0,2162698,2162698,2228234,0,0,0.019512448,0.019512443,0.0,0.0,1,1,0,0,1,1,0,0
468715932,2162698,2162698,1114122,0,0,0.10402416,0.10402408,0.0,0.0,2162698,2162698,2228234,0,0,0.019034678,0.019034673,0.0,0.0,1,1,0,0,1,1,0,0
468910972,2162698,2162698,1114122,0,0,0.08248882,0.082488775,0.0,0.0,2162698,2162698,2228234,0,0,0.020691428,0.020691428,0.0,0.0,1,1,0,0,1,1,0,0
469116767,2162698,2162698,1114122,0,0,0.076412916,0.07641296,0.0,0.0,2162698,2162698,2228234,0,0,0.006285751,0.006285746,0.0,0.0,1,1,0,0,1,1,0,0
469311269,2162698,2162698,1114122,0,0,0.0881203,0.08812031,0.0,0.0,2162698,2162698,2228234,0,0,0.01890117,0.018901173,0.0,0.0,1,1,0,0,1,1,0,0
469517294,2162698,2162698,1114122,0,0,0.09544637,0.095446356,0.0,0.0,2162698,2162698,2228234,0,0,0.025948742,0.025948748,0.0,0.0,1,1,0,0,1,1,0,0
469711702,2162698,2162698,1114122,0,0,0.18623781,0.18623775,0.0,0.0,2162698,2162698,2228234,0,0,0.02400463,0.024004642,0.0,0.0,1,1,0,0,1,1,0,0
469917290,2162698,2162698,1114122,0,0,0.040390678,0.04039063,0.0,0.0,2162698,2162698,2228234,0,0,0.011257927,0.011257928,0.0,0.0,1,1,0,0,1,1,0,0
470111836,2162698,2162698,1114122,0,0,0.34190276,0.3419027,0.0,0.0,2162698,2162698,2228234,0,0,0.006048635,0.006048642,0.0,0.0,1,1,0,0,1,1,0,0
470311741,2162698,2162698,1114122,0,0,0.04810598,0.04810562,0.0,0.0,2162698,2162698,2228234,0,0,0.030527735,0.030527737,0.0,0.0,1,1,0,0,1,1,0,0
470517478,2162698,2162698,1114122,0,0,0.17653437,0.1765341,0.0,0.0,2162698,2162698,2228234,0,0,0.0076185893,0.0076185907,0.0,0.0,1,1,0,0,1,1,0,0
470712104,2162698,2162698,1114122,0,0,0.22700688,0.22700678,0.0,0.0,2162698,2162698,2228234,0,0,0.0060235844,0.0060235863,0.0,0.0,1,1,0,0,1,1,0,0
470918121,2162698,2162698,1114122,0,0,0.12009953,0.12009954,0.0,0.0,2162698,2162698,2228234,0,0,0.017110981,0.017110981,0.0,0.0,1,1,0,0,1,1,0,0
471117810,2162698,2162698,1114122,0,0,0.11516082,0.11516097,0.0,0.0,2162698,2162698,2228234,0,0,0.0176152,0.0176152,0.0,0.0,1,1,0,0,1,1,0,0
471312240,2162698,2162698,1114122,0,0,0.12057899,0.12057904,0.0,0.0,2162698,2162698,2228234,0,0,0.025708945,0.025708938,0.0,0.0,1,1,0,0,1,1,0,0
471518070,2162698,2162698,1114122,0,0,0.0971745,0.0971745,0.0,0.0,2162698,2162698,2228234,0,0,0.015455357,0.01545536,0.0,0.0,1,1,0,0,1,1,0,0
471712487,2162698,2162698,1114122,0,0,0.024587825,0.02458788,0.0,0.0,2162698,2162698,2228234,0,0,0.024184315,0.024184315,0.0,0.0,1,1,0,0,1,1,0,0
471918324,2162698,2162698,1114122,0,0,0.22855009,0.22855005,0.0,0.0,2162698,2162698,2228234,0,0,0.014060416,0.014060414,0.0,0.0,1,1,0,0,1,1,0,0
472113023,2162698,2162698,1114122,0,0,0.09231551,0.092315555,0.0,0.0,2162698,2162698,2228234,0,0,0.010913419,0.010913416,0.0,0.0,1,1,0,0,1,1,0,0
472318869,2162698,2162698,1114122,0,0,0.28423017,0.28423014,0.0,0.0,2162698,2162698,2228234,0,0,0.009170785,0.009170781,0.0,0.0,1,1,0,0,1,1,0,0
472512873,2162698,2162698,1114122,0,0,0.022432998,0.022433033,0.0,0.0,2162698,2162698,2228234,0,0,0.007523988,0.0075239916,0.0,0.0,1,1,0,0,1,1,0,0
472718827,2162698,2162698,1114122,0,0,0.136416,0.13641587,0.0,0.0,2162698,2162698,2228234,0,0,0.01296788,0.012967882,0.0,0.0,1,1,0,0,1,1,0,0
472918923,2162698,2162698,1114122,0,0,0.14648202,0.14648193,0.0,0.0,2162698,2162698,2228234,0,0,0.0073225885,0.007322591,0.0,0.0,1,1,0,0,1,1,0,0
473113619,2162698,2162698,1114122,0,0,0.03981181,0.03981182,0.0,0.0,2162698,2162698,2228234,0,0,0.0085967,0.0085967,0.0,0.0,1,1,0,0,1,1,0,0
473319037,2162698,2162698,1114122,0,0,0.07594305,0.07594296,0.0,0.0,2162698,2162698,2228234,0,0,0.01734602,0.017346019,0.0,0.0,1,1,0,0,1,1,0,0
473513668,2162698,2162698,1114122,0,0,0.0677221,0.06772209,0.0,0.0,2162698,2162698,2228234,0,0,0.017207066,0.017207067,0.0,0.0,1,1,0,0,1,1,0,0
473719624,2162698,2162698,1114122,0,0,0.037847783,0.037847802,0.0,0.0,2162698,2162698,2228234,0,0,0.019043844,0.019043837,0.0,0.0,1,1,0,0,1,1,0,0
473913686,2162698,2162698,1114122,0,0,0.12758875,0.12758875,0.0,0.0,2162698,2162698,2228234,0,0,0.017562192,0.017562194,0.0,0.0,1,1,0,0,1,1,0,0
474119405,2162698,2162698,1114122,0,0,0.13825527,0.13825557,0.0,0.0,2162698,2162698,2228234,0,0,0.010066782,0.010066786,0.0,0.0,1,1,0,0,1,1,0,0
474313828,2162698,2162698,1114122,0,0,0.08167566,0.08167568,0.0,0.0,2162698,2162698,2228234,0,0,0.01944336,0.019443367,0.0,0.0,1,1,0,0,1,1,0,0
474520123,2162698,2162698,1114122,0,0,0.22454083,0.22454092,0.0,0.0,2162698,2162698,2228234,0,0,0.021979269,0.021979265,0.0,0.0,1,1,0,0,1,1,0,0
474714301,2162698,2162698,1114122,0,0,0.05436465,0.054364596,0.0,0.0,2162698,2162698,2228234,0,0,0.01392456,0.013924559,0.0,0.0,1,1,0,0,1,1,0,0
474920016,2162698,2162698,1114122,0,0,0.045958217,0.045958217,0.0,0.0,2162698,2162698,2228234,0,0,0.0032146524,0.0032146529,0.0,0.0,1,1,0,0,1,1,0,0
475114257,2162698,2162698,1114122,0,0,0.18108734,0.1810873,0.0,0.0,2162698,2162698,2228234,0,0,0.018650021,0.018650025,0.0,0.0,1,1,0,0,1,1,0,0
475314488,2162698,2162698,1114122,0,0,0.11787242,0.11787247,0.0,0.0,2162698,2162698,2228234,0,0,0.011360548,0.011360553,0.0,0.0,1,1,0,0,1,1,0,0
475520314,2162698,2162698,1114122,0,0,0.053557534,0.05355744,0.0,0.0,2162698,2162698,2228234,0,0,0.0057410724,0.005741068,0.0,0.0,1,1,0,0,1,1,0,0
475720400,2162698,2162698,1114122,0,0,0.03132938,0.031329338,0.0,0.0,2162698,2162698,2228234,0,0,0.0050201644,0.0050201663,0.0,0.0,1,1,0,0,1,1,0,0
476114771,2162698,2162698,1114122,0,0,0.056314085,0.056314133,0.0,0.0,2162698,2162698,2228234,0,0,0.008178911,0.0081789065,0.0,0.0,1,1,0,0,1,1,0,0
476314945,2162698,2162698,1114122,0,0,0.15037462,0.15037437,0.0,0.0,2162698,2162698,2228234,0,0,0.004972293,0.0049722935,0.0,0.0,1,1,0,0,1,1,0,0
476515006,2162698,2162698,1114122,0,0,0.23179574,0.23179582,0.0,0.0,2162698,2162698,2228234,0,0,0.0066573923,0.0066573936,0.0,0.0,1,1,0,0,1,1,0,0
476720890,2162698,2162698,1114122,0,0,0.07169015,0.0716901,0.0,0.0,2162698,2162698,2228234,0,0,0.009065513,0.009065512,0.0,0.0,1,1,0,0,1,1,0,0
476915268,2162698,2162698,1114122,0,0,0.13252443,0.1325244,0.0,0.0,2162698,2162698,2228234,0,0,0.0113455225,0.011345524,0.0,0.0,1,1,0,0,1,1,0,0
477121215,2162698,2162698,1114122,0,0,0.055758376,0.055758484,0.0,0.0,2162698,2162698,2228234,0,0,0.007865397,0.0078653935,0.0,0.0,1,1,0,0,1,1,0,0
477315544,2162698,2162698,1114122,0,0,0.16141453,0.16141444,0.0,0.0,2162698,2162698,2228234,0,0,0.0077048438,0.0077048456,0.0,0.0,1,1,0,0,1,1,0,0
477521080,2162698,2162698,1114122,0,0,0.32380077,0.32380083,0.0,0.0,2162698,2162698,2228234,0,0,0.017315403,0.017315406,0.0,0.0,1,1,0,0,1,1,0,0
477715798,2162698,2162698,1114122,0,0,0.18148357,0.18148352,0.0,0.0,2162698,2162698,2228234,0,0,0.003989361,0.0039893594,0.0,0.0,1,1,0,0,1,1,0,0
477921514,2162698,2162698,1114122,0,0,0.103889056,0.10388905,0.0,0.0,2162698,2162698,2228234,0,0,0.012576937,0.012576937,0.0,0.0,1,1,0,0,1,1,0,0
478121835,2162698,2162698,1114122,0,0,0.06277783,0.062777825,0.0,0.0,2162698,2162698,2228234,0,0,0.01712737,0.017127367,0.0,0.0,1,1,0,0,1,1,0,0
478316064,2162698,2162698,1114122,0,0,0.11675273,0.11675266,0.0,0.0,2162698,2162698,2228234,0,0,0.016737003,0.016737003,0.0,0.0,1,1,0,0,1,1,0,0
478511740,2162698,2162698,1114122,0,0,0.044596173,0.044596188,0.0,0.0,2162698,2162698,2228234,0,0,0.018130606,0.018130615,0.0,0.0,1,1,0,0,1,1,0,0
478711141,2162698,2162698,1114122,0,0,0.066378474,0.06637852,0.0,0.0,2162698,2162698,2228234,0,0,0.011628219,0.011628214,0.0,0.0,1,1,0,0,1,1,0,0
478912052,2162698,2162698,1114122,0,0,0.015399826,0.015399868,0.0,0.0,2162698,2162698,2228234,0,0,0.011613236,0.011613233,0.0,0.0,1,1,0,0,1,1,0,0
479111312,2162698,2162698,1114122,0,0,0.08657436,0.08657432,0.0,0.0,2162698,2162698,2228234,0,0,0.015355226,0.015355227,0.0,0.0,1,1,0,0,1,1,0,0
479312427,2162698,2162698,1114122,0,0,0.04195947,0.041959457,0.0,0.0,2162698,2162698,2228234,0,0,0.01229896,0.01229896,0.0,0.0,1,1,0,0,1,1,0,0
