timestamp,timestamp_sample,states[0],states[1],states[2],states[3],states[4],states[5],states[6],states[7],states[8],states[9],states[10],states[11],states[12],states[13],states[14],states[15],states[16],states[17],states[18],states[19],states[20],states[21],states[22],states[23],covariances[0],covariances[1],covariances[2],covariances[3],covariances[4],covariances[5],covariances[6],covariances[7],covariances[8],covariances[9],covariances[10],covariances[11],covariances[12],covariances[13],covariances[14],covariances[15],covariances[16],covariances[17],covariances[18],covariances[19],covariances[20],covariances[21],covariances[22],covariances[23],n_states
394709422,394707136,0.99075186,0.0013422257,0.0796204,-0.10986113,-0.0073342077,-0.010901642,0.1442704,-0.0056611095,-0.0042712917,-0.43032506,8.742307e-06,-4.490015e-05,8.953454e-05,0.0,0.0,0.0007457814,0.33425954,-0.010652226,0.26255044,0.0,0.0,0.0,0.0,0.0,1.4028672e-06,3.27023e-06,3.104853e-06,3.55377e-05,0.0044934917,0.0045043156,0.012899298,0.003707679,0.0037103598,0.23430848,1.937485e-11,1.9053308e-11,3.282486e-11,4.0000004e-06,4.0000004e-06,5.0000164e-08,0.0,0.0,0.0,0.0,0.0,0.0,0.0,0.0,24
395710414,395707950,0.99076384,-0.00024381993,0.07980926,-0.1096241,-0.0076293442,-0.006298033,0.14503974,-0.0045929225,-0.0040662424,-0.3237207,8.66499e-06,-4.48106e-05,8.9304165e-05,0.0,0.0,0.00074890116,0.33425954,-0.010652226,0.26255044,0.0,0.0,0.0,0.0,0.0,1.4010517e-06,3.2718922e-06,3.1047605e-06,3.5543064e-05,0.0044938396,0.0045047193,0.012841047,0.0037077235,0.0037104003,0.2325378,1.93774e-11,1.9052444e-11,3.282369e-11,4.0000004e-06,4.0000004e-06,5e-08,0.0,0.0,0.0,0.0,0.0,0.0,0.0,0.0,24
396710880,396708770,0.99084735,-0.0010906595,0.07983257,-0.10884463,-0.0051241107,-0.004100025,0.13778044,-0.004799552,-0.006138981,-0.2643258,8.602354e-06,-4.4754666e-05,8.916185e-05,0.0,0.0,0.00075571926,0.33425954,-0.010652226,0.26255044,0.0,0.0,0.0,0.0,0.0,1.3948206e-06,3.4442432e-06,3.2765456e-06,3.555512e-05,0.0053961133,0.005409432,0.012924928,0.005133134,0.0051379423,0.23523165,1.956376e-11,1.924056e-11,3.2826932e-11,4.0000004e-06,4.0000004e-06,5.0000242e-08,0.0,0.0,0.0,0.0,0.0,0.0,0.0,0.0,24
397711453,397709593,0.99081695,-0.0012991237,0.07981313,-0.10913299,-0.009202455,-0.01779875,0.12644613,-0.010920876,-0.017687643,-0.2218504,8.583515e-06,-4.474098e-05,8.9095265e-05,0.0,0.0,0.0007632253,0.33425954,-0.010652226,0.26255044,0.0,0.0,0.0,0.0,0.0,1.4000066e-06,4.169884e-06,4.0026234e-06,3.556457e-05,0.010297847,0.010320641,0.012866724,0.018786903,0.018812614,0.23344488,2.0296653e-11,1.9990131e-11,3.284547e-11,4.0000004e-06,4.0000004e-06,5.000009e-08,0.0,0.0,0.0,0.0,0.0,0.0,0.0,0.0,24
398713089,398710409,0.9908516,-0.0012962638,0.079775505,-0.10884646,-0.008887938,-0.00968597,0.11606351,-0.00390629,-0.0055539296,-0.18523316,8.3735995e-06,-4.4658897e-05,8.895129e-05,0.0,0.0,0.000770304,0.33425954,-0.010652226,0.26255044,0.0,0.0,0.0,0.0,0.0,1.3903269e-06,3.3592987e-06,3.1909015e-06,3.5511184e-05,0.0047381255,0.0047503533,0.012950664,0.0038730556,0.0038752188,0.23614314,1.9487351e-11,1.9156805e-11,3.280348e-11,4.0000004e-06,4.0000004e-06,5.0000416e-08,0.0,0.0,0.0,0.0,0.0,0.0,0.0,0.0,24
399713387,399711228,0.9909465,-0.0035015673,0.07967841,-0.10800103,-0.012300876,-0.0070107304,0.10430346,-0.0065025585,-0.007886168,-0.1513735,8.2836605e-06,-4.4603315e-05,8.879628e-05,0.0,0.0,0.0007765993,0.33425954,-0.010652226,0.26255044,0.0,0.0,0.0,0.0,0.0,1.3848107e-06,3.5439082e-06,3.3758186e-06,3.5581957e-05,0.005863068,0.005877068,0.012893699,0.005256158,0.0052614254,0.23437075,1.9676805e-11,1.9348995e-11,3.2828937e-11,4.0000004e-06,4.0000004e-06,5.000017e-08,0.0,0.0,0.0,0.0,0.0,0.0,0.0,0.0,24
400714422,400712048,0.9910661,-0.0008394609,0.07921385,-0.107296206,-0.01287211,-0.009983723,0.094801135,-0.01582007,-0.015102058,-0.12351817,8.285527e-06,-4.457948e-05,8.857298e-05,0.0,0.0,0.000782679,0.33425954,-0.010652226,0.26255044,0.0,0.0,0.0,0.0,0.0,1.3838091e-06,4.249799e-06,4.0841883e-06,3.559475e-05,0.01088627,0.010909242,0.012837012,0.019657155,0.019684128,0.23261397,2.0381008e-11,2.0069954e-11,3.2844324e-11,4.0000004e-06,4.0000004e-06,5e-08,0.0,0.0,0.0,0.0,0.0,0.0,0.0,0.0,24
401714969,401712873,0.9908976,-0.0010249736,0.079551235,-0.10859316,-0.014566123,-0.010460422,0.09788998,-0.01991692,-0.01585241,-0.05097416,8.227778e-06,-4.4520304e-05,8.8429915e-05,0.0,0.0,0.0007846205,0.33425954,-0.010652226,0.26255044,0.0,0.0,0.0,0.0,0.0,1.3954541e-06,4.465894e-06,4.298242e-06,3.5643017e-05,0.01352666,0.013548989,0.012922243,0.037342887,0.03737841,0.23532411,2.0560128e-11,2.0252215e-11,3.286763e-11,4.0000004e-06,4.0000004e-06,5.0000345e-08,0.0,0.0,0.0,0.0,0.0,0.0,0.0,0.0,24
402716780,402713689,0.9909734,-0.0025404894,0.07949934,-0.107913084,-0.005917268,0.0008602099,0.09013342,-0.0028625655,-0.00063898053,-0.023285499,8.099539e-06,-4.4391105e-05,8.834111e-05,0.0,0.0,0.0007899983,0.33425954,-0.010652226,0.26255044,0.0,0.0,0.0,0.0,0.0,1.3816933e-06,3.5418468e-06,3.3732929e-06,3.5586887e-05,0.0054209325,0.005435199,0.01286456,0.0041286745,0.004130618,0.23354632,1.9700517e-11,1.9369685e-11,3.2822883e-11,4.0000004e-06,4.0000004e-06,5.000017e-08,0.0,0.0,0.0,0.0,0.0,0.0,0.0,0.0,24
403716885,403714502,0.9909186,-0.00043110654,0.07931094,-0.108582,-0.004509595,-0.0010610705,0.08731041,-0.0025462573,-0.00018836597,0.034574945,8.083067e-06,-4.4333174e-05,8.831336e-05,0.0,0.0,0.00079261296,0.33425954,-0.010652226,0.26255044,0.0,0.0,0.0,0.0,0.0,1.3843081e-06,3.4576885e-06,3.290137e-06,3.5586618e-05,0.005419923,0.005431239,0.012949732,0.003930838,0.003933873,0.23626925,1.95868e-11,1.9252913e-11,3.2819338e-11,4.0000004e-06,4.0000004e-06,5.0000438e-08,0.0,0.0,0.0,0.0,0.0,0.0,0.0,0.0,24
404707156,404705311,0.99091023,-0.0010915847,0.0794016,-0.10858756,-0.00252024,-0.0023677743,0.08587041,-0.0015520677,-0.0011042975,0.0919968,8.073621e-06,-4.428879e-05,8.82171e-05,0.0,0.0,0.00079497433,0.33425954,-0.010652226,0.26255044,0.0,0.0,0.0,0.0,0.0,1.3826645e-06,3.2927676e-06,3.1237198e-06,3.5618825e-05,0.004688676,0.004698668,0.012865005,0.0037956252,0.0037978904,0.23363858,1.9406485e-11,1.9066741e-11,3.2825236e-11,4.0000004e-06,4.0000004e-06,5.0000175e-08,0.0,0.0,0.0,0.0,0.0,0.0,0.0,0.0,24
405708582,405706127,0.9908945,-0.0004910335,0.07933575,-0.108783156,-0.0031329833,-0.0074829124,0.08682974,-0.00189927,-0.0030841131,0.15357794,8.032622e-06,-4.4262037e-05,8.815251e-05,0.0,0.0,0.0007971183,0.33425954,-0.010652226,0.26255044,0.0,0.0,0.0,0.0,0.0,1.3825073e-06,3.2682337e-06,3.0989636e-06,3.561907e-05,0.004468432,0.0044791047,0.0128068635,0.003676647,0.003679049,0.23185454,1.9386704e-11,1.9045588e-11,3.2822963e-11,4.0000004e-06,4.0000004e-06,5e-08,0.0,0.0,0.0,0.0,0.0,0.0,0.0,0.0,24
406708891,406706943,0.99092424,-0.0015273953,0.0793957,-0.10845871,-0.0063785915,-0.012023436,0.08722593,-0.0052502407,-0.0083941715,0.2195898,7.985507e-06,-4.4244014e-05,8.810206e-05,0.0,0.0,0.00079888944,0.33425954,-0.010652226,0.26255044,0.0,0.0,0.0,0.0,0.0,1.38046e-06,3.6118643e-06,3.4421078e-06,3.56244e-05,0.006312996,0.0063285525,0.012890836,0.006884204,0.0068917633,0.23452944,1.9752448e-11,1.9419924e-11,3.2830353e-11,4.0000004e-06,4.0000004e-06,5.0000263e-08,0.0,0.0,0.0,0.0,0.0,0.0,0.0,0.0,24
407710011,407707778,0.99094814,0.00064331637,0.07941524,-0.10823455,-0.0107710045,-0.005638549,0.0863912,-0.004471376,-0.0053968974,0.27640852,7.8403955e-06,-4.4174212e-05,8.800259e-05,0.0,0.0,0.0008014361,0.33425954,-0.010652226,0.26255044,0.0,0.0,0.0,0.0,0.0,1.3747682e-06,3.3058277e-06,3.1364218e-06,3.5570272e-05,0.00474971,0.0047602863,0.012832727,0.0053967987,0.005399124,0.23273814,1.9424304e-11,1.9083922e-11,3.2801723e-11,4.0000004e-06,4.0000004e-06,5.000009e-08,0.0,0.0,0.0,0.0,0.0,0.0,0.0,0.0,24
408710893,408708573,0.9908566,0.00050865044,0.079506494,-0.10900283,-0.011453856,-0.0019669714,0.08851339,-0.0054297177,-0.0036364577,0.36072847,7.749368e-06,-4.4095672e-05,8.7883636e-05,0.0,0.0,0.00080164947,0.33425954,-0.010652226,0.26255044,0.0,0.0,0.0,0.0,0.0,1.3804491e-06,3.3545805e-06,3.1847271e-06,3.5569043e-05,0.004750257,0.004762084,0.012917659,0.0036673488,0.0036698973,0.2354399,1.9484813e-11,1.9145957e-11,3.2805102e-11,4.0000004e-06,4.0000004e-06,5.0000356e-08,0.0,0.0,0.0,0.0,0.0,0.0,0.0,0.0,24
409711575,409709402,0.9908402,3.3950735e-05,0.07956914,-0.10910762,-0.0095276935,-0.006178978,0.09404418,-0.005367714,-0.004244193,0.4432901,7.6546075e-06,-4.3998094e-05,8.780378e-05,0.0,0.0,0.00080226664,0.33425954,-0.010652226,0.26255044,0.0,0.0,0.0,0.0,0.0,1.3798546e-06,3.3095293e-06,3.139569e-06,3.5571775e-05,0.004683851,0.00469448,0.012861046,0.0037144357,0.0037171019,0.23367073,1.9426747e-11,1.9086725e-11,3.2804794e-11,4.0000004e-06,4.0000004e-06,5.0000178e-08,0.0,0.0,0.0,0.0,0.0,0.0,0.0,0.0,24
410712535,410710202,0.9908773,-0.00031871506,0.07948754,-0.10882951,-0.0067354287,-0.006436523,0.09694168,-0.004417846,-0.003958033,0.53723127,7.5692456e-06,-4.3912492e-05,8.763398e-05,0.0,0.0,0.0008023658,0.33425954,-0.010652226,0.26255044,0.0,0.0,0.0,0.0,0.0,1.3774037e-06,3.2680682e-06,3.0984604e-06,3.5577705e-05,0.004497422,0.004507983,0.01280385,0.0036835675,0.003686041,0.23190378,1.9382466e-11,1.904108e-11,3.2804988e-11,4.0000004e-06,4.0000004e-06,5e-08,0.0,0.0,0.0,0.0,0.0,0.0,0.0,0.0,24
411713280,411711017,0.9908991,0.00046391477,0.07928015,-0.10878202,-0.0054580346,-0.0043603447,0.09890257,-0.0033049278,-0.002703588,0.6334242,7.4883596e-06,-4.384549e-05,8.7584325e-05,0.0,0.0,0.00080253853,0.33425954,-0.010652226,0.26255044,0.0,0.0,0.0,0.0,0.0,1.3754984e-06,3.2636067e-06,3.0950089e-06,3.55845e-05,0.0044514323,0.004462215,0.012887502,0.0036506492,0.0036532104,0.23457715,1.938069e-11,1.9038873e-11,3.2806247e-11,4.0000004e-06,4.0000004e-06,5.0000263e-08,0.0,0.0,0.0,0.0,0.0,0.0,0.0,0.0,24
412713825,412711832,0.990933,0.00047491348,0.07915415,-0.10856468,-0.0041929167,-0.0030067032,0.100483306,-0.0021713255,-0.0023560524,0.72952247,7.4438976e-06,-4.3796586e-05,8.744639e-05,0.0,0.0,0.0008027925,0.33425954,-0.010652226,0.26255044,0.0,0.0,0.0,0.0,0.0,1.3735913e-06,3.2647129e-06,3.096512e-06,3.559131e-05,0.0044528088,0.004463588,0.012830583,0.0036450361,0.003647647,0.23280968,1.9382915e-11,1.9040575e-11,3.2807652e-11,4.0000004e-06,4.0000004e-06,5.000009e-08,0.0,0.0,0.0,0.0,0.0,0.0,0.0,0.0,24
413714822,413712646,0.9909368,0.00095358613,0.07916363,-0.10851909,-0.0031722882,-0.0029228271,0.10332815,-0.0016594346,-0.0013906757,0.8293115,7.432965e-06,-4.3761727e-05,8.720958e-05,0.0,0.0,0.0008029353,0.33425954,-0.010652226,0.26255044,0.0,0.0,0.0,0.0,0.0,1.3743335e-06,3.2641265e-06,3.0955468e-06,3.5594425e-05,0.00445289,0.0044636335,0.012915837,0.0036455968,0.0036482045,0.23551957,1.9382e-11,1.9038961e-11,3.2808718e-11,4.0000004e-06,4.0000004e-06,5.0000352e-08,0.0,0.0,0.0,0.0,0.0,0.0,0.0,0.0,24
414716015,414713461,0.9909534,0.0006397313,0.07922068,-0.1083292,-0.0032616986,-0.0052195247,0.10471599,-0.0013875728,-0.0028472086,0.9275939,7.4194363e-06,-4.373896e-05,8.6975204e-05,0.0,0.0,0.00080330967,0.33425954,-0.010652226,0.26255044,0.0,0.0,0.0,0.0,0.0,1.3731677e-06,3.2631915e-06,3.0942178e-06,3.5541718e-05,0.0044510816,0.004461798,0.012859387,0.0036455086,0.0036481025,0.23375203,1.938046e-11,1.9037166e-11,3.2789337e-11,4.0000004e-06,4.0000004e-06,5.0000175e-08,0.0,0.0,0.0,0.0,0.0,0.0,0.0,0.0,24
415717224,415714280,0.99100757,0.0009136147,0.079207174,-0.10784023,-0.0020986502,-0.0040684417,0.104327664,-0.0008536729,-0.0027595346,1.0170332,7.3999167e-06,-4.3725227e-05,8.668034e-05,0.0,0.0,0.00080448185,0.33425954,-0.010652226,0.26255044,0.0,0.0,0.0,0.0,0.0,1.3710921e-06,3.26292e-06,3.0936612e-06,3.5549197e-05,0.0044501633,0.004460903,0.01280237,0.0036450112,0.0036476087,0.23198518,1.9380362e-11,1.9036345e-11,3.2791183e-11,4.0000004e-06,4.0000004e-06,5e-08,0.0,0.0,0.0,0.0,0.0,0.0,0.0,0.0,24
416707398,416705101,0.9910139,1.5302081e-05,0.079451725,-0.107605524,-0.0018531131,-0.010904937,0.10658374,-0.0012523944,-0.0036406824,1.0910105,7.4004893e-06,-4.3711345e-05,8.6234206e-05,0.0,0.0,0.0008068907,0.33425954,-0.010652226,0.26255044,0.0,0.0,0.0,0.0,0.0,1.3725802e-06,3.2552196e-06,3.0844942e-06,3.5525896e-05,0.004403891,0.004414468,0.012860082,0.0035824291,0.0035849374,0.23382872,1.9370705e-11,1.9026059e-11,3.278393e-11,4.0000004e-06,4.0000004e-06,5.000018e-08,0.0,0.0,0.0,0.0,0.0,0.0,0.0,0.0,24
417707856,417705900,0.99109244,0.0028345862,0.079037234,-0.10714949,-0.005076689,-0.0076430165,0.09862339,-0.00474335,-0.00985986,1.1620975,7.469644e-06,-4.370041e-05,8.571025e-05,0.0,0.0,0.0008093695,0.33425954,-0.010652226,0.26255044,0.0,0.0,0.0,0.0,0.0,1.3792335e-06,4.034812e-06,3.8661533e-06,3.5595694e-05,0.0092281,0.009249149,0.012804294,0.014849025,0.014869083,0.23207173,2.0177474e-11,1.9852286e-11,3.282781e-11,4.0000004e-06,4.0000004e-06,5e-08,0.0,0.0,0.0,0.0,0.0,0.0,0.0,0.0,24
418708742,418706717,0.99125785,0.0037111554,0.078606896,-0.10590123,-0.005114238,-0.007452065,0.09486258,-0.0057594934,-0.012651935,1.21269,7.5032426e-06,-4.368155e-05,8.52e-05,0.0,0.0,0.0008131844,0.33425954,-0.010652226,0.26255044,0.0,0.0,0.0,0.0,0.0,1.3758174e-06,4.394791e-06,4.228864e-06,3.561004e-05,0.012712964,0.01273597,0.012890083,0.032512113,0.03254757,0.23476663,2.050687e-11,2.0190074e-11,3.2837663e-11,4.0000004e-06,4.0000004e-06,5.000027e-08,0.0,0.0,0.0,0.0,0.0,0.0,0.0,0.0,24
419709712,419707534,0.99145865,0.0008829703,0.07886983,-0.1038676,-0.005603402,-0.0036294323,0.094925776,-0.0059322887,-0.010590078,1.2904907,7.5303915e-06,-4.3658954e-05,8.467132e-05,0.0,0.0,0.0008144344,0.33425954,-0.010652226,0.26255044,0.0,0.0,0.0,0.0,0.0,1.3637608e-06,4.4252406e-06,4.2576467e-06,3.5569203e-05,0.013405247,0.013426083,0.012833919,0.042942602,0.042970233,0.23298672,2.0527207e-11,2.0211251e-11,3.2819775e-11,4.0000004e-06,4.0000004e-06,5.000009e-08,0.0,0.0,0.0,0.0,0.0,0.0,0.0,0.0,24
420710685,420708370,0.99151456,-0.0007356979,0.07924145,-0.10304943,-0.0034745885,-0.00074470055,0.090801336,-0.001689555,-0.0015425582,1.3595401,7.5344824e-06,-4.361798e-05,8.418286e-05,0.0,0.0,0.00081636437,0.33425954,-0.010652226,0.26255044,0.0,0.0,0.0,0.0,0.0,1.3564073e-06,3.7106322e-06,3.5405217e-06,3.5570774e-05,0.0064710756,0.0064854254,0.012919246,0.0092972955,0.009298501,0.23567618,1.9881399e-11,1.9548654e-11,3.280548e-11,4.0000004e-06,4.0000004e-06,5.0000363e-08,0.0,0.0,0.0,0.0,0.0,0.0,0.0,0.0,24
421711327,421709167,0.9916209,-0.002500528,0.07963322,-0.101687804,-0.0030837832,-0.00069348025,0.0848529,-0.0023891793,0.0013793269,1.42569,7.6007213e-06,-4.3584874e-05,8.3722145e-05,0.0,0.0,0.00081825326,0.33425954,-0.010652226,0.26255044,0.0,0.0,0.0,0.0,0.0,1.3504449e-06,3.9269407e-06,3.7551297e-06,3.558167e-05,0.0077008554,0.007717681,0.012864892,0.005588305,0.00559347,0.23391864,2.0092943e-11,1.9765902e-11,3.2812628e-11,4.0000004e-06,4.0000004e-06,5.000018e-08,0.0,0.0,0.0,0.0,0.0,0.0,0.0,0.0,24
422712094,422709984,0.9916958,-0.001332021,0.07950836,-0.101074584,-0.004752528,0.0008134004,0.08047809,-0.005921022,0.004774255,1.470315,7.669998e-06,-4.356586e-05,8.332436e-05,0.0,0.0,0.00082151673,0.33425954,-0.010652226,0.26255044,0.0,0.0,0.0,0.0,0.0,1.3518954e-06,4.566415e-06,4.3953537e-06,3.5595393e-05,0.013150248,0.013174236,0.012810059,0.022243654,0.022272468,0.2321636,2.0689934e-11,2.0378099e-11,3.2830526e-11,4.0000004e-06,4.0000004e-06,5e-08,0.0,0.0,0.0,0.0,0.0,0.0,0.0,0.0,24
423713106,423710818,0.991972,-0.0027213753,0.0793373,-0.098436505,-0.0013347283,0.009553312,0.06797737,-0.0011752766,0.001687192,1.4700035,7.773416e-06,-4.348377e-05,8.2947845e-05,0.0,0.0,0.00082773383,0.33425954,-0.010652226,0.26255044,0.0,0.0,0.0,0.0,0.0,1.3255598e-06,3.3823633e-06,3.2123496e-06,3.555805e-05,0.0050168466,0.0050275493,0.01289716,0.0057998644,0.0058009564,0.23487698,1.9519102e-11,1.9178045e-11,3.2784758e-11,4.0000004e-06,4.0000004e-06,5.000027e-08,0.0,0.0,0.0,0.0,0.0,0.0,0.0,0.0,24
424713614,424711648,0.99218506,-0.0032700766,0.078952365,-0.09656501,-0.003939849,0.0074630375,0.06229469,-0.0025800793,0.006476798,1.5014019,7.8636185e-06,-4.347103e-05,8.2420134e-05,0.0,0.0,0.0008301871,0.33425954,-0.010652226,0.26255044,0.0,0.0,0.0,0.0,0.0,1.3207261e-06,4.1649273e-06,3.9964425e-06,3.5639398e-05,0.009977517,0.0099993395,0.012841261,0.017577505,0.017593058,0.23309393,2.0319952e-11,1.999835e-11,3.282888e-11,4.0000004e-06,4.0000004e-06,5.000009e-08,0.0,0.0,0.0,0.0,0.0,0.0,0.0,0.0,24
425715014,425712429,0.991597,-0.0019181272,0.077826016,-0.10331876,0.3509116,-0.044685118,0.052501943,0.09756802,-0.00605485,1.5534847,8.0603295e-06,-4.3528733e-05,8.138865e-05,0.0,0.0,0.0008300006,0.33425954,-0.010652226,0.26255044,0.0,0.0,0.0,0.0,0.0,1.3828667e-06,4.508759e-06,4.3462155e-06,3.5534384e-05,0.013389322,0.013430027,0.012924229,0.034410376,0.034442984,0.23578355,2.0633655e-11,2.0319791e-11,3.2817297e-11,4.0000004e-06,4.0000004e-06,5.000036e-08,0.0,0.0,0.0,0.0,0.0,0.0,0.0,0.0,24
427716723,427714031,0.99284405,-0.012208929,0.06427255,-0.09990442,5.5971637,-1.0604739,-0.08604546,4.132217,-0.91786724,1.7072542,9.251424e-06,-4.57843e-05,7.43147e-05,8.939292e-06,6.8423e-07,0.00081697165,0.33425954,-0.010652226,0.26255044,0.0,0.0,0.0,0.0,0.0,1.4392236e-06,5.328418e-06,5.220952e-06,3.5460434e-05,0.044472124,0.048737902,0.013676882,0.095826805,0.09791611,0.23239614,2.1441937e-11,2.1119979e-11,3.2788328e-11,3.99988e-06,3.9999322e-06,5e-08,0.0,0.0,0.0,0.0,0.0,0.0,0.0,0.0,24
428717260,428714821,0.9774681,-0.065023206,0.14821897,-0.13549623,9.052887,-2.842721,-2.7144802,11.814944,-2.4904456,1.6312745,1.0743064e-05,-4.5888093e-05,6.528307e-05,0.00030905628,4.6588902e-05,0.000744908,0.33425954,-0.010652226,0.26255044,0.0,0.0,0.0,0.0,0.0,2.0240393e-06,7.023546e-06,6.3895823e-06,3.4298508e-05,0.16031793,0.17199273,0.017720543,0.3028148,0.3197816,0.23733981,2.240312e-11,2.2098887e-11,3.2812354e-11,3.9917604e-06,3.993911e-06,5.0000352e-08,0.0,0.0,0.0,0.0,0.0,0.0,0.0,0.0,24
429708333,429705579,0.9797212,0.013345363,0.19968358,0.009741185,8.975805,-4.238733,-4.4302845,20.359398,-5.9019966,-0.5086018,1.1796569e-05,-4.608753e-05,5.9188817e-05,0.001913727,0.0003510497,0.0006297684,0.16704978,-0.0051217154,0.107546635,-0.009946081,0.04602393,0.0031299985,0.0,0.0,4.425681e-06,9.793635e-05,7.571859e-06,0.0021857687,0.32913113,0.35356876,0.029268384,0.95991266,1.0185702,0.24537091,2.334065e-11,2.302143e-11,3.315465e-11,3.9176257e-06,3.93847e-06,5e-08,0.0012869404,1.3014565e-05,0.0012859845,0.0012864821,0.00032527695,0.0012838833,0.0,0.0,24
430712829,430706341,0.97455347,0.0405621,0.21604598,0.043867707,6.8821754,-3.7697475,-4.4605355,26.020699,-9.444769,-4.036015,1.1690178e-05,-4.715746e-05,5.940138e-05,0.0040030587,0.00049589446,0.000573198,0.16502188,-0.004993947,0.11929614,-0.0060766656,0.062003423,-0.0035196599,0.0,0.0,9.797158e-06,0.00011412343,1.1298782e-05,0.0021625345,0.50308484,0.5666426,0.049683206,2.3425438,2.5233521,0.27819774,2.4265645e-11,2.3885071e-11,3.4088652e-11,3.6262957e-06,3.732508e-06,5.000027e-08,0.0012289874,1.2067005e-05,0.0012149777,0.0012189362,0.00024806397,0.0012200217,0.0,0.0,24
431709534,431707095,0.97671807,0.072055005,0.17027634,0.10879268,4.624898,-1.5335106,-1.9533666,26.721249,-10.363396,-6.1807294,1.1361102e-05,-4.918035e-05,5.9479633e-05,0.004003023,-9.008458e-05,0.0005640684,0.14794159,-0.003808904,0.18433404,0.044737905,0.05710564,-0.06354207,0.0,0.0,3.430357e-05,7.445036e-05,1.9999667e-05,0.0021714664,0.64733016,0.7390367,0.066338316,4.25383,4.791922,0.3225209,2.5161945e-11,2.4676818e-11,3.499707e-11,2.9673254e-06,3.2907033e-06,5.000009e-08,0.001129067,1.1080668e-05,0.0009249978,0.0010391312,0.00022418366,0.0009953621,0.0,0.0,24
432714558,432707833,0.97726667,-0.031299554,0.10718097,0.18022925,2.6889577,0.21555449,-1.061136,23.996408,-8.170573,-7.0366564,1.0986046e-05,-5.182323e-05,5.947292e-05,0.003907267,-0.0011499033,0.0006263621,0.13664125,-0.0024231183,0.249271,0.08881943,0.030672215,-0.11306252,0.0,0.0,7.843064e-05,3.4813853e-05,1.1929356e-05,0.0021727618,0.6940125,0.8030726,0.066911615,6.0311265,7.1230564,0.36796352,2.6065011e-11,2.5423913e-11,3.591348e-11,2.1460883e-06,2.6569146e-06,5.0000452e-08,0.00055392634,9.555213e-06,0.00072805287,0.0005657285,0.00018769036,0.0007010905,0.0,0.0,24
433710553,433708564,0.9744861,-0.08817047,0.068973824,0.19453932,2.064096,0.94445777,-0.35349938,20.455141,-5.2075477,-7.759376,1.0753133e-05,-5.4608234e-05,5.953669e-05,0.0038857833,-0.0019219301,0.00074997725,0.15237989,-0.0022530155,0.299763,0.1078779,0.02370143,-0.16050301,0.0,0.0,7.93826e-05,2.0572503e-05,2.824904e-05,0.0021600248,0.62878215,0.77225417,0.056539048,7.1788225,8.710024,0.37725666,2.7002336e-11,2.6151671e-11,3.686193e-11,1.4560429e-06,1.9991394e-06,5.000027e-08,0.0003061885,8.459181e-06,0.00049240957,0.00036994158,0.00015479265,0.00042857853,0.0,0.0,24
434716184,434709295,0.9910801,-0.023866015,0.07370817,0.10843347,2.3819044,0.7871037,-0.66157645,17.71738,-2.9425519,-9.113942,1.0526254e-05,-5.6846384e-05,5.9835722e-05,0.0039240737,-0.0023120716,0.00090941676,0.17348236,-0.0028781784,0.3016494,0.092732765,0.03167273,-0.17346278,0.0,0.0,2.0599275e-05,2.031353e-05,1.270446e-05,0.0019615856,0.52826273,0.7388209,0.050017815,7.748228,9.4338255,0.37119743,2.7922227e-11,2.685269e-11,3.7826946e-11,1.0124932e-06,1.4612875e-06,5e-08,0.00024617088,7.906502e-06,0.00034714153,0.00031155522,0.00013175306,0.00029015023,0.0,0.0,24
435712073,435709994,0.9926392,0.07135772,0.044110034,0.08734932,2.237316,0.92641175,1.5796363,15.8897085,-1.448062,-9.542346,9.89923e-06,-5.7603633e-05,6.0594986e-05,0.0039663413,-0.0023948117,0.0010896109,0.20688812,-0.0031473823,0.2873857,0.057313178,0.025687538,-0.17718469,0.0,0.0,2.7598673e-05,1.37667375e-05,1.7667371e-05,0.0013803827,0.45869228,0.6528221,0.04347753,7.9947653,9.603793,0.37266707,2.8802637e-11,2.7540217e-11,3.8777297e-11,7.4540003e-07,1.0762677e-06,5.0000093e-08,0.0002153411,7.588494e-06,0.00028243047,0.00025970128,0.00011956701,0.00024383939,0.0,0.0,24
436712748,436710700,0.98737395,0.1262925,0.05010139,0.0814413,1.4805264,3.0107205,2.5744205,14.08526,0.26480043,-8.276263,9.533716e-06,-5.6799014e-05,6.0941158e-05,0.003968657,-0.002334305,0.0012975406,0.24205439,-0.0026432262,0.27792463,0.02021696,0.009918446,-0.18635298,0.0,0.0,4.2802014e-05,1.4875534e-05,2.4691097e-05,0.0009335382,0.43722317,0.5301127,0.040938247,8.084534,9.409901,0.35979477,2.9735582e-11,2.8211985e-11,3.9722912e-11,5.790617e-07,8.2066873e-07,5.000009e-08,0.00019488703,7.3483493e-06,0.00023432539,0.00022403513,0.00010261483,0.00020549475,0.0,0.0,24
437718136,437711404,0.9532402,0.13980027,0.22706167,0.1422396,-3.5704024,7.8737926,-5.3626647,10.122239,4.581071,-11.154236,9.91305e-06,-5.501891e-05,6.0797483e-05,0.0040088566,-0.0021352265,0.0014899875,0.23817822,-0.0018213305,0.2669815,0.021198792,-0.001668543,-0.1802005,0.0,0.0,6.4702515e-05,4.9663737e-05,1.8414263e-05,0.00064569444,0.5168051,0.46407136,0.07117817,8.1477785,8.999255,0.37116274,3.0672635e-11,2.882365e-11,4.0659257e-11,4.748505e-07,6.5402133e-07,5e-08,0.00017983957,7.1373656e-06,0.0002052364,0.00020353607,8.909429e-05,0.00018179406,0.0,0.0,24
438718902,438712058,0.9380559,0.24674024,0.17770551,0.16610631,-5.8304367,10.782177,-1.9456921,3.9009824,10.356809,-16.122845,1.0410379e-05,-5.3685817e-05,6.057232e-05,0.004010324,-0.0016617907,0.0016099538,0.22724003,-0.0010546328,0.25609085,0.026668107,-0.019535055,-0.16937049,0.0,0.0,7.826465e-05,3.7964484e-05,3.223036e-05,0.00048223973,0.486808,0.45147264,0.0690509,8.122423,8.560856,0.3859815,3.1574562e-11,2.95518e-11,4.1605476e-11,4.0745775e-07,5.440313e-07,5e-08,0.0001530841,6.870171e-06,0.00013863368,0.00016594502,7.446282e-05,0.00012763022,0.0,0.0,24
439719835,439712735,0.9318603,0.23975345,0.13830253,0.23457871,-7.1537037,15.283133,-0.32092223,-1.4035954,17.914646,-17.892487,1.1106113e-05,-5.2196145e-05,5.9738428e-05,0.0040134443,-0.0008922619,0.0016508678,0.22542189,-0.00069378485,0.24856946,0.024225751,-0.03785713,-0.16201031,0.0,0.0,0.00010321101,2.990668e-05,2.5410156e-05,0.00034645482,0.50587606,0.4628804,0.07707212,8.029515,8.219139,0.39462906,3.244257e-11,3.0407756e-11,4.2532675e-11,3.6170303e-07,4.6884168e-07,5e-08,0.00014133439,6.629553e-06,0.00010887782,0.00014210369,6.1196806e-05,0.0001077193,0.0,0.0,24
440715579,440713405,0.93089414,0.16448887,0.0745424,0.3175265,-10.229307,15.857363,1.233121,-7.468073,25.735125,-18.637241,1.19320075e-05,-5.192121e-05,5.8879843e-05,0.0039944206,0.00017400944,0.0016484826,0.22560014,-0.0006701327,0.2453526,0.021759717,-0.044947546,-0.15807591,0.0,0.0,0.00012012781,2.2130782e-05,1.8589995e-05,0.00026061918,0.40563637,0.50985867,0.085464895,7.9126887,8.031662,0.4253963,3.3307173e-11,3.1343855e-11,4.3471105e-11,3.3083202e-07,4.1690495e-07,5.000036e-08,0.0001321369,6.4484825e-06,0.000102476915,0.00012758494,5.2986885e-05,0.00010419142,0.0,0.0,24
441716218,441714110,0.9360758,-0.016663937,-0.037058014,0.34944403,-11.956475,12.562888,2.1148968,-14.772417,29.253206,-17.813719,1.27399635e-05,-5.121894e-05,5.776047e-05,0.0038809073,0.0013874177,0.0016415693,0.22372112,-0.0005747883,0.2467442,0.023507372,-0.043700535,-0.15845834,0.0,0.0,0.000109983506,2.1146203e-05,1.9441897e-05,0.000214872,0.29635218,0.48873663,0.09080613,7.6027956,7.994501,0.44235113,3.417798e-11,3.233125e-11,4.4432718e-11,3.0638932e-07,3.8140044e-07,5.000009e-08,0.00013206009,6.2895633e-06,0.000100373174,0.00012540005,4.8093723e-05,0.000102516635,0.0,0.0,24
442721541,442714747,0.9172154,0.23542507,0.09520549,0.30696392,-10.759266,11.168702,2.8942368,-19.91663,30.66849,-15.002321,1.3989378e-05,-4.941894e-05,5.5133896e-05,0.003680446,0.0025543992,0.0015249582,0.23485564,0.00048650714,0.25878808,0.016582727,-0.0486093,-0.17169045,0.0,0.0,6.9299094e-05,2.5821584e-05,2.0309539e-05,0.00016855892,0.26150545,0.39089194,0.085576,7.188988,7.7888813,0.45375127,3.4993022e-11,3.299207e-11,4.5234e-11,2.793084e-07,3.561689e-07,5e-08,0.00010255938,6.1153514e-06,9.371777e-05,9.72823e-05,3.719397e-05,9.320147e-05,0.0,0.0,24
443707320,443705363,0.7582186,0.2004336,0.12128086,0.6084588,-15.497458,15.99512,2.5670688,-24.462517,34.380116,-10.388796,1.2936127e-05,-4.6800404e-05,5.366616e-05,0.003271866,0.0037175398,0.0013591237,0.2197875,0.0037103898,0.26483282,0.03333806,-0.058163777,-0.17204356,0.0,0.0,9.302753e-05,2.6953554e-05,1.7794955e-05,6.2326035e-05,0.2617515,0.43277276,0.0766331,6.8640046,7.406475,0.42475843,3.5845025e-11,3.3816082e-11,4.6123296e-11,2.5145278e-07,3.3739312e-07,5.0000178e-08,7.129548e-05,5.79306e-06,6.675638e-05,5.7420464e-05,2.5617383e-05,7.473965e-05,0.0,0.0,24
444708104,444706006,0.69396853,0.060734075,0.21030822,0.68592244,-20.645609,15.574998,-4.987538,-33.40144,40.416573,-10.465386,1.1416092e-05,-4.7171256e-05,5.275646e-05,0.0028710957,0.0040025874,0.001202721,0.23827642,0.0065690842,0.26804817,0.016543103,-0.06172354,-0.1765012,0.0,0.0,6.620646e-05,2.7156899e-05,2.1471706e-05,3.3682783e-05,0.29972744,0.46615618,0.08193436,6.7043667,7.232659,0.4333031,3.6557018e-11,3.4365854e-11,4.6970854e-11,2.3296411e-07,3.2505264e-07,5.000009e-08,3.664465e-05,5.497651e-06,6.209461e-05,2.8198177e-05,1.8693474e-05,6.388283e-05,0.0,0.0,24
445713167,445706643,0.6537617,0.092032686,0.2734227,0.69954675,-22.518404,12.8622055,-2.9993742,-42.940582,42.108948,-13.108638,1.0458929e-05,-4.6361107e-05,5.2597563e-05,0.00269679,0.00400403,0.0012330229,0.2449642,0.009534456,0.26800534,0.010823393,-0.06042181,-0.17386192,0.0,0.0,4.87066e-05,2.6795507e-05,2.0359486e-05,2.7489255e-05,0.30075413,0.41403463,0.06498473,6.608825,7.125928,0.42471966,3.7041092e-11,3.4915383e-11,4.7759727e-11,2.2895824e-07,3.2076989e-07,5e-08,2.4219853e-05,5.2293644e-06,5.6926096e-05,1.8512063e-05,1.6318347e-05,5.5875415e-05,0.0,0.0,24
446709396,446707271,0.6050011,0.089132346,0.21408163,0.7617074,-22.965637,10.565962,0.28476778,-50.680393,40.746315,-12.7791195,1.1915732e-05,-4.2669817e-05,5.180572e-05,0.0025579147,0.0039957482,0.001204641,0.24493061,0.013270358,0.2702037,0.011292127,-0.060097713,-0.17199977,0.0,0.0,4.5618246e-05,2.356647e-05,2.0753994e-05,2.0735371e-05,0.29919714,0.3734326,0.05322429,6.5356703,7.018673,0.4036389,3.749223e-11,3.5430412e-11,4.8613065e-11,2.2667224e-07,3.188252e-07,5e-08,1.8317933e-05,4.9526225e-06,5.5785782e-05,1.3884991e-05,1.4568898e-05,5.3680935e-05,0.0,0.0,24
447714706,447707893,0.5186782,0.04564525,0.23910275,0.8195849,-23.967808,6.734002,-0.5527044,-56.995533,36.79016,-11.665251,1.516183e-05,-3.7028152e-05,5.0954928e-05,0.0025516767,0.003988881,0.0011426843,0.24083039,0.016965477,0.27191225,0.014475164,-0.05943991,-0.16833703,0.0,0.0,4.307807e-05,2.2722064e-05,2.2253384e-05,1.5854435e-05,0.34174392,0.37877324,0.051825497,6.5275674,6.953741,0.3981294,3.7843718e-11,3.5960946e-11,4.9463156e-11,2.2521867e-07,3.1699534e-07,5e-08,1.4649723e-05,4.6802875e-06,5.4779783e-05,1.113942e-05,1.3597617e-05,5.198561e-05,0.0,0.0,24
448715113,448708514,0.40167138,0.016729055,0.24441904,0.8824055,-23.578913,1.7377266,-0.4435278,-61.78627,29.773863,-11.077073,1.8820041e-05,-3.0406207e-05,5.0607643e-05,0.0027224154,0.0039837006,0.0010523301,0.23505825,0.0206136,0.2726716,0.01787884,-0.058730304,-0.1627806,0.0,0.0,4.396106e-05,2.142881e-05,2.3067565e-05,1.0802764e-05,0.38547483,0.37871188,0.04958819,6.6159096,6.931741,0.38396993,3.807013e-11,3.648064e-11,5.0255917e-11,2.24119e-07,3.1405423e-07,5e-08,1.1762424e-05,4.4054095e-06,5.3476524e-05,9.133094e-06,1.2947433e-05,5.0004568e-05,0.0,0.0,24
449715784,449709123,0.29547754,-0.057612404,0.07249753,0.95085126,-21.356516,-2.6297078,-0.34228948,-64.33015,20.654007,-10.534511,2.1859962e-05,-2.3359025e-05,5.092929e-05,0.0030842733,0.0039883875,0.000939878,0.22991052,0.02456903,0.279097,0.020343157,-0.06109991,-0.16214955,0.0,0.0,4.7966547e-05,1.733645e-05,2.5768204e-05,4.7611493e-06,0.41741568,0.37992674,0.04704358,6.7765913,6.930669,0.3838415,3.826567e-11,3.6908962e-11,5.096605e-11,2.2273296e-07,3.095021e-07,5e-08,9.499582e-06,4.1277153e-06,5.193828e-05,7.750332e-06,1.1873222e-05,4.781053e-05,0.0,0.0,24
450716245,450709735,0.26361582,-0.07017095,0.13155317,0.9530354,-17.07356,-5.4377995,-0.48810065,-62.93432,11.2193,-9.975158,2.4593302e-05,-1.5855901e-05,5.1844847e-05,0.0035676884,0.0039747595,0.0007842735,0.22580925,0.028484296,0.28943318,0.022089506,-0.06479227,-0.16548377,0.0,0.0,4.7074394e-05,1.660353e-05,2.4711213e-05,5.1106986e-06,0.42897114,0.3928168,0.041803595,6.956716,6.9618406,0.36954746,3.8401542e-11,3.72705e-11,5.1596203e-11,2.2075655e-07,3.0333425e-07,5e-08,7.916711e-06,3.8701473e-06,5.0171024e-05,6.95173e-06,1.077812e-05,4.557107e-05,0.0,0.0,24
451717060,451710313,0.1904904,-0.07777261,0.07158614,0.9759817,-12.113626,-7.4157133,-0.20945215,-57.46152,2.0180774,-9.384462,2.7071554e-05,-7.991766e-06,5.294503e-05,0.004008901,0.003979787,0.00060364336,0.2214095,0.031662077,0.29938006,0.023994645,-0.06812536,-0.16878928,0.0,0.0,5.0045124e-05,1.5180239e-05,2.3596322e-05,3.1766401e-06,0.42693585,0.41029516,0.037668828,7.135316,7.028857,0.35479695,3.847136e-11,3.7641036e-11,5.210035e-11,2.181448e-07,2.9671043e-07,5e-08,6.812745e-06,3.6520855e-06,4.858147e-05,6.4130627e-06,9.893327e-06,4.382419e-05,0.0,0.0,24
453718166,453711485,0.12145762,-0.10092863,-0.0374038,0.98674333,-2.0455275,-6.483767,1.269486,-38.11139,-9.8438225,-6.835228,2.9199207e-05,6.49794e-06,5.291921e-05,0.004005001,0.0039986894,0.00030263307,0.21428674,0.03551247,0.32305178,0.027925983,-0.07589182,-0.18103075,0.0,0.0,5.339755e-05,1.401412e-05,2.1289106e-05,1.9658305e-06,0.38247246,0.43865925,0.030901074,7.3225784,7.225944,0.3341904,3.8476177e-11,3.840695e-11,5.279189e-11,2.1113944e-07,2.8497394e-07,5e-08,5.3808535e-06,3.3462663e-06,4.2825723e-05,5.7703937e-06,8.090492e-06,3.8591315e-05,0.0,0.0,24
454718802,454712062,0.1116217,-0.10278736,0.09217403,0.98411345,2.0870578,-5.7096596,2.1839635,-26.457537,-11.767833,-5.046639,2.9506637e-05,1.2255588e-05,5.233205e-05,0.0040036733,0.004002274,0.00022317156,0.21185452,0.036198117,0.3279061,0.028943276,-0.07709654,-0.18243462,0.0,0.0,5.431491e-05,1.3943394e-05,2.0074498e-05,2.4200679e-06,0.36284065,0.4441939,0.029568497,7.316755,7.34343,0.3298133,3.8422984e-11,3.8759718e-11,5.2970628e-11,2.0699582e-07,2.8049996e-07,5e-08,4.9162827e-06,3.2488697e-06,4.1514515e-05,5.5777164e-06,7.706865e-06,3.747745e-05,0.0,0.0,24
455719368,455712636,0.0582567,-0.1126268,0.24639687,0.96083826,5.29828,-6.990908,2.679769,-15.16681,-13.104568,-2.9225051,2.9687757e-05,1.6240181e-05,5.1247727e-05,0.0039943014,0.004003541,0.00019224094,0.20997241,0.036252398,0.3278158,0.02974363,-0.07688115,-0.18085136,0.0,0.0,5.3029507e-05,1.6104392e-05,1.8563796e-05,2.8248708e-06,0.35571083,0.44370285,0.02868152,7.28081,7.447913,0.31988811,3.8385913e-11,3.8962923e-11,5.2803494e-11,2.023869e-07,2.7649997e-07,5e-08,4.5184374e-06,3.1690267e-06,4.0535346e-05,5.3377403e-06,7.62299e-06,3.6499925e-05,0.0,0.0,24
456720156,456713200,-0.070643075,-0.10135294,0.23783356,0.96341705,8.066806,-9.574335,4.1318035,-5.0069714,-15.760882,-0.12968986,2.7624932e-05,2.0364025e-05,4.7747028e-05,0.0039982847,0.0040040505,0.00019499594,0.20865043,0.035858784,0.32806692,0.030932434,-0.07674708,-0.18015599,0.0,0.0,5.3880405e-05,1.614164e-05,1.7640497e-05,1.7487356e-06,0.3501191,0.43002477,0.029020522,7.242776,7.5108757,0.31280544,3.849885e-11,3.8984736e-11,5.224283e-11,1.974902e-07,2.7247108e-07,5e-08,4.143598e-06,3.1012344e-06,3.78045e-05,4.9487876e-06,7.4942895e-06,3.3868775e-05,0.0,0.0,24
457720449,457713765,-0.20021376,-0.15019746,0.18122907,0.95105803,11.528477,-12.323355,2.3308938,4.6113987,-19.796919,3.7740197,2.5578403e-05,2.2783082e-05,4.3402775e-05,0.003864641,0.0040041776,0.00016457694,0.20772175,0.035351478,0.32808843,0.032232966,-0.077754,-0.18028279,0.0,0.0,5.1945408e-05,1.5152565e-05,1.8679151e-05,2.506635e-06,0.3643225,0.44297954,0.03227556,7.2043614,7.5273213,0.316462,3.883719e-11,3.9099602e-11,5.16042e-11,1.926421e-07,2.6847988e-07,5e-08,3.8125731e-06,3.0476942e-06,3.6545985e-05,4.6254795e-06,7.337294e-06,3.273427e-05,0.0,0.0,24
458716603,458714325,-0.29136172,-0.37867314,0.32140684,0.81756514,21.40677,-15.675117,-3.0961869,17.485535,-25.540722,1.9918917,2.3878527e-05,2.2693399e-05,3.954506e-05,0.0036988996,0.004002226,0.0001329354,0.20861952,0.03495654,0.32738796,0.032792438,-0.0784508,-0.18085556,0.0,0.0,3.8226288e-05,1.7890095e-05,2.328443e-05,6.209045e-06,0.4014844,0.54610795,0.044545237,7.2472787,7.6503763,0.32149112,3.9257063e-11,3.8914833e-11,5.0657284e-11,1.8957901e-07,2.6560787e-07,5.0000093e-08,3.4745597e-06,3.0025662e-06,3.2199237e-05,4.2991305e-06,7.16175e-06,2.8580609e-05,0.0,0.0,24
459717022,459714873,-0.5388559,-0.32646334,0.15123422,0.7616983,29.018078,-14.374472,-0.7089363,34.43025,-30.49638,-1.0008997,1.9511444e-05,2.6852626e-05,3.41648e-05,0.003697652,0.0039312714,0.00013853225,0.21083967,0.03464997,0.32457945,0.03160278,-0.07792045,-0.1794319,0.0,0.0,3.2573138e-05,1.3825246e-05,1.9776115e-05,1.4169974e-05,0.35527533,0.57119954,0.05161813,7.2347574,7.8055234,0.34212387,3.980463e-11,3.8359718e-11,4.9019955e-11,1.892748e-07,2.642189e-07,5.0000093e-08,3.1796826e-06,2.9633763e-06,2.754614e-05,3.9679585e-06,7.0218557e-06,2.4141096e-05,0.0,0.0,24
460708041,460705422,-0.61713326,-0.26242632,0.21172947,0.7109498,30.475754,-10.946631,3.4199417,49.27255,-31.445591,-0.8989464,1.3703745e-05,3.5453737e-05,2.5845786e-05,0.0036800557,0.0037778455,0.00017409188,0.21370377,0.03430226,0.322296,0.02995065,-0.07744783,-0.17804831,0.0,0.0,2.763589e-05,1.47851915e-05,1.4980727e-05,1.6937069e-05,0.29106164,0.5056235,0.047489055,7.035753,7.7829423,0.34482056,4.0467924e-11,3.7857245e-11,4.6824208e-11,1.887913e-07,2.6279983e-07,5.0000093e-08,2.925748e-06,2.9251853e-06,2.616131e-05,3.741706e-06,6.8589075e-06,2.2822998e-05,0.0,0.0,24
461708328,461705967,-0.6831797,-0.24789299,0.27979106,0.627321,31.788761,-7.5580726,6.035103,61.5995,-30.260233,2.7162452,9.668098e-06,4.734508e-05,1.8949744e-05,0.0036280816,0.0035473474,0.00023011777,0.21718547,0.03377376,0.32349217,0.029109668,-0.07672756,-0.1794045,0.0,0.0,2.1156724e-05,1.5755808e-05,1.2333456e-05,1.9729086e-05,0.24775757,0.466879,0.0480881,6.76733,7.705602,0.3542672,4.116316e-11,3.746261e-11,4.4557552e-11,1.8802602e-07,2.6011395e-07,5.000009e-08,2.711967e-06,2.8878133e-06,2.4540057e-05,3.496273e-06,6.5095433e-06,2.1412985e-05,0.0,0.0,24
462713034,462706507,-0.7587709,-0.43036503,0.21479645,0.4392211,37.93854,-1.3819728,4.6093297,74.15424,-26.622868,7.2788506,6.6066987e-06,5.8156358e-05,1.1452863e-05,0.0036576248,0.0033328948,0.00023427868,0.2208228,0.0331422,0.3241388,0.028089382,-0.075885594,-0.18026654,0.0,0.0,1.1853705e-05,1.2775024e-05,1.4895732e-05,2.4263505e-05,0.22283638,0.52473915,0.060708113,6.4610295,7.6891913,0.36084205,4.1825512e-11,3.7040048e-11,4.23235e-11,1.867328e-07,2.5431095e-07,5e-08,2.5472525e-06,2.8508377e-06,2.2459213e-05,3.2655298e-06,6.224491e-06,1.9550514e-05,0.0,0.0,24
463709418,463707067,-0.9114767,-0.2825396,0.08636115,0.28622285,40.471905,8.279918,3.0781074,89.677895,-16.559702,9.5689,2.8284405e-06,6.4139254e-05,3.996741e-06,0.0037474935,0.0032356943,0.00015826065,0.22518075,0.032698255,0.32465446,0.026924295,-0.07561423,-0.18136327,0.0,0.0,5.6356603e-06,1.11635745e-05,1.0311899e-05,3.1387623e-05,0.20894238,0.5393293,0.069692954,6.122323,7.852168,0.38155797,4.2470777e-11,3.670902e-11,4.01719e-11,1.8455161e-07,2.445951e-07,5e-08,2.4224196e-06,2.8142485e-06,2.1316167e-05,3.0979384e-06,6.0996713e-06,1.8432615e-05,0.0,0.0,24
464714149,464707586,-0.9475768,-0.20602404,0.11389796,0.216055,36.90332,11.4439125,5.320816,100.33293,-4.7026806,12.803626,1.9765407e-06,7.051009e-05,1.3036208e-06,0.0037889557,0.0030585593,2.328869e-05,0.2297346,0.032286316,0.32850036,0.026725907,-0.07555634,-0.18490957,0.0,0.0,3.5147011e-06,1.0834351e-05,8.500446e-06,3.1174426e-05,0.1922577,0.45861045,0.058905244,5.823824,7.896395,0.3996758,4.300675e-11,3.6728513e-11,3.8226564e-11,1.8189277e-07,2.3317489e-07,5e-08,2.3094044e-06,2.7779015e-06,2.0984646e-05,2.9662474e-06,5.75572e-06,1.8162278e-05,0.0,0.0,24
465714777,465708149,-0.95543516,-0.25659338,0.100160204,0.10616789,34.504112,15.706894,6.0014563,106.86645,7.0385814,18.123093,-1.9442005e-07,7.3331015e-05,-3.0090203e-07,0.0039139017,0.0029284612,-0.00026139975,0.23405458,0.031925317,0.33165693,0.026513472,-0.07593327,-0.1886485,0.0,0.0,1.947375e-06,9.851504e-06,8.705027e-06,3.0296898e-05,0.1918119,0.4099315,0.052489664,5.606653,7.804926,0.39094707,4.346736e-11,3.6940024e-11,3.6765598e-11,1.7921452e-07,2.2076445e-07,5e-08,2.232833e-06,2.7421854e-06,2.054548e-05,2.8289462e-06,5.5926257e-06,1.7781897e-05,0.0,0.0,24
466715095,466708654,-0.99454725,-0.03954845,0.051675487,0.081494786,31.518427,18.132036,5.506555,110.20221,19.400202,23.269506,-1.1099339e-06,7.5758304e-05,1.4763973e-06,0.003986603,0.0028275969,-0.0006173321,0.23828386,0.031637073,0.33504948,0.026377859,-0.07610954,-0.19238445,0.0,0.0,1.2453235e-06,9.363911e-06,7.50236e-06,3.0378134e-05,0.19652486,0.3675336,0.045124676,5.49378,7.645133,0.38913116,4.385664e-11,3.731019e-11,3.5625478e-11,1.762826e-07,2.1024658e-07,5e-08,2.1700773e-06,2.709497e-06,1.9954774e-05,2.7094509e-06,5.271302e-06,1.734449e-05,0.0,0.0,24
467715779,467709185,-0.9229644,-0.33114308,-0.08008946,0.17907171,26.179197,17.334694,-2.1264036,109.62593,28.429394,23.577484,-2.2881313e-06,7.800459e-05,5.273316e-06,0.0038809686,0.0028412489,-0.000611527,0.24319884,0.03163808,0.3348389,0.025581067,-0.07458806,-0.1923793,0.0,0.0,2.5904926e-06,7.904777e-06,1.03974735e-05,2.6443025e-05,0.2048408,0.33859864,0.03421787,5.464946,7.4512224,0.36458012,4.4279375e-11,3.7783103e-11,3.489188e-11,1.7470803e-07,2.0788657e-07,5e-08,2.0944824e-06,2.6795103e-06,1.859636e-05,2.6428281e-06,4.7412846e-06,1.616035e-05,0.0,0.0,24
468711917,468709717,-0.9886143,-0.11494812,-0.045109667,0.08598806,19.637941,18.019964,0.5989293,103.441376,36.354866,22.3501,8.6365293e-07,7.8812416e-05,5.1632433e-06,0.0036935986,0.0028861742,-0.00044540231,0.24817856,0.031540137,0.33662027,0.025228174,-0.073457606,-0.19362724,0.0,0.0,1.107498e-06,8.932737e-06,8.5230595e-06,2.8566341e-05,0.19399016,0.2786578,0.028151391,5.4714413,7.1836123,0.33794346,4.464936e-11,3.8260308e-11,3.4410037e-11,1.7330098e-07,2.0725676e-07,5e-08,2.0465002e-06,2.6541027e-06,1.8382172e-05,2.6090054e-06,4.6176992e-06,1.590832e-05,0.0,0.0,24
469713052,469710248,-0.98825204,0.11266663,0.102415055,0.013243127,13.520751,16.23968,6.4742074,93.089195,42.06724,24.638168,5.941292e-06,7.668867e-05,1.3867066e-05,0.0034981181,0.0029492418,-0.00022549032,0.25247744,0.03144586,0.33832514,0.025336454,-0.0723076,-0.1940748,0.0,0.0,1.0654348e-06,1.0289287e-05,8.719636e-06,2.7583705e-05,0.17352949,0.22851375,0.024066284,5.4593925,6.863124,0.32206586,4.4866076e-11,3.8645427e-11,3.419369e-11,1.7195035e-07,2.0686635e-07,5.0000093e-08,2.0107527e-06,2.6328416e-06,1.7707576e-05,2.5296742e-06,4.375777e-06,1.5390588e-05,0.0,0.0,24
470713089,470710774,-0.99276066,0.054611422,-0.0695088,0.08131696,9.09189,12.797716,2.2829986,81.22978,44.199482,29.462637,8.368742e-06,7.3612435e-05,2.5566702e-05,0.003312236,0.0030855283,8.20183e-06,0.25661764,0.03166189,0.33655876,0.024840532,-0.07033551,-0.19120625,0.0,0.0,9.1895674e-07,1.0018504e-05,9.029057e-06,2.880625e-05,0.18316822,0.23105153,0.022308126,5.425173,6.5633507,0.30114707,4.5085657e-11,3.8897507e-11,3.416857e-11,1.7061663e-07,2.0647413e-07,5.000009e-08,1.9750344e-06,2.6141995e-06,1.6551094e-05,2.4371311e-06,4.0604336e-06,1.4461611e-05,0.0,0.0,24
471713251,471711291,-0.9284183,-0.3064249,-0.09015752,0.18977605,2.9591088,11.599881,1.1240362,67.44434,42.79238,29.611906,1.397758e-05,7.334218e-05,2.8701601e-05,0.0030392434,0.0031598536,0.00022808203,0.26123482,0.03180032,0.33370355,0.024191547,-0.06747013,-0.18726476,0.0,0.0,2.1978256e-06,9.72496e-06,1.19399e-05,2.6769227e-05,0.18714568,0.22381163,0.022105455,5.419929,6.355396,0.29355857,4.512279e-11,3.9047095e-11,3.416718e-11,1.6949896e-07,2.0601581e-07,5.000009e-08,1.9349002e-06,2.5992874e-06,1.5984637e-05,2.4045466e-06,3.896659e-06,1.39104295e-05,0.0,0.0,24
472718356,472711812,-0.9780657,-0.18733434,-0.08970499,0.015698226,-1.7897309,12.052047,2.4745202,52.09707,41.847885,29.703148,2.4108018e-05,7.3952295e-05,2.6672253e-05,0.0028340598,0.0032988107,0.00042632106,0.26522276,0.03179716,0.33121982,0.023951437,-0.064497,-0.1839516,0.0,0.0,1.1118613e-06,1.1182567e-05,1.0797251e-05,2.9435936e-05,0.18801725,0.21674562,0.022876699,5.4207883,6.1895285,0.28421533,4.4957513e-11,3.9072467e-11,3.4122375e-11,1.6854746e-07,2.054944e-07,5e-08,1.8993193e-06,2.586822e-06,1.5766334e-05,2.385097e-06,3.8429707e-06,1.3633502e-05,0.0,0.0,24
473719327,473712344,-0.998401,0.049903274,-0.024969144,-0.009046088,-5.3695316,11.519378,5.2744145,36.520042,41.69869,31.213919,3.129034e-05,7.246799e-05,2.9877323e-05,0.0026237927,0.0034963817,0.00065267563,0.26808414,0.032032263,0.33040377,0.024248093,-0.062826954,-0.18206051,0.0,0.0,6.5163806e-07,1.3214461e-05,1.0250743e-05,3.073573e-05,0.18460305,0.21078232,0.023728415,5.4201884,6.06074,0.2797403,4.482659e-11,3.8922476e-11,3.4277144e-11,1.6754893e-07,2.0500691e-07,5e-08,1.8715034e-06,2.5765996e-06,1.5690912e-05,2.35541e-06,3.8147373e-06,1.3536625e-05,0.0,0.0,24
474715175,474712866,-0.98341674,0.16738193,0.039273206,0.057727735,-7.3840413,8.160879,5.817065,22.756023,40.27659,34.830715,3.082556e-05,6.786718e-05,4.079159e-05,0.0023428625,0.0038319966,0.0009572682,0.27032986,0.032768942,0.3257379,0.02384,-0.060764167,-0.17604657,0.0,0.0,1.0887112e-06,1.5026782e-05,1.0596524e-05,3.0762603e-05,0.18748097,0.22057503,0.023360431,5.4090905,5.9755373,0.28341562,4.46709e-11,3.8465144e-11,3.456883e-11,1.6640783e-07,2.043125e-07,5.000009e-08,1.8433893e-06,2.5657805e-06,1.5012917e-05,2.282523e-06,3.66718e-06,1.2966094e-05,0.0,0.0,24
475720084,475713402,-0.9920525,0.05398541,0.002990403,0.113615476,-9.847512,4.700525,7.45641,10.14854,36.226402,39.725704,2.9388902e-05,6.166177e-05,5.2622418e-05,0.0020347736,0.0040034344,0.0013274008,0.272097,0.03358186,0.32045603,0.023436058,-0.058846388,-0.16919105,0.0,0.0,8.613338e-07,1.605118e-05,1.0731614e-05,3.28358e-05,0.19108957,0.22934225,0.023632742,5.4040456,5.9387903,0.28090236,4.4465705e-11,3.786915e-11,3.4915005e-11,1.6516172e-07,2.0322689e-07,5e-08,1.8142196e-06,2.5544177e-06,1.4276808e-05,2.1913677e-06,3.5271946e-06,1.235446e-05,0.0,0.0,24
476720657,476713918,-0.9735148,0.02017253,-0.18493815,0.13289051,-15.07343,2.513573,-0.08835762,-2.4354496,29.654285,40.662663,3.2643307e-05,6.3245076e-05,5.7227648e-05,0.0018070197,0.004002882,0.0015213806,0.27443737,0.033967104,0.31590623,0.023204995,-0.056024577,-0.16285953,0.0,0.0,8.6762475e-07,1.4927047e-05,1.1216913e-05,3.6601294e-05,0.22421028,0.27587232,0.025251796,5.4551105,5.990991,0.28811836,4.4018164e-11,3.7367033e-11,3.5225843e-11,1.6435698e-07,2.0268472e-07,5e-08,1.7750616e-06,2.5434385e-06,1.4032747e-05,2.1684993e-06,3.431923e-06,1.2090752e-05,0.0,0.0,24
477716643,477714437,-0.94201326,-0.019748013,-0.2957926,0.15725037,-17.696041,-0.48965678,-3.253491,-14.685376,22.325863,37.55619,3.326587e-05,7.370852e-05,5.447575e-05,0.0017060374,0.0040006423,0.0014846314,0.27425435,0.034324124,0.3123794,0.023087675,-0.054323673,-0.16005364,0.0,0.0,1.4314849e-06,1.4662899e-05,1.1450748e-05,3.8762348e-05,0.24214044,0.30292636,0.026202027,5.549953,6.1050715,0.28921008,4.348487e-11,3.6953437e-11,3.5573443e-11,1.6367358e-07,2.0229638e-07,5.0000093e-08,1.7271942e-06,2.5313705e-06,1.3431456e-05,2.1508595e-06,3.2732187e-06,1.1475101e-05,0.0,0.0,24
478707397,478704952,-0.97101367,0.06942532,-0.18788323,0.13043165,-16.480253,-2.6029224,-1.1367644,-24.53649,15.027425,33.757442,3.2310243e-05,8.349284e-05,5.1941024e-05,0.0016202483,0.0039831926,0.001453854,0.2733664,0.03473736,0.3112559,0.023205405,-0.05370297,-0.15933888,0.0,0.0,1.004495e-06,1.6157477e-05,1.1867591e-05,3.997649e-05,0.23446931,0.29682508,0.025405826,5.6252933,6.2044525,0.29386806,4.2817243e-11,3.6472863e-11,3.6044317e-11,1.6302644e-07,2.0195093e-07,5.0000093e-08,1.6846435e-06,2.5168858e-06,1.2955783e-05,2.1337707e-06,3.1461857e-06,1.0999063e-05,0.0,0.0,24
479712107,479705470,-0.9820516,0.08653542,-0.060240813,0.15638869,-14.345886,-5.1374035,0.30798614,-30.37125,7.791464,31.471867,2.897631e-05,9.393347e-05,4.943967e-05,0.0014997214,0.0039239055,0.0014518608,0.27218792,0.035196595,0.31216446,0.023202138,-0.0538781,-0.16031829,0.0,0.0,1.1353418e-06,1.8633731e-05,1.230891e-05,3.997711e-05,0.23222464,0.30009568,0.024992853,5.6839867,6.3005385,0.29077488,4.1926306e-11,3.5673926e-11,3.6610253e-11,1.6199903e-07,2.015771e-07,5e-08,1.6522687e-06,2.4992928e-06,1.2785609e-05,2.111187e-06,3.082455e-06,1.0842852e-05,0.0,0.0,24
480708037,480705981,-0.98484725,0.063178584,-0.027275147,0.15918642,-11.666112,-7.290467,1.6515815,-32.652035,0.79413164,31.567286,2.4266532e-05,0.0001024891,4.6955247e-05,0.0013372445,0.0038186782,0.0014819865,0.27098393,0.03571001,0.31390217,0.023076123,-0.05451579,-0.16179043,0.0,0.0,1.1375191e-06,1.9795314e-05,1.259697e-05,4.160345e-05,0.2325848,0.31011665,0.02490186,5.715986,6.3790402,0.2870897,4.1035248e-11,3.4747396e-11,3.7167387e-11,1.6036212e-07,2.0092911e-07,5e-08,1.6293689e-06,2.480345e-06,1.2574858e-05,2.0759633e-06,3.0388906e-06,1.0683189e-05,0.0,0.0,24
481713236,481706487,-0.98771757,-0.08259628,-0.103686064,0.08271045,-9.799764,-6.1603494,-0.82571083,-32.180733,-4.6469836,31.162003,1.7000344e-05,0.0001102377,4.5306937e-05,0.0011275414,0.0036759765,0.001517459,0.26969573,0.03628773,0.316594,0.023082713,-0.05590384,-0.16410165,0.0,0.0,8.001455e-07,1.8249104e-05,1.369325e-05,4.4928678e-05,0.24746585,0.34647578,0.025204005,5.7591324,6.4810395,0.29202121,3.993884e-11,3.3881398e-11,3.7510352e-11,1.5843717e-07,1.9980516e-07,5e-08,1.6109892e-06,2.460383e-06,1.2368111e-05,2.0596535e-06,2.9931996e-06,1.0506601e-05,0.0,0.0,24
482713408,482706996,-0.964731,-0.09016588,-0.24706529,0.011087975,-11.511108,-2.0650766,-5.3319316,-32.382496,-5.812704,26.23074,1.0577277e-05,0.0001145822,4.4561744e-05,0.0008508699,0.0034982825,0.0015924561,0.2685896,0.03686234,0.3193323,0.02337393,-0.057263337,-0.16608146,0.0,0.0,1.6862783e-06,1.5885493e-05,1.2851176e-05,4.913333e-05,0.27469727,0.3835476,0.028122947,5.85559,6.6653223,0.29288495,3.89297e-11,3.326707e-11,3.7712482e-11,1.561833e-07,1.9822082e-07,5e-08,1.5931341e-06,2.44171e-06,1.211467e-05,2.0527561e-06,2.9331209e-06,1.026032e-05,0.0,0.0,24
483709710,483707505,-0.9412617,-0.11682435,-0.30978405,-0.06642575,-16.02174,0.37120724,-8.599359,-36.159115,-4.314845,17.668787,5.6179165e-06,0.00011754722,4.433082e-05,0.00056397455,0.0033185934,0.0016285001,0.2676338,0.037460543,0.3222063,0.023681093,-0.058490273,-0.16797152,0.0,0.0,3.296894e-06,1.4800064e-05,1.2508661e-05,5.0165065e-05,0.2979396,0.39622778,0.034644607,5.9968977,6.8718843,0.30687925,3.8015823e-11,3.2785656e-11,3.796611e-11,1.5369059e-07,1.9623937e-07,5.000009e-08,1.5738377e-06,2.4244648e-06,1.1823293e-05,2.0395275e-06,2.8790812e-06,9.9612325e-06,0.0,0.0,24
484709918,484708012,-0.9847085,0.032475792,-0.057245277,-0.16129953,-12.920801,0.844049,-2.7570302,-39.806324,-2.1568966,12.421218,1.9293711e-06,0.00011833818,4.394654e-05,0.00027314152,0.0031389582,0.0015887772,0.2667636,0.038168706,0.32425073,0.0235962,-0.059326008,-0.16890368,0.0,0.0,2.1670705e-06,2.0379981e-05,1.2451286e-05,4.688198e-05,0.26327565,0.35602012,0.030162966,6.0612054,6.9681273,0.31198356,3.7055123e-11,3.18119e-11,3.8313484e-11,1.5069483e-07,1.940201e-07,5.000018e-08,1.563277e-06,2.4078354e-06,1.1592155e-05,2.0234809e-06,2.8365594e-06,9.790534e-06,0.0,0.0,24
486716061,486709017,-0.986936,0.07725981,-0.069613256,-0.12305411,-6.0800014,-1.481094,-2.0924366,-37.0732,-0.22591172,11.269034,-3.586822e-06,0.00011401998,4.3068932e-05,-0.00043849048,0.0028719772,0.0014271602,0.2651993,0.039681297,0.3248884,0.022660391,-0.05999368,-0.16737647,0.0,0.0,1.3797503e-06,1.9691002e-05,1.1773195e-05,5.0983715e-05,0.24996385,0.3854021,0.02402579,6.049145,7.0585947,0.3071983,3.5418262e-11,2.9816382e-11,3.882602e-11,1.4410483e-07,1.8882773e-07,5e-08,1.5577936e-06,2.3796993e-06,1.0833725e-05,1.9599236e-06,2.7221445e-06,9.269831e-06,0.0,0.0,24
487716198,487709497,-0.9807647,-0.040244136,-0.15404058,-0.11292727,-5.4659677,-1.7871927,-3.8414216,-33.26458,-1.3498806,8.323741,-6.54788e-06,0.000111992835,4.299162e-05,-0.0008004109,0.0027864408,0.001336366,0.26454663,0.040310103,0.32613772,0.022316903,-0.060565516,-0.16767542,0.0,0.0,2.150307e-06,1.743519e-05,1.1913502e-05,5.370185e-05,0.25580618,0.40028727,0.023043307,6.078361,7.1751637,0.29881862,3.466658e-11,2.9188672e-11,3.8958583e-11,1.4104147e-07,1.8617375e-07,5e-08,1.5552798e-06,2.369148e-06,1.072117e-05,1.9476024e-06,2.701488e-06,9.199288e-06,0.0,0.0,24
488711925,488709997,-0.9455363,-0.15881693,-0.20774297,-0.19385865,-6.179833,0.3600649,-4.04954,-30.147469,-1.3670689,4.3388414,-9.530235e-06,0.00011144872,4.3134154e-05,-0.0011190934,0.0027203574,0.0012352483,0.26388496,0.04080054,0.32815924,0.0221251,-0.061307654,-0.16902,0.0,0.0,5.734502e-06,1.5712487e-05,1.2557261e-05,5.195128e-05,0.256065,0.38735756,0.022504164,6.1121044,7.2643156,0.2995084,3.391704e-11,2.8705123e-11,3.8910528e-11,1.3821425e-07,1.8367982e-07,5.000009e-08,1.5508759e-06,2.3602568e-06,1.0521649e-05,1.9343565e-06,2.6659752e-06,9.014898e-06,0.0,0.0,24
489712696,489710474,-0.897594,-0.15578349,-0.22713414,-0.34418994,-7.5888715,3.3412466,-3.0503964,-28.691902,1.0093737,1.1735345,-1.218927e-05,0.00011136868,4.3921686e-05,-0.0014133978,0.002681459,0.0011058802,0.2632517,0.041173436,0.330474,0.022120029,-0.061987486,-0.17077537,0.0,0.0,1.1486288e-05,1.5024097e-05,1.16796655e-05,4.7898815e-05,0.2532461,0.3589143,0.022835892,6.1295943,7.2746263,0.29338282,3.328478e-11,2.8331231e-11,3.8797254e-11,1.3544124e-07,1.8132594e-07,5.0000093e-08,1.5450302e-06,2.352669e-06,1.0269243e-05,1.9099002e-06,2.6193209e-06,8.7741e-06,0.0,0.0,24
490713515,490710957,-0.83702666,-0.10034616,-0.21367562,-0.49361917,-10.1079235,5.610223,-2.5732114,-29.77081,4.935659,-1.4005853,-1.3896939e-05,0.00011080677,4.4978387e-05,-0.0017157593,0.002665078,0.00093631004,0.26274547,0.041436654,0.3322723,0.022183854,-0.062212452,-0.17193104,0.0,0.0,1.7802175e-05,1.4853251e-05,1.1399746e-05,4.1717114e-05,0.25138968,0.33079526,0.024355343,6.1339397,7.210301,0.2891785,3.2798618e-11,2.8022494e-11,3.8716606e-11,1.3269336e-07,1.7904492e-07,5e-08,1.538169e-06,2.3458385e-06,1.01031155e-05,1.8763782e-06,2.5722086e-06,8.62434e-06,0.0,0.0,24
492718408,492711918,-0.6771479,-0.040605377,-0.19092175,-0.7094863,-14.132455,5.749839,-2.0481346,-37.0939,11.623824,-5.2539682,-1.5603078e-05,0.00010937778,4.7155743e-05,-0.002346852,0.002705483,0.00044096002,0.26187867,0.04172237,0.33452618,0.02216958,-0.061840706,-0.1727122,0.0,0.0,3.0452637e-05,1.3269794e-05,1.2695996e-05,2.7630002e-05,0.23443383,0.2946349,0.02489187,6.0817914,6.955815,0.29189247,3.2121587e-11,2.7600812e-11,3.865362e-11,1.2756519e-07,1.7490107e-07,5e-08,1.5200197e-06,2.3312257e-06,9.885527e-06,1.8088173e-06,2.451475e-06,8.467974e-06,0.0,0.0,24
493719242,493712409,-0.62220734,-0.058588132,-0.22735937,-0.74681544,-16.332773,4.276448,-1.9285505,-41.62375,13.003578,-6.05714,-1.640262e-05,0.0001100233,4.8756072e-05,-0.0026397773,0.0027517506,0.00010803304,0.26138696,0.04175751,0.33605152,0.022243096,-0.061762393,-0.17345865,0.0,0.0,3.467676e-05,1.187454e-05,1.223141e-05,2.462101e-05,0.22518887,0.28304556,0.02547004,6.0208445,6.8138795,0.29621446,3.1937678e-11,2.763265e-11,3.8700043e-11,1.2543086e-07,1.7314741e-07,5e-08,1.508066e-06,2.3235573e-06,9.8109485e-06,1.773631e-06,2.4010465e-06,8.411895e-06,0.0,0.0,24
494719394,494712873,-0.5496668,-0.0145816915,-0.13045652,-0.82500595,-17.349619,3.1619341,-0.68130505,-46.7722,12.984316,-5.7039127,-1.7162572e-05,0.00011092191,5.0231887e-05,-0.0029228495,0.0027817814,-0.0002904369,0.2608983,0.04176087,0.33737317,0.022265716,-0.061621584,-0.17394337,0.0,0.0,3.8779108e-05,1.2568484e-05,1.3999888e-05,1.728116e-05,0.21465237,0.27424532,0.024950871,5.9350343,6.683331,0.29360065,3.184739e-11,2.774925e-11,3.874261e-11,1.2335592e-07,1.7118857e-07,5e-08,1.4947777e-06,2.315096e-06,9.69392e-06,1.7378661e-06,2.3259095e-06,8.334707e-06,0.0,0.0,24
495715817,495713352,-0.501342,0.03491812,-0.03798765,-0.86370945,-16.712437,2.280318,0.026285822,-51.156017,12.16289,-4.1094956,-1.8302064e-05,0.00011152471,5.137781e-05,-0.0032078992,0.0028390642,-0.00070964894,0.26044002,0.04170407,0.33852175,0.022181127,-0.061444253,-0.17401922,0.0,0.0,3.9654064e-05,1.37973975e-05,1.5528887e-05,1.2755696e-05,0.20872198,0.28161973,0.023024501,5.8382936,6.5944123,0.28965768,3.1810363e-11,2.7969026e-11,3.8727008e-11,1.2136842e-07,1.6884121e-07,5e-08,1.4813834e-06,2.3062753e-06,9.4890875e-06,1.7069675e-06,2.2270183e-06,8.194992e-06,0.0,0.0,24
496720580,496713820,-0.5029186,0.01519083,-0.07672168,-0.86078805,-14.954324,1.6981771,1.128559,-53.39436,10.835782,-1.7805008,-1.9565921e-05,0.00011238708,5.197944e-05,-0.0034377715,0.0029511452,-0.0011265473,0.25995475,0.041525505,0.3397182,0.021967756,-0.061275687,-0.17401424,0.0,0.0,4.057257e-05,1.24800545e-05,1.4245888e-05,1.3457029e-05,0.20416766,0.29631642,0.021064652,5.751606,6.571408,0.2899189,3.174457e-11,2.8299146e-11,3.8583938e-11,1.1955377e-07,1.6615553e-07,5e-08,1.4678195e-06,2.29708e-06,9.229375e-06,1.6796191e-06,2.1228461e-06,8.009455e-06,0.0,0.0,24
499707123,499705208,-0.36553475,-0.03545878,-0.23479861,-0.8999981,-13.304404,-3.394941,3.5209804,-50.837955,4.0318937,10.5821705,-2.3345554e-05,0.000120371864,5.258849e-05,-0.0035634844,0.0036080957,-0.002238363,0.2574372,0.040153097,0.344541,0.021912927,-0.06065776,-0.17581956,0.0,0.0,4.7398487e-05,9.593476e-06,1.279309e-05,9.602653e-06,0.21012567,0.31648785,0.021580039,5.6221642,6.6837277,0.27720562,3.1308806e-11,2.971048e-11,3.7715706e-11,1.1514171e-07,1.5552486e-07,5.000009e-08,1.4247948e-06,2.2718439e-06,8.90988e-06,1.6002977e-06,1.9889455e-06,7.768426e-06,0.0,0.0,24
500707873,500705675,-0.24983443,0.15213913,-0.10004091,-0.9510144,-11.072096,-8.416506,-3.024555,-49.920204,-1.9631885,11.316884,-2.5416275e-05,0.00012424734,5.1669234e-05,-0.0034491261,0.003997819,-0.0025126876,0.25639686,0.039612,0.34597787,0.02190495,-0.06047613,-0.1762562,0.0,0.0,4.3960874e-05,9.890609e-06,2.0093528e-05,4.257174e-06,0.2458316,0.38423285,0.025401758,5.663486,6.789884,0.2846097,3.1168183e-11,3.020628e-11,3.7347795e-11,1.13290845e-07,1.5039001e-07,5.000009e-08,1.40685e-06,2.2640022e-06,8.865317e-06,1.5756938e-06,1.966177e-06,7.735052e-06,0.0,0.0,24
501712732,501706128,-0.21044919,0.2738232,-0.09901045,-0.93323576,-4.598592,-11.093223,-6.2250447,-44.64176,-9.341832,6.5865445,-2.7891068e-05,0.00012791334,4.9007733e-05,-0.0032625068,0.0040029255,-0.0027295619,0.25561622,0.039225716,0.34730467,0.021467917,-0.060355447,-0.17645736,0.0,0.0,3.862401e-05,9.116017e-06,2.3923667e-05,3.986776e-06,0.26622927,0.45988536,0.027001107,5.7601504,7.0211306,0.2871445,3.1026175e-11,3.0670622e-11,3.675182e-11,1.11027916e-07,1.4404908e-07,5e-08,1.3885051e-06,2.2570325e-06,8.653489e-06,1.5554264e-06,1.9266924e-06,7.5600883e-06,0.0,0.0,24
502713489,502706585,-0.19331829,0.28336582,-0.36009076,-0.8675636,0.6768912,-13.88265,-5.3597455,-35.130074,-15.823208,-0.03169839,-3.3058175e-05,0.00013326605,4.4029766e-05,-0.0030238677,0.0040033893,-0.0028555796,0.2549153,0.039073464,0.34765753,0.020637676,-0.059800502,-0.17564742,0.0,0.0,3.474761e-05,1.002933e-05,2.0500285e-05,6.9745342e-06,0.27607977,0.47464725,0.030472035,5.8810396,7.2652717,0.28961548,3.0949535e-11,3.0994804e-11,3.5842322e-11,1.0855041e-07,1.3746494e-07,5e-08,1.3699307e-06,2.2507888e-06,8.330226e-06,1.526107e-06,1.9005465e-06,7.2710086e-06,0.0,0.0,24
503713844,503707041,-0.043035492,0.06433096,-0.23784633,-0.9682141,1.2249881,-13.481839,0.61494994,-25.212616,-21.297028,-3.3940825,-3.6853333e-05,0.00013851382,3.700519e-05,-0.0028823959,0.004002979,-0.002949329,0.25415546,0.03912516,0.34760013,0.020473504,-0.059275415,-0.1748475,0.0,0.0,4.364648e-05,9.612859e-06,1.3850047e-05,1.6066109e-06,0.2555833,0.3897366,0.027609086,5.977667,7.3131075,0.29806688,3.117874e-11,3.122264e-11,3.4785383e-11,1.0617861e-07,1.3110447e-07,5e-08,1.3476472e-06,2.2443603e-06,8.196186e-06,1.4932216e-06,1.8910296e-06,7.1496115e-06,0.0,0.0,24
504714231,504707500,0.049193684,-0.043400884,-0.22956279,-0.97108054,0.37660256,-12.915615,5.240309,-18.107466,-24.591902,-1.4889709,-4.043385e-05,0.00014337934,2.8505792e-05,-0.0028038106,0.004002766,-0.0030314866,0.25355393,0.03932319,0.3483778,0.02073165,-0.05915818,-0.17499167,0.0,0.0,4.3761098e-05,9.746276e-06,1.1182132e-05,1.0815481e-06,0.23809798,0.31783447,0.024258252,6.0144124,7.1334515,0.29354566,3.1654738e-11,3.1427985e-11,3.3855946e-11,1.0396561e-07,1.2523851e-07,5e-08,1.3224878e-06,2.2374204e-06,8.127153e-06,1.4586476e-06,1.8688104e-06,7.087934e-06,0.0,0.0,24
505709955,505707951,0.16616653,-0.11058823,-0.31845033,-0.9266868,-0.120325476,-13.062943,9.88228,-13.465787,-27.018187,5.182241,-4.3358596e-05,0.00014855024,2.0371324e-05,-0.0027546482,0.0040017907,-0.003129091,0.25302148,0.039558653,0.34995952,0.021272171,-0.05942607,-0.17606388,0.0,0.0,4.0900755e-05,1.1249404e-05,9.487914e-06,2.0232962e-06,0.22359458,0.2668687,0.023399532,6.007294,6.8685546,0.29362717,3.2249824e-11,3.1621015e-11,3.3243554e-11,1.0171037e-07,1.2028052e-07,5.0000093e-08,1.2972109e-06,2.2308066e-06,7.936268e-06,1.4188179e-06,1.8346819e-06,6.9118396e-06,0.0,0.0,24
506715093,506708409,0.286444,-0.051087238,-0.21082944,-0.9332154,0.14849485,-16.793995,8.796275,-10.010841,-30.589138,14.759983,-4.5737404e-05,0.00015361333,1.2104164e-05,-0.0027230554,0.0040025064,-0.0032406538,0.2525662,0.039803606,0.35153562,0.021862777,-0.05987112,-0.17720985,0.0,0.0,3.810528e-05,1.0134061e-05,1.087529e-05,2.8575284e-06,0.23880623,0.25316328,0.026820527,5.9902883,6.6021976,0.29003638,3.2893816e-11,3.180083e-11,3.284044e-11,9.926661e-08,1.1589007e-07,5e-08,1.2721094e-06,2.2239155e-06,7.735256e-06,1.3818324e-06,1.793202e-06,6.731026e-06,0.0,0.0,24
