timestamp,timestamp_sample,device_id,magnetometer_ga[0],magnetometer_ga[1],magnetometer_ga[2],calibration_count
394708221,394703137,1114122,0.1838063,0.037408,0.3474606,2
394749806,394744447,1114122,0.18361746,0.03861882,0.3419056,2
394770804,394765680,1114122,0.18500087,0.03814791,0.34707126,2
394791798,394786444,1114122,0.1850352,0.03682299,0.35008445,2
394813311,394807719,1114122,0.18408339,0.037838474,0.3482688,2
394833369,394828255,1114122,0.18416148,0.03845261,0.349079,2
394854837,394849465,1114122,0.18276745,0.0379664,0.34973863,2
394876076,394870842,1114122,0.18328032,0.036832664,0.35217583,2
394896893,394891470,1114122,0.183958,0.037722375,0.3515647,2
394918428,394912756,1114122,0.18316633,0.036723725,0.3492331,2
394938456,394933341,1114122,0.18447833,0.038111053,0.34992185,2
394958793,394953531,1114122,0.18244979,0.035546467,0.34935024,2
394979710,394974398,1114122,0.18439978,0.03852263,0.3493477,2
395000970,394995860,1114122,0.18500252,0.037461452,0.34617117,2
395021713,395016405,1114122,0.1838067,0.037153758,0.34723452,2
395043541,395037772,1114122,0.18392241,0.037201297,0.34924066,2
395084716,395079398,1114122,0.18288863,0.03801582,0.34875908,2
395106128,395100972,1114122,0.18320698,0.03834642,0.34876394,2
395126720,395121397,1114122,0.18459812,0.038224135,0.3497007,2
395148608,395142835,1114122,0.18467928,0.036986068,0.34883818,2
395168709,395163599,1114122,0.18444026,0.037829258,0.3489823,2
395189713,395184168,1114122,0.18424663,0.038271368,0.34604657,2
395211766,395206400,1114122,0.18459949,0.03845434,0.34894615,2
395254807,395249515,1114122,0.18380126,0.040017836,0.35021263,2
395276358,395271126,1114122,0.18197525,0.03854394,0.34769475,2
395296802,395291493,1114122,0.18543619,0.03757959,0.3484016,2
395318801,395312930,1114122,0.18495783,0.038124874,0.3488534,2
395338848,395333647,1114122,0.18424326,0.03850489,0.3478766,2
395369251,395358852,1114122,0.18270805,0.034414902,0.34593448,2
395390301,395384945,1114122,0.184995,0.035350688,0.35028815,2
395453815,395448217,1114122,0.18416178,0.036323667,0.34891778,2
395474276,395468975,1114122,0.18264551,0.038168974,0.35112244,2
395495430,395489950,1114122,0.18332307,0.037184015,0.35057616,2
395516427,395511315,1114122,0.18292564,0.037298255,0.350265,2
395537316,395531953,1114122,0.184077,0.036250073,0.35176867,2
395558963,395553245,1114122,0.18431574,0.03691131,0.35177767,2
395579056,395573875,1114122,0.18327999,0.03719771,0.3523588,2
395600260,395594955,1114122,0.1830827,0.037577152,0.35142753,2
395621487,395616391,1114122,0.18395765,0.037242517,0.35173672,2
395641546,395636418,1114122,0.18388456,0.03806004,0.34818217,2
395662201,395656888,1114122,0.1825249,0.03882157,0.3517991,2
395684011,395678304,1114122,0.1808725,0.032195855,0.34137195,2
395704218,395699108,1114122,0.18300247,0.035331108,0.3517994,2
395725264,395719901,1114122,0.1830011,0.03723215,0.35253698,2
395746603,395741486,1114122,0.18399891,0.03751003,0.35093814,2
395767206,395761844,1114122,0.18348156,0.03769371,0.35093957,2
395789093,395783328,1114122,0.18467511,0.038462844,0.35112995,2
395809236,395804079,1114122,0.18360454,0.03779251,0.3489803,2
395830206,395824889,1114122,0.18431678,0.038314756,0.3512165,2
395851699,395846569,1114122,0.18359847,0.036096226,0.35230058,2
395872254,395866910,1114122,0.18288124,0.03667765,0.35279697,2
395894213,395888361,1114122,0.18311806,0.03670057,0.35386717,2
395924706,395914309,1114122,0.18405277,0.036021493,0.3505031,2
395945744,395940402,1114122,0.18316561,0.035836898,0.34962267,2
395967756,395962232,1114122,0.18392241,0.03716457,0.34924018,2
395989256,395983713,1114122,0.18313992,0.034577332,0.341897,2
396009809,396004468,1114122,0.18407945,0.038435332,0.3504155,2
396030789,396025439,1114122,0.18308449,0.03799393,0.35045254,2
396051873,396046743,1114122,0.18367338,0.04065591,0.35485515,2
396072758,396067440,1114122,0.1834819,0.03810009,0.35076657,2
396094346,396088710,1114122,0.18335561,0.040255852,0.35453746,2
396114958,396109601,1114122,0.18455127,0.03835769,0.35357928,2
396135752,396130440,1114122,0.18291913,0.03692156,0.3538251,2
396157816,396152287,1114122,0.18415289,0.037362956,0.35378855,2
396179471,396173792,1114122,0.18439278,0.038326144,0.35317752,2
396199502,396194370,1114122,0.18471253,0.0387033,0.35242543,2
396220808,396215490,1114122,0.18511087,0.039183743,0.35220957,2
396242857,396237361,1114122,0.18395704,0.039699756,0.35208046,2
396264497,396258847,1114122,0.18335667,0.038940854,0.35394114,2
396284869,396279668,1114122,0.18162194,0.036557462,0.34503925,2
396305861,396300539,1114122,0.1822867,0.0354086,0.35148716,2
396327906,396322479,1114122,0.18344241,0.035052784,0.35059342,2
396349542,396343901,1114122,0.18332335,0.037259784,0.3503989,2
396369950,396364703,1114122,0.1850344,0.038213767,0.3505035,2
396390908,396385596,1114122,0.18428478,0.03524694,0.34694332,2
396412132,396407034,1114122,0.18490991,0.038067255,0.35330883,2
396432963,396427454,1114122,0.18471387,0.03761044,0.35169828,2
396517411,396512186,1114122,0.18491057,0.03630857,0.35292956,2
396537913,396532592,1114122,0.18554547,0.035634074,0.35394698,2
396559714,396553982,1114122,0.18602672,0.037276946,0.35191917,2
396579980,396574745,1114122,0.18484,0.03681333,0.34798953,2
396600939,396595598,1114122,0.1855875,0.037597194,0.35272467,2
396622290,396617179,1114122,0.1841974,0.038351487,0.3512168,2
396642951,396637592,1114122,0.18399322,0.038167685,0.354066,2
396664789,396659018,1114122,0.18347631,0.039273202,0.35381198,2
396684877,396679714,1114122,0.18363558,0.03923705,0.35376722,2
396704976,396699821,1114122,0.18301326,0.035848536,0.34587932,2
396725909,396720542,1114122,0.18450975,0.037463948,0.35450348,2
396747410,396741813,1114122,0.18459177,0.038179208,0.353176,2
396767852,396762567,1114122,0.18455085,0.03706907,0.35378546,2
396788986,396783583,1114122,0.1840766,0.038231485,0.35197255,2
396809926,396804833,1114122,0.18367724,0.037670095,0.3527667,2
396830879,396825561,1114122,0.18427762,0.038282637,0.35085952,2
396852582,396846873,1114122,0.18363567,0.03626146,0.35372877,2
396874011,396868606,1114122,0.18311626,0.036100127,0.3548398,2
396896092,396890445,1114122,0.18379505,0.036924437,0.35360396,2
396917698,396911941,1114122,0.18347892,0.035470553,0.3523814,2
396939187,396933738,1114122,0.18411303,0.036480732,0.3538216,2
396960156,396955050,1114122,0.1840323,0.036729813,0.35444853,2
396981016,396975711,1114122,0.18367717,0.035832733,0.3527875,2
397002683,396997028,1114122,0.18384548,0.032516994,0.34779853,2
397024119,397018758,1114122,0.18459249,0.038808897,0.35278308,2
397046153,397040565,1114122,0.18356034,0.03842266,0.35139477,2
397067719,397062069,1114122,0.18379983,0.038942143,0.35100085,2
397088111,397082884,1114122,0.18351465,0.03933631,0.35461497,2
397109188,397103807,1114122,0.18312109,0.03675861,0.35221916,2
397130223,397125147,1114122,0.18459043,0.039492458,0.35390598,2
397151109,397145816,1114122,0.18459234,0.03844038,0.35286742,2
397172790,397167102,1114122,0.18335994,0.038449597,0.3521523,2
397193108,397187926,1114122,0.18471137,0.03979729,0.35306346,2
397214106,397208792,1114122,0.18387601,0.03796283,0.35285997,2
397235360,397230232,1114122,0.18427175,0.035852775,0.35408115,2
397256100,397250790,1114122,0.18351227,0.037886336,0.35593313,2
397277880,397272139,1114122,0.18323843,0.039757103,0.35332763,2
397298099,397292892,1114122,0.18435305,0.03880427,0.35313907,2
397319166,397313809,1114122,0.18305758,0.033235252,0.34339464,2
397340409,397335298,1114122,0.1841994,0.037079573,0.3501308,2
397361190,397355819,1114122,0.18407562,0.038922556,0.35251623,2
397383009,397377193,1114122,0.18486866,0.03982079,0.35408896,2
397679255,397673943,1114122,0.18355364,0.038228475,0.35504636,2
397701302,397695936,1114122,0.18367866,0.037900873,0.35196757,2
397743358,397738179,1114122,0.18395416,0.037878983,0.35366112,2
397763420,397758276,1114122,0.18387648,0.035871767,0.3526101,2
397784320,397778956,1114122,0.18391472,0.03630166,0.35346243,2
397805759,397800668,1114122,0.18483144,0.038295735,0.35268778,2
397826288,397820961,1114122,0.18379897,0.037760273,0.35147578,2
397847306,397841950,1114122,0.18530881,0.03855174,0.35278106,2
397868429,397863228,1114122,0.18403456,0.03751738,0.353211,2
397889264,397883945,1114122,0.18336403,0.036935516,0.34990463,2
397910830,397905231,1114122,0.18446915,0.034408547,0.35495406,2
397930853,397925783,1114122,0.18371898,0.037500236,0.35169506,2
397950870,397945799,1114122,0.18411438,0.03810688,0.35308507,2
397972214,397966889,1114122,0.18467215,0.03792781,0.35272726,2
397994376,397988811,1114122,0.18392088,0.03796181,0.35009715,2
398015902,398010265,1114122,0.18379593,0.0379961,0.35312763,2
398035996,398030899,1114122,0.18293159,0.034584552,0.34702143,2
398057277,398051954,1114122,0.18355493,0.03654728,0.3543562,2
398078692,398073455,1114122,0.18244001,0.036799833,0.35471392,2
398099370,398093950,1114122,0.18367659,0.03630627,0.35310555,2
398121006,398115313,1114122,0.18355763,0.036309145,0.35288256,2
398141033,398135955,1114122,0.18454987,0.03742952,0.35432488,2
398161278,398156047,1114122,0.18479738,0.036058463,0.3495394,2
398182203,398176891,1114122,0.18463427,0.037977785,0.3517029,2
398203600,398198486,1114122,0.18419608,0.03797491,0.3519249,2
398224216,398218891,1114122,0.18439221,0.037991494,0.35348514,2
398246105,398240337,1114122,0.18435639,0.038497284,0.35130805,2
398287217,398281894,1114122,0.18471253,0.035359774,0.35242677,2
398309298,398303911,1114122,0.18407342,0.0356737,0.35372198,2
398331160,398325377,1114122,0.18285109,0.032189846,0.34752506,2
398351260,398346160,1114122,0.1839149,0.036302812,0.35337332,2
398372264,398366941,1114122,0.18379472,0.036995612,0.35378313,2
398394357,398388998,1114122,0.18494825,0.037505858,0.35410374,2
398416340,398410475,1114122,0.18491109,0.039361652,0.35265714,2
398437362,398432044,1114122,0.18388677,0.03800211,0.34697825,2
398458798,398453681,1114122,0.18391314,0.03889894,0.3543427,2
398479072,398473798,1114122,0.18264063,0.035819486,0.35381037,2
398501350,398495499,1114122,0.18419358,0.03832443,0.35331082,2
398521452,398516321,1114122,0.18311907,0.03788358,0.35330316,2
398542359,398537044,1114122,0.18276155,0.03605084,0.35296687,2
398563870,398558270,1114122,0.18391603,0.03605374,0.3527462,2
398584020,398578831,1114122,0.18506807,0.03670057,0.35387075,2
398605399,398600060,1114122,0.18395427,0.03666728,0.35360092,2
398627411,398621858,1114122,0.18495056,0.038881782,0.35282922,2
398648956,398643338,1114122,0.18256404,0.03547345,0.35215694,2
398669459,398664109,1114122,0.18363562,0.037547216,0.3537454,2
398690502,398685105,1114122,0.18399301,0.03981962,0.35417646,2
398711526,398706429,1114122,0.18451181,0.036817096,0.35338104,2
398741521,398731448,1114122,0.18416272,0.036685497,0.3484026,2
398761813,398756600,1114122,0.18483719,0.038703993,0.3495291,2
398782809,398777518,1114122,0.18423353,0.038435787,0.35322323,2
398804070,398798965,1114122,0.18431868,0.036858566,0.35017276,2
398824801,398819489,1114122,0.18447888,0.03517565,0.34961653,2
398846621,398840891,1114122,0.18439063,0.0373922,0.35436863,2
398909180,398904062,1114122,0.18486899,0.03592854,0.35390496,2
398929816,398924490,1114122,0.18498841,0.035965282,0.35390568,2
398951747,398945930,1114122,0.18335791,0.03601008,0.35327938,2
398971830,398966689,1114122,0.18475017,0.036961168,0.35360616,2
398992819,398987490,1114122,0.18487093,0.037889354,0.3528608,2
399014854,399009459,1114122,0.18530959,0.037307914,0.3523639,2
399036766,399030998,1114122,0.18491063,0.0383296,0.35291114,2
399056853,399051742,1114122,0.18379492,0.03710697,0.35369545,2
399077867,399072541,1114122,0.18324415,0.034837544,0.3501892,2
399099496,399094251,1114122,0.1842383,0.035824224,0.35060483,2
399130422,399119619,1114122,0.18407872,0.033788256,0.35083076,2
399151870,399146284,1114122,0.1839934,0.03596471,0.3539484,2
399171892,399166796,1114122,0.18387598,0.035647914,0.3528746,2
399192356,399187063,1114122,0.18419752,0.037176527,0.351157,2
399213395,399207993,1114122,0.18554874,0.037825108,0.35214823,2
399234433,399229314,1114122,0.18535091,0.034820262,0.35152972,2
399255306,399249990,1114122,0.18241164,0.031149138,0.34844664,2
399298466,399293048,1114122,0.18363485,0.036035307,0.35417145,2
399340354,399335039,1114122,0.18415676,0.038455933,0.35166365,2
399362079,399356356,1114122,0.18374291,0.03204846,0.3385678,2
399382104,399376959,1114122,0.18428107,0.03753537,0.34897825,2
399412841,399402237,1114122,0.18440038,0.036138654,0.34901983,2
399434660,399428883,1114122,0.18364516,0.03640233,0.34851682,2
399464649,399454540,1114122,0.1833626,0.03548002,0.35070276,2
399485305,399479951,1114122,0.18236996,0.03517739,0.34947902,2
399507257,399501406,1114122,0.18504213,0.03595356,0.3462854,2
399527282,399522139,1114122,0.18439724,0.03343411,0.35075247,2
399548266,399542942,1114122,0.18372262,0.03429285,0.34969288,2
399569774,399564646,1114122,0.18459982,0.034268215,0.34875834,2
399590256,399584985,1114122,0.18456332,0.03282182,0.34695703,2
399612323,399606404,1114122,0.18431985,0.035397228,0.34952998,2
399642756,399632345,1114122,0.18487588,0.03365016,0.35014713,2
399663837,399658446,1114122,0.18250108,0.031071898,0.34305373,2
399684972,399679779,1114122,0.18368068,0.035416663,0.35086593,2
399705756,399700267,1114122,0.18404208,0.03635811,0.34909627,2
399727298,399721736,1114122,0.18352272,0.03505797,0.35019258,2
399747755,399742472,1114122,0.18332265,0.033653945,0.35079795,2
399768753,399763450,1114122,0.18365493,0.036104083,0.34316546,2
399790020,399784853,1114122,0.1843594,0.035762846,0.34966847,2
399810759,399805471,1114122,0.18431851,0.036379866,0.35025567,2
399832438,399826762,1114122,0.18399993,0.035276063,0.35037452,2
399852828,399847516,1114122,0.18360075,0.035193965,0.35104114,2
399873755,399868439,1114122,0.18244603,0.032911174,0.3514106,2
399894975,399889879,1114122,0.18371862,0.034374833,0.35187745,2
399914992,399909897,1114122,0.18471955,0.03338886,0.34856892,2
400210247,400205138,1114122,0.18340528,0.032683395,0.3491367,2
400230787,400225440,1114122,0.18348226,0.032003716,0.35055405,2
400251800,400246447,1114122,0.18455613,0.034277283,0.35089737,2
400272750,400267669,1114122,0.18324243,0.03552343,0.35113388,2
400335528,400330307,1114122,0.184437,0.036373526,0.350746,2
400356807,400351445,1114122,0.18352336,0.035503402,0.34984183,2
400377847,400372760,1114122,0.18198538,0.03104667,0.3421612,2
400398846,400393437,1114122,0.18471721,0.036936074,0.34986252,2
400420474,400414764,1114122,0.18459839,0.03635235,0.34954286,2
400441910,400436492,1114122,0.18396075,0.036750108,0.350037,2
400463938,400458345,1114122,0.18312222,0.03672993,0.3515949,2
400485543,400479853,1114122,0.18412699,0.034926113,0.34618133,2
400507031,400501595,1114122,0.18384154,0.033738367,0.3499533,2
400528003,400522905,1114122,0.18371838,0.035291497,0.352023,2
400548956,400543595,1114122,0.18292952,0.033063427,0.3481604,2
400570560,400564902,1114122,0.18443614,0.035816163,0.35122895,2
400590902,400585653,1114122,0.18483683,0.036901075,0.34972858,2
400611936,400606595,1114122,0.18440056,0.03687471,0.34892535,2
400633072,400628000,1114122,0.18487616,0.036824144,0.34999508,2
400653952,400648628,1114122,0.18336475,0.03444209,0.3495159,2
400675819,400670006,1114122,0.1842342,0.03432543,0.35285816,2
400697130,400691659,1114122,0.18480821,0.032424197,0.34361017,2
400718137,400713054,1114122,0.1817065,0.026892684,0.3423298,2
400738959,400733646,1114122,0.18321702,0.02915876,0.34325314,2
400760704,400755013,1114122,0.18295664,0.026164684,0.3332765,2
400780837,400775654,1114122,0.18542844,0.03561405,0.3526542,2
400801957,400796647,1114122,0.18594593,0.037525445,0.3525907,2
400824002,400818570,1114122,0.18547113,0.036810316,0.35106546,2
401077143,401071758,1114122,0.18490809,0.035666212,0.3543027,2
401099101,401093704,1114122,0.18538634,0.03692039,0.35391873,2
401121018,401115210,1114122,0.18578723,0.035949275,0.35230267,2
401141107,401135967,1114122,0.18610218,0.036255717,0.35417882,2
401162109,401156795,1114122,0.18455586,0.038427252,0.35104015,2
401184158,401178818,1114122,0.1869865,0.039000183,0.34935862,2
401206163,401200288,1114122,0.18567042,0.03758408,0.35089758,2
401226177,401221028,1114122,0.18471253,0.038776774,0.35242635,2
401247159,401241839,1114122,0.18538713,0.037403718,0.3534794,2
401268629,401263505,1114122,0.18471122,0.039134905,0.35314402,2
401289162,401283840,1114122,0.18392259,0.03676161,0.34914583,2
401341260,401331097,1114122,0.18590936,0.03782993,0.35082692,2
401362743,401357350,1114122,0.18487942,0.03559819,0.34819672,2
401384803,401379182,1114122,0.18542519,0.035554267,0.35443592,2
401406265,401401098,1114122,0.18372728,0.03432567,0.34715325,2
401426714,401421396,1114122,0.18543056,0.0359229,0.35149956,2
401447749,401442397,1114122,0.184948,0.036842898,0.35422885,2
401469783,401464193,1114122,0.18435144,0.0362207,0.35404152,2
401491328,401485691,1114122,0.1839956,0.03733948,0.352763,2
401511756,401506457,1114122,0.18527128,0.036693778,0.3515538,2
401532801,401527444,1114122,0.18527141,0.03827457,0.35148507,2
401554829,401549240,1114122,0.18483159,0.038003013,0.35259485,2
401576418,401570754,1114122,0.18566683,0.037962828,0.35286325,2
401596842,401591568,1114122,0.18515193,0.036253534,0.3515033,2
401617872,401612492,1114122,0.18451408,0.03348972,0.35213488,2
401638906,401633820,1114122,0.18559021,0.03802087,0.351215,2
401659808,401654493,1114122,0.1842341,0.037301,0.35289663,2
401681640,401675843,1114122,0.1845926,0.03855233,0.3527352,2
401702913,401697567,1114122,0.18475384,0.03702382,0.35160166,2
401724905,401719427,1114122,0.1834915,0.03401638,0.3455,2
401746561,401740880,1114122,0.18475023,0.03747604,0.35356826,2
401766905,401761668,1114122,0.18491018,0.036342423,0.35315284,2
401787915,401782605,1114122,0.18447106,0.036112223,0.35390663,2
401809139,401804012,1114122,0.18479022,0.03637514,0.35346496,2
401829908,401824592,1114122,0.18451875,0.03543338,0.34957534,2
401851674,401845917,1114122,0.18320717,0.033240773,0.34865338,2
401871696,401866517,1114122,0.18391828,0.03669435,0.35150677,2
401891861,401886688,1114122,0.1830854,0.0370084,0.3499496,2
401912856,401907542,1114122,0.18371964,0.036586452,0.35132676,2
401934284,401929113,1114122,0.1845493,0.037425473,0.35463673,2
401954851,401949537,1114122,0.18491203,0.037972026,0.35214898,2
401976681,401970920,1114122,0.1853872,0.038763527,0.35345238,2
401996886,401991743,1114122,0.18610905,0.03817819,0.3504159,2
402017866,402012542,1114122,0.18388994,0.03401982,0.34523338,2
402039305,402034187,1114122,0.1854695,0.037423305,0.35196462,2
402059857,402054542,1114122,0.18399316,0.03585276,0.35408062,2
402081766,402075959,1114122,0.1835565,0.037183307,0.3534732,2
402102011,402096741,1114122,0.18411067,0.0366477,0.35511607,2
402122856,402117540,1114122,0.18570992,0.03625929,0.35105878,2
402144299,402139210,1114122,0.18526956,0.035800032,0.35247803,2
402164886,402159589,1114122,0.18458933,0.03592048,0.35452822,2
402187083,402181075,1114122,0.18435374,0.0389191,0.3527841,2
402207906,402202591,1114122,0.18360198,0.035863835,0.35038137,2
402229354,402224273,1114122,0.18487392,0.037580032,0.351208,2
402250008,402244617,1114122,0.18506661,0.038160197,0.35464722,2
402271961,402266067,1114122,0.18371427,0.03731989,0.35427737,2
402292953,402287402,1114122,0.18415087,0.03646691,0.354891,2
402314640,402309424,1114122,0.1846714,0.036783263,0.3531581,2
402337047,402331163,1114122,0.18408322,0.034457065,0.34835875,2
402357053,402351913,1114122,0.18514968,0.036898635,0.35275942,2
402378026,402372725,1114122,0.18491264,0.03643318,0.35181713,2
402399523,402394439,1114122,0.18391624,0.03682691,0.3526225,2
402419542,402414475,1114122,0.1852686,0.03704212,0.35302883,2
402439951,402434689,1114122,0.18558842,0.035178974,0.35220322,2
402460963,402455650,1114122,0.18387169,0.034845933,0.35522604,2
402482135,402476997,1114122,0.18394965,0.035862993,0.35613054,2
402502955,402497642,1114122,0.18351685,0.035053216,0.35340098,2
402524670,402518990,1114122,0.18474637,0.03605245,0.35568887,2
402544984,402539808,1114122,0.18384442,0.0347877,0.34836262,2
402565990,402560658,1114122,0.1851164,0.037165128,0.3491978,2
402587173,402582058,1114122,0.18551235,0.038290106,0.35028255,2
402607951,402602641,1114122,0.18464357,0.03598626,0.34659705,2
402629692,402624011,1114122,0.1830476,0.032246023,0.34886307,2
402650003,402644767,1114122,0.18391292,0.038052283,0.35446543,2
402670959,402665651,1114122,0.18395144,0.035361383,0.35514373,2
402692263,402687143,1114122,0.18514863,0.03553195,0.35332105,2
402712956,402707643,1114122,0.18451354,0.0358006,0.35243207,2
402735020,402729091,1114122,0.18404666,0.032091722,0.34659016,2
402756055,402750707,1114122,0.18578394,0.035411358,0.35412276,2
402778051,402772617,1114122,0.18518873,0.03737102,0.35316664,2
402799829,402794144,1114122,0.18399799,0.036694944,0.35146236,2
402820052,402814893,1114122,0.18467216,0.038111493,0.35272962,2
402841066,402835740,1114122,0.18518811,0.035823517,0.35350314,2
402862411,402857289,1114122,0.18430933,0.03598416,0.35528612,2
402883053,402877739,1114122,0.1842704,0.03808442,0.354823,2
402905016,402899198,1114122,0.18471025,0.035968147,0.3536824,2
402926101,402920789,1114122,0.18423282,0.03644687,0.35359856,2
402947498,402942369,1114122,0.18435287,0.03674535,0.35324615,2
402968158,402962789,1114122,0.18506634,0.0361007,0.35479882,2
402989982,402984257,1114122,0.18470974,0.036332056,0.35395446,2
403010083,403004936,1114122,0.18542597,0.036441684,0.35400176,2
403031105,403025789,1114122,0.18579131,0.0370434,0.35008872,2
403052622,403047453,1114122,0.18352887,0.032676615,0.34681964,2
403073108,403067790,1114122,0.18494767,0.03772224,0.35441852,2
403095284,403089318,1114122,0.18379278,0.036100123,0.35484105,2
403116151,403110837,1114122,0.18474883,0.038127482,0.35433424,2
403138202,403132838,1114122,0.18451035,0.036623064,0.35418066,2
403160199,403154327,1114122,0.18411356,0.0376603,0.35352492,2
403180260,403175121,1114122,0.1838722,0.038450055,0.35496068,2
403201234,403195914,1114122,0.18359366,0.037384726,0.3549464,2
403223256,403217887,1114122,0.18427148,0.036622487,0.35422477,2
403245274,403239398,1114122,0.18446785,0.03741224,0.35566136,2
403265286,403260168,1114122,0.18331754,0.040267944,0.35360175,2
403285487,403280268,1114122,0.18339477,0.03973695,0.3548873,2
403306201,403300901,1114122,0.18450913,0.039223224,0.35483816,2
403327845,403322162,1114122,0.18427178,0.038351353,0.3540689,2
403348254,403342934,1114122,0.18436673,0.036328986,0.34566516,2
403369258,403363895,1114122,0.18502998,0.038476534,0.35291326,2
403391258,403385724,1114122,0.18478978,0.03813555,0.35371053,2
403412848,403407221,1114122,0.18391323,0.038201537,0.3542891,2
403433303,403427995,1114122,0.18470761,0.037455883,0.3551276,2
403454409,403448955,1114122,0.183757,0.039361652,0.352655,2
403475602,403470361,1114122,0.1834364,0.038647544,0.35389292,2
403496340,403490960,1114122,0.18411444,0.03924626,0.3530552,2
403518029,403512310,1114122,0.18462664,0.03726241,0.35588253,2
403539306,403533993,1114122,0.18387252,0.03797479,0.3547763,2
403560463,403555370,1114122,0.18455097,0.0387968,0.3537187,2
403581350,403575999,1114122,0.18447852,0.03701013,0.34981847,2
403603023,403597332,1114122,0.1847515,0.039101616,0.35287625,2
403624358,403619069,1114122,0.1844725,0.04005387,0.35311088,2
403646441,403640945,1114122,0.18403208,0.03926341,0.35457042,2
403668065,403662408,1114122,0.18141454,0.034477107,0.34964648,2
403688181,403683030,1114122,0.18315595,0.038781248,0.35491908,2
403709419,403704096,1114122,0.18439177,0.03795131,0.353752,2
403730604,403725518,1114122,0.18478766,0.037385866,0.35485947,2
403751458,403746093,1114122,0.18399125,0.037455887,0.3551263,2
403773156,403767449,1114122,0.18490756,0.03658115,0.35458192,2
403793410,403788214,1114122,0.18478847,0.037575305,0.3544163,2
403814442,403809104,1114122,0.1853855,0.038384065,0.3543833,2
403835909,403830667,1114122,0.18550889,0.036502033,0.3521756,2
403856581,403851126,1114122,0.1845873,0.037633225,0.3556199,2
403878236,403872496,1114122,0.18259615,0.036925457,0.35636464,2
403898410,403893284,1114122,0.18414858,0.0367814,0.35614282,2
403919414,403914091,1114122,0.18435213,0.039753072,0.3536415,2
403940746,403935666,1114122,0.18367551,0.038466185,0.3537128,2
403961426,403956097,1114122,0.18375608,0.036268964,0.35314977,2
403983589,403977578,1114122,0.18451265,0.039431673,0.35292464,2
404004471,403999160,1114122,0.1845125,0.038475394,0.35300148,2
404026536,404021137,1114122,0.18527038,0.039149307,0.35203114,2
404048542,404042653,1114122,0.18490851,0.038314626,0.3540696,2
404090886,404085796,1114122,0.18427444,0.03557788,0.352607,2
404111604,404106263,1114122,0.18404007,0.033772215,0.3501769,2
404133481,404127664,1114122,0.18495268,0.035075694,0.35166594,2
404153567,404148432,1114122,0.18459812,0.037746567,0.34969455,2
404174591,404169262,1114122,0.18380274,0.036390807,0.34940818,2
404196239,404190954,1114122,0.18555297,0.037818316,0.34983093,2
404218634,404212725,1114122,0.18427995,0.03701301,0.34959534,2
404249147,404238682,1114122,0.18415892,0.03712395,0.35048783,2
404271013,404265229,1114122,0.18376118,0.037811402,0.3503623,2
404291106,404286006,1114122,0.18415825,0.037364244,0.35084742,2
404312099,404306788,1114122,0.18451627,0.037142664,0.35093433,2
404333613,404328507,1114122,0.1845541,0.035328228,0.352025,2
404354105,404348806,1114122,0.1845146,0.035991766,0.35185528,2
404375211,404369807,1114122,0.18444237,0.03472112,0.3478281,2
404396287,404391123,1114122,0.18570799,0.038193032,0.35210872,2
404417191,404411817,1114122,0.18570855,0.039629754,0.35181534,2
404438725,404433087,1114122,0.18546727,0.039207805,0.3531909,2
404460199,404454842,1114122,0.18395162,0.037714176,0.35504043,2
404481462,404476183,1114122,0.18398885,0.03887187,0.3564369,2
404502198,404496840,1114122,0.18490878,0.037361227,0.35392356,2
404523791,404518145,1114122,0.18531239,0.034719273,0.35081536,2
404545255,404539901,1114122,0.18550539,0.036844626,0.35409623,2
404567290,404561724,1114122,0.18515138,0.03735157,0.35182947,2
404588807,404583200,1114122,0.18351735,0.036195487,0.3531484,2
404609255,404603963,1114122,0.18435857,0.037483647,0.35013634,2
404630308,404624951,1114122,0.18320718,0.035445474,0.34863734,2
404651370,404646255,1114122,0.18443635,0.03769139,0.35111958,2
404672307,404666941,1114122,0.18375969,0.03897657,0.35117948,2
404693975,404688287,1114122,0.18306345,0.032688964,0.3401791,2
404715402,404710007,1114122,0.18498865,0.039090097,0.3537678,2
404736617,404731404,1114122,0.18562809,0.038888708,0.35229582,2
404757306,404751999,1114122,0.18523294,0.03890885,0.35073566,2
404779018,404773318,1114122,0.18463288,0.03855577,0.35246795,2
404799301,404794067,1114122,0.18467022,0.038648695,0.35380608,2
404820356,404814990,1114122,0.18578723,0.036573783,0.35231075,2
404841500,404836417,1114122,0.18542916,0.040211752,0.35226798,2
404862303,404856989,1114122,0.1838319,0.03870374,0.35523129,2
404884155,404878385,1114122,0.1833179,0.037551824,0.35338837,2
404904304,404899164,1114122,0.18490759,0.03687502,0.3545857,2
404925333,404920030,1114122,0.18522684,0.037138514,0.3540995,2
404946577,404941500,1114122,0.18586513,0.03924396,0.35323665,2
404967305,404961991,1114122,0.1850296,0.038657352,0.3531384,2
404989148,404983379,1114122,0.18417217,0.033531442,0.34322226,2
405009302,405004140,1114122,0.18487161,0.039657842,0.35248262,2
405030303,405024989,1114122,0.1848307,0.038841594,0.35309586,2
405051740,405046593,1114122,0.18331638,0.036916375,0.35422683,2
405072309,405066997,1114122,0.18490678,0.03914746,0.35501617,2
405094492,405088468,1114122,0.18463147,0.039611325,0.35323912,2
405124809,405114404,1114122,0.1849526,0.03769597,0.3517147,2
405146809,405140956,1114122,0.18475017,0.037291788,0.35361046,2
405167892,405162540,1114122,0.18515037,0.037638545,0.35236788,2
405189350,405184192,1114122,0.18594636,0.03973303,0.35235187,2
405209477,405204331,1114122,0.1854688,0.03943916,0.3523472,2
405231869,405226006,1114122,0.18567246,0.037304588,0.3497799,2
405261967,405251788,1114122,0.1848146,0.03925021,0.35464597,2
405283426,405278056,1114122,0.18435201,0.038209025,0.3537107,2
405305409,405299887,1114122,0.1834478,0.034429554,0.34764427,2
405326885,405321349,1114122,0.1848053,0.035085738,0.3452043,2
405347423,405342113,1114122,0.1850723,0.038494408,0.35153216,2
405368463,405363119,1114122,0.18550818,0.039252598,0.35256767,2
405390468,405384957,1114122,0.18598574,0.036239706,0.35257417,2
405411993,405406414,1114122,0.18543115,0.038168397,0.3511721,2
405434614,405428659,1114122,0.18483424,0.039675124,0.3511459,2
405454683,405449496,1114122,0.18462883,0.040033713,0.35467058,2
405475559,405470218,1114122,0.18419412,0.039687663,0.3530165,2
405497044,405491474,1114122,0.18454856,0.039257072,0.35506147,2
405517171,405512032,1114122,0.1829244,0.035342053,0.35095274,2
405559679,405554520,1114122,0.18510674,0.03834617,0.35447145,2
405580552,405575207,1114122,0.18630397,0.037745282,0.35263878,2
405602113,405596498,1114122,0.18443142,0.038575236,0.3538047,2
405622609,405617285,1114122,0.18514648,0.0381252,0.35451317,2
405643552,405638213,1114122,0.1853888,0.039215866,0.352567,2
405665598,405660115,1114122,0.18319657,0.040036578,0.35444522,2
405687198,405681555,1114122,0.18291694,0.038301952,0.35504615,2
405707555,405702313,1114122,0.1822972,0.035482917,0.34573957,2
405728583,405723261,1114122,0.18459126,0.038800254,0.35345143,2
405749760,405744650,1114122,0.18482931,0.038905278,0.35385424,2
405770617,405765241,1114122,0.18395813,0.039009266,0.3514922,2
405792285,405786604,1114122,0.18475077,0.0390597,0.3532768,2
405813605,405808289,1114122,0.18443304,0.039909225,0.3529307,2
405835071,405829782,1114122,0.18404682,0.035215985,0.34649688,2
405855602,405850290,1114122,0.18518433,0.037927695,0.3555802,2
405877503,405871724,1114122,0.18375333,0.040364332,0.35467327,2
405898704,405893357,1114122,0.18555069,0.0381328,0.3510827,2
405920756,405915252,1114122,0.18336836,0.03531235,0.3475664,2
405942396,405936733,1114122,0.18534513,0.036910616,0.35467607,2
405962754,405957516,1114122,0.18490717,0.037570123,0.3548175,2
405983741,405978395,1114122,0.18554503,0.037357774,0.35419205,2
406004998,405999866,1114122,0.18499047,0.038257867,0.35277668,2
406025702,406020292,1114122,0.18503702,0.034851946,0.3490786,2
406047533,406041786,1114122,0.18439567,0.037611593,0.35160863,2
406067703,406062535,1114122,0.18355575,0.036259174,0.35390684,2
406088705,406083396,1114122,0.18474966,0.037912834,0.35388583,2
406110155,406105036,1114122,0.18562612,0.039278977,0.35337034,2
406152573,406146807,1114122,0.18551023,0.038899653,0.35144907,2
406172778,406167577,1114122,0.18614706,0.03897369,0.3514066,2
406193758,406188415,1114122,0.18543026,0.037647747,0.3516555,2
406215150,406210034,1114122,0.18534616,0.03691751,0.35414147,2
406235706,406230389,1114122,0.18447185,0.037477195,0.35347864,2
406257709,406251850,1114122,0.18403153,0.038708363,0.3548752,2
406277815,406272686,1114122,0.1845909,0.036740184,0.3536476,2
406298751,406293414,1114122,0.18498804,0.03724872,0.35410053,2
406320225,406314622,1114122,0.1837236,0.033969145,0.3491539,2
406340712,406335391,1114122,0.18522838,0.036488224,0.35324442,2
406361742,406356392,1114122,0.18570462,0.035964694,0.3539515,2
406382807,406377711,1114122,0.18494728,0.0370214,0.35463223,2
406403708,406398390,1114122,0.18530367,0.03675157,0.35560977,2
406425326,406419670,1114122,0.1857467,0.03609104,0.35270548,2
406445706,406440497,1114122,0.18439008,0.038711227,0.35465306,2
406466707,406461394,1114122,0.18471,0.039199743,0.3538133,2
406487857,406482769,1114122,0.18415636,0.03837958,0.3518855,2
406508701,406503270,1114122,0.18606386,0.037919745,0.35335356,2
406530397,406524702,1114122,0.18415287,0.037656844,0.3537923,2
406550739,406545497,1114122,0.18507338,0.035452254,0.35095805,2
406571703,406566391,1114122,0.18486911,0.038133822,0.35384437,2
406593753,406588277,1114122,0.18554762,0.037155792,0.35276347,2
406615509,406609779,1114122,0.18570963,0.035375327,0.3512256,2
406635789,406630543,1114122,0.18439737,0.033031173,0.35065812,2
406656804,406651452,1114122,0.18427324,0.037590295,0.35325694,2
406678105,406672982,1114122,0.18379071,0.038804155,0.35599005,2
406698784,406693456,1114122,0.18515071,0.039955765,0.35217506,2
406720563,406714814,1114122,0.18538862,0.038369797,0.35264516,2
406740629,406735465,1114122,0.18341066,0.034117945,0.3461696,2
406760702,406755560,1114122,0.185707,0.03844326,0.3526467,2
406781763,406776414,1114122,0.18498959,0.03714946,0.35325253,2
406803113,406797998,1114122,0.18479747,0.037014175,0.3495072,2
406823704,406818406,1114122,0.18443245,0.03619432,0.35323918,2
406845704,406839844,1114122,0.18498829,0.036699407,0.35395974,2
406865732,406860629,1114122,0.18474716,0.037637837,0.3552637,2
406886835,406881180,1114122,0.18466735,0.035725866,0.35537255,2
406908206,406903104,1114122,0.1854673,0.037481226,0.35316855,2
406928254,406923149,1114122,0.18558805,0.0387033,0.35242704,2
406948666,406943432,1114122,0.18408161,0.034078203,0.3492451,2
406969729,406964344,1114122,0.18455318,0.0386654,0.3525138,2
406990785,406985661,1114122,0.18467347,0.037532933,0.35200918,2
407011652,407006355,1114122,0.18415664,0.036911882,0.35173285,2
407033551,407027729,1114122,0.18325059,0.034332022,0.34666225,2
407054780,407049396,1114122,0.18530539,0.038674496,0.35465425,2
407076059,407070780,1114122,0.18426704,0.03791385,0.35664785,2
407096705,407091404,1114122,0.18391043,0.038035005,0.35580206,2
407138759,407133510,1114122,0.18534693,0.03758452,0.35370445,2
407159731,407154399,1114122,0.18538937,0.039146423,0.35225415,2
407180946,407175828,1114122,0.18531775,0.036667548,0.34789944,2
407200950,407195856,1114122,0.18483487,0.037475023,0.35080552,2
407221651,407216223,1114122,0.18530914,0.039215293,0.3526114,2
407243523,407237724,1114122,0.18554863,0.039293937,0.35221177,2
407263655,407258500,1114122,0.18427342,0.04097169,0.35316697,2
407284656,407279342,1114122,0.18431723,0.04008152,0.35097194,2
407306708,407301366,1114122,0.1849507,0.04053603,0.3527615,2
407328591,407322819,1114122,0.1852639,0.03789095,0.35557988,2
407348699,407343559,1114122,0.18356746,0.034982882,0.34747338,2
407413667,407407857,1114122,0.18427935,0.03770694,0.34991628,2
407433888,407428644,1114122,0.1847569,0.037743688,0.3499176,2
407454779,407449449,1114122,0.18454978,0.03831059,0.3543808,2
407476437,407471171,1114122,0.18458745,0.0380752,0.35553646,2
407498678,407492903,1114122,0.18447423,0.036097936,0.3521685,2
407518835,407513687,1114122,0.1850672,0.03739279,0.35432532,2
407539809,407534493,1114122,0.18562499,0.037250448,0.35396802,2
407561234,407556133,1114122,0.18558744,0.036788434,0.35275877,2
407581812,407576493,1114122,0.18530566,0.038125183,0.35451347,2
407603798,407597946,1114122,0.185348,0.040641632,0.3531201,2
407623806,407618725,1114122,0.18515,0.039473012,0.35256988,2
407644803,407639491,1114122,0.18562934,0.039889775,0.35159576,2
407707839,407702489,1114122,0.18467829,0.037860803,0.34938422,2
407729864,407724292,1114122,0.18432274,0.036446564,0.3479393,2
407751396,407745800,1114122,0.1848734,0.03636375,0.35150424,2
407771545,407766383,1114122,0.18355897,0.036098532,0.3521223,2
407792885,407787539,1114122,0.18443544,0.034782384,0.35161665,2
407813945,407808843,1114122,0.18598667,0.036577236,0.35204375,2
407834905,407829567,1114122,0.18511435,0.036232352,0.35029978,2
407856692,407850918,1114122,0.18463457,0.037943363,0.35152417,2
407877958,407872591,1114122,0.18391664,0.038335934,0.35241923,2
407898997,407893899,1114122,0.1849572,0.036797762,0.34919274,2
407919958,407914595,1114122,0.1859495,0.03608137,0.3506113,2
407941683,407935928,1114122,0.18479374,0.037024394,0.3515572,2
407963014,407957650,1114122,0.1824564,0.03096386,0.345726,2
407985194,407979579,1114122,0.18495725,0.038745344,0.34917337,2
408006614,408001017,1114122,0.18404132,0.037344776,0.34951007,2
408027001,408021748,1114122,0.18416011,0.0381122,0.34983212,2
408048006,408042714,1114122,0.18387766,0.037019208,0.3519565,2
408069121,408064031,1114122,0.1831676,0.03397721,0.34852916,2
408090057,408084710,1114122,0.18418889,0.037372615,0.35588318,2
408111741,408106065,1114122,0.18602404,0.037625298,0.35339427,2
408132009,408126809,1114122,0.18530774,0.036486477,0.35337824,2
408153051,408147720,1114122,0.18534793,0.037187357,0.35316455,2
408174191,408169109,1114122,0.18507133,0.039663024,0.352082,2
408194998,408189706,1114122,0.18546847,0.03980422,0.35253018,2
408216778,408211083,1114122,0.1851108,0.03969747,0.35226077,2
408236982,408231739,1114122,0.18562958,0.04036907,0.35146827,2
408258006,408252716,1114122,0.18395811,0.03856846,0.3514865,2
408279280,408274201,1114122,0.18263769,0.03932594,0.35541537,2
408300005,408294711,1114122,0.18454798,0.03826119,0.3553605,2
408321867,408316100,1114122,0.18499239,0.039373748,0.35172164,2
408342078,408336828,1114122,0.18495217,0.040399466,0.35195762,2
408363006,408357726,1114122,0.18370351,0.0331534,0.33835924,2
408384408,408379299,1114122,0.18562527,0.038869105,0.35381067,2
408405017,408399704,1114122,0.18519266,0.039787058,0.35101432,2
408427001,408421133,1114122,0.18472426,0.037133124,0.34598815,2
408448071,408442484,1114122,0.18494934,0.03942417,0.35350466,2
408469460,408464370,1114122,0.183752,0.040465333,0.35538757,2
408490056,408484766,1114122,0.18392149,0.038737856,0.34975067,2
408512066,408506209,1114122,0.18399587,0.038994882,0.35260618,2
408542154,408531996,1114122,0.18555999,0.039831534,0.35325855,2
408563594,408558245,1114122,0.1849893,0.039425336,0.35341564,2
408584697,408579518,1114122,0.18371561,0.039092988,0.35354272,2
408605602,408600248,1114122,0.18602508,0.039874222,0.35279948,2
408627142,408621523,1114122,0.18463185,0.040128484,0.35302302,2
408647644,408642357,1114122,0.18546681,0.040380456,0.3534289,2
408668616,408663256,1114122,0.18447155,0.039642867,0.35364032,2
408689681,408684563,1114122,0.18490638,0.0395854,0.35524464,2
408710582,408705240,1114122,0.1849482,0.03912223,0.35412467,2
408732271,408726551,1114122,0.18538865,0.038333055,0.35264468,2
408752290,408747137,1114122,0.18566662,0.039761715,0.3529756,2
408772537,408767329,1114122,0.18538871,0.040170413,0.35262388,2
408793539,408788225,1114122,0.18479082,0.039649203,0.35315078,2
408814763,408809656,1114122,0.18586393,0.03890469,0.3539007,2
408835550,408830217,1114122,0.18566564,0.03986501,0.3535117,2
408857516,408851631,1114122,0.1845951,0.038423233,0.3513521,2
408878619,408873279,1114122,0.18356115,0.0386121,0.3509516,2
408899789,408894719,1114122,0.18471305,0.03764143,0.35214433,2
408920560,408915242,1114122,0.18428344,0.037552074,0.34768617,2
408942404,408936617,1114122,0.18598297,0.038314626,0.35407153,2
408962551,408957389,1114122,0.18396866,0.037063137,0.3457185,2
408983653,408978277,1114122,0.18361326,0.03278406,0.34419197,2
409005006,408999852,1114122,0.18515137,0.041356318,0.35183665,2
409025550,409020240,1114122,0.18538874,0.041346524,0.3525945,2
409047560,409041682,1114122,0.18399552,0.040094636,0.3527986,2
409067634,409062505,1114122,0.18406945,0.038401216,0.35589623,2
409110614,409105234,1114122,0.1855462,0.039607275,0.3535527,2
409132676,409126736,1114122,0.18626532,0.040288687,0.35200316,2
409163102,409152691,1114122,0.18603876,0.039839983,0.352606,2
409185118,409179273,1114122,0.18535258,0.039865717,0.35061455,2
409205203,409200084,1114122,0.18574786,0.0385977,0.35206947,2
409226103,409220795,1114122,0.18491027,0.039245687,0.35310125,2
409248151,409242850,1114122,0.18454938,0.041430824,0.35459942,2
409270153,409264316,1114122,0.18395516,0.04045795,0.3531152,2
409291253,409285891,1114122,0.18285373,0.036176868,0.34606153,2
409312719,409307562,1114122,0.18522562,0.03911417,0.3547489,2
409333278,409327940,1114122,0.18551886,0.038483135,0.34672004,2
409355289,409349407,1114122,0.18546697,0.04012447,0.35333645,2
409376414,409370956,1114122,0.18538848,0.039397232,0.35274756,2
409397719,409392617,1114122,0.18484473,0.03662633,0.3454025,2
409418251,409412940,1114122,0.18530717,0.038613692,0.3536731,2
409439293,409433942,1114122,0.18506753,0.038717568,0.35416418,2
409460261,409455183,1114122,0.18340147,0.038976006,0.3512234,2
409480283,409475206,1114122,0.18307607,0.040799983,0.35507873,2
409500327,409495236,1114122,0.18439849,0.035500504,0.35006618,2
409521181,409515840,1114122,0.18312648,0.03532721,0.34925953,2
409542981,409537177,1114122,0.1840769,0.036800526,0.35182038,2
409563009,409557810,1114122,0.18376131,0.03880442,0.350286,2
409584168,409578868,1114122,0.18352214,0.03839743,0.35050312,2
409605367,409600304,1114122,0.18233526,0.03543408,0.3466748,2
409626156,409620725,1114122,0.184955,0.037590414,0.35040617,2
409647927,409642223,1114122,0.18427545,0.03786297,0.35205728,2
409668161,409663048,1114122,0.18398994,0.038769152,0.3558563,2
409689158,409683852,1114122,0.1829589,0.039088942,0.35385323,2
409711201,409705821,1114122,0.18233755,0.031812824,0.34542483,2
409733011,409727259,1114122,0.18352097,0.037103053,0.3511548,2
409753247,409748055,1114122,0.18352175,0.0341694,0.35071582,2
409774264,409768903,1114122,0.18340299,0.03604752,0.3503834,2
409796265,409790839,1114122,0.18475717,0.036973976,0.34977394,2
409818293,409812362,1114122,0.18440388,0.0363473,0.34709144,2
409839306,409833992,1114122,0.18460214,0.03726049,0.3475047,2
409860598,409855524,1114122,0.18252118,0.034496427,0.3538376,2
409881301,409875987,1114122,0.18427958,0.035210088,0.34979486,2
409903142,409897380,1114122,0.1822118,0.037021652,0.34892324,2
409923336,409918213,1114122,0.18483439,0.0364797,0.35106003,2
409944308,409939009,1114122,0.18428159,0.038384333,0.34867728,2
409965716,409960612,1114122,0.18307889,0.038652167,0.35353583,2
409986345,409981011,1114122,0.18411393,0.037478924,0.35334432,2
410008305,410002431,1114122,0.1834067,0.034163196,0.34835374,2
410028339,410023146,1114122,0.18475221,0.03998846,0.3524867,2
410049361,410044004,1114122,0.18463267,0.039142393,0.35256463,2
410070755,410065669,1114122,0.18502855,0.037841678,0.3537072,2
410091352,410085991,1114122,0.1833637,0.038623042,0.3501047,2
410113356,410107470,1114122,0.1840033,0.033609845,0.3485259,2
410134360,410129047,1114122,0.18453369,0.036457755,0.34138912,2
410155845,410150753,1114122,0.18389429,0.032580927,0.34285295,2
410176359,410171045,1114122,0.18449529,0.03654101,0.34063256,2
410197473,410192055,1114122,0.18337272,0.032771386,0.34517175,2
410218421,410213290,1114122,0.18396193,0.035582624,0.34939802,2
410239400,410234039,1114122,0.18328807,0.03596899,0.3479312,2
410260902,410255315,1114122,0.18399702,0.038966216,0.3519819,2
410281439,410276078,1114122,0.18439022,0.04036548,0.35458532,2
410302430,410297048,1114122,0.18383886,0.036695503,0.35141748,2
410324454,410318897,1114122,0.18368652,0.036009178,0.3476651,2
410346004,410340383,1114122,0.18526584,0.036581725,0.35453802,2
410366046,410360937,1114122,0.18551001,0.038750973,0.3515808,2
410387578,410382143,1114122,0.18526754,0.04030469,0.35360578,2
410408568,410403453,1114122,0.18447638,0.038538046,0.35099685,2
410429416,410424095,1114122,0.18542874,0.040025204,0.3524884,2
410451057,410445417,1114122,0.18446872,0.038924728,0.35519075,2
410471425,410466185,1114122,0.18367666,0.039723832,0.3530606,2
410492413,410487114,1114122,0.18375549,0.039277233,0.3535006,2
410514525,410508999,1114122,0.18566366,0.037940346,0.35460088,2
410536221,410530518,1114122,0.18463314,0.03745544,0.35232005,2
410557637,410552227,1114122,0.18522742,0.03582006,0.35377055,2
410578889,410573656,1114122,0.18491068,0.039248567,0.35287845,2
410599556,410594213,1114122,0.18515295,0.03978763,0.3509697,2
410621255,410615565,1114122,0.18320937,0.036673307,0.34745002,2
410642614,410637242,1114122,0.18550692,0.040162336,0.35324788,2
410663788,410658658,1114122,0.18455063,0.039565936,0.35390687,2
410684614,410679245,1114122,0.1845497,0.03761205,0.3544163,2
410706274,410700580,1114122,0.18491414,0.03776659,0.35098767,2
410726551,410721387,1114122,0.18436283,0.038689725,0.34779012,2
410747603,410742287,1114122,0.18478724,0.03844831,0.355096,2
410769603,410764148,1114122,0.18467131,0.037003096,0.3532055,2
410791358,410785649,1114122,0.18558615,0.039094128,0.35345703,2
410811624,410806412,1114122,0.18574338,0.039080318,0.35452664,2
410832628,410827295,1114122,0.18558885,0.040877018,0.35196495,2
410853916,410848799,1114122,0.18455136,0.040526256,0.35351822,2
410874665,410869299,1114122,0.18434975,0.04072822,0.35494643,2
410896475,410890736,1114122,0.18526983,0.040173873,0.35235634,2
410916599,410911396,1114122,0.18550429,0.0392617,0.35470676,2
410959035,410953886,1114122,0.18587175,0.038519174,0.34961772,2
410979606,410974293,1114122,0.1844332,0.04009406,0.35284397,2
411001606,410995730,1114122,0.1851927,0.038097225,0.35099247,2
411021626,411016513,1114122,0.18471147,0.03924684,0.35301176,2
411042613,411037289,1114122,0.18416569,0.034513973,0.34679997,2
411064652,411059340,1114122,0.18443227,0.038434044,0.35335726,2
411086679,411080789,1114122,0.1845487,0.038670465,0.35496476,2
411107706,411102158,1114122,0.18439296,0.037996665,0.35308415,2
411129222,411124105,1114122,0.18574658,0.037890505,0.3527733,2
411149710,411144424,1114122,0.18462971,0.038239434,0.3542018,2
411171746,411165860,1114122,0.1854275,0.04056758,0.35316384,2
411191789,411186632,1114122,0.18519083,0.038855433,0.35202718,2
411212706,411207390,1114122,0.18515232,0.038570747,0.35131043,2
411234397,411228691,1114122,0.1842562,0.036428515,0.34080893,2
411256821,411250917,1114122,0.18478912,0.03915954,0.35408026,2
411287256,411276860,1114122,0.18287635,0.03742678,0.3554804,2
411308333,411302965,1114122,0.18451111,0.03890643,0.35376456,2
411330299,411324782,1114122,0.18454972,0.0406984,0.35441166,2
411351792,411346236,1114122,0.18372722,0.03557469,0.34716934,2
411372345,411367012,1114122,0.18383549,0.037994374,0.35326135,2
411393352,411387993,1114122,0.18439357,0.03943398,0.35274625,2
411414392,411409281,1114122,0.18411374,0.039241076,0.35345626,2
411434413,411429305,1114122,0.18403909,0.038431283,0.35072732,2
411476899,411471245,1114122,0.18434864,0.040058922,0.35556167,2
411497253,411492063,1114122,0.18371479,0.03827905,0.3539778,2
411518265,411512942,1114122,0.18486914,0.03857466,0.35385004,2
411539621,411534460,1114122,0.18590412,0.0392382,0.35368228,2
411560266,411554939,1114122,0.18379731,0.038667127,0.35237873,2
411582159,411576359,1114122,0.18498772,0.040553182,0.35427693,2
411603308,411597991,1114122,0.18602446,0.038657352,0.35314023,2
411624553,411619458,1114122,0.1858671,0.041535977,0.35215223,2
411645317,411639931,1114122,0.18332878,0.03634269,0.34744594,2
411667037,411661357,1114122,0.18486655,0.037527632,0.35526252,2
411687321,411682136,1114122,0.18343304,0.038146377,0.35571352,2
411708363,411703002,1114122,0.18506989,0.037815876,0.35286024,2
411752106,411746402,1114122,0.18558873,0.040692203,0.35205168,2
411772391,411767187,1114122,0.18523064,0.03999481,0.35199746,2
411793451,411788041,1114122,0.18499157,0.039698623,0.35217145,2
411814748,411809617,1114122,0.1848698,0.04052683,0.35347423,2
411835411,411830047,1114122,0.18578295,0.039078593,0.35466036,2
411857474,411851500,1114122,0.184712,0.039581485,0.35270417,2
411877482,411872274,1114122,0.1847864,0.03980178,0.35555914,2
411898451,411893057,1114122,0.18527016,0.038559802,0.3521572,2
411919791,411914674,1114122,0.18590288,0.039817333,0.35435817,2
411939809,411934706,1114122,0.18526766,0.03788071,0.35352987,2
411960358,411954995,1114122,0.18380761,0.03480901,0.34671402,2
411981342,411975995,1114122,0.18582538,0.041118048,0.35321623,2
412002316,411997237,1114122,0.18558669,0.03990636,0.3531556,2
412023336,412017988,1114122,0.18582521,0.039941348,0.35329014,2
412044896,412039274,1114122,0.18590589,0.03969171,0.35270774,2
412065305,412060099,1114122,0.18447545,0.039303154,0.35149693,2
412086305,412081002,1114122,0.18546796,0.040755883,0.35280985,2
412108411,412102822,1114122,0.1841172,0.037171345,0.35155785,2
412130010,412124360,1114122,0.18471709,0.03531857,0.34993076,2
412151466,412146093,1114122,0.18326497,0.03193538,0.33878827,2
412172526,412167408,1114122,0.18400073,0.036861464,0.34994936,2
412193471,412188090,1114122,0.18459839,0.037160538,0.34955326,2
412215060,412209391,1114122,0.18468037,0.035597615,0.3482409,2
412235480,412230160,1114122,0.1850776,0.03871551,0.34863847,2
412256565,412251135,1114122,0.18205559,0.034470905,0.34728575,2
412277548,412272468,1114122,0.18197261,0.03749632,0.34915173,2
412298421,412292924,1114122,0.1833643,0.034365173,0.34978226,2
412320147,412314436,1114122,0.18487841,0.035039656,0.3487688,2
412340160,412335051,1114122,0.18381111,0.03538481,0.34480524,2
412360374,412355192,1114122,0.18429244,0.034970466,0.3427509,2
412381359,412376050,1114122,0.18471685,0.038807303,0.35006496,2
412402661,412397571,1114122,0.183962,0.036722,0.34936818,2
412423359,412418041,1114122,0.18312302,0.03592752,0.3511389,2
412445218,412439441,1114122,0.1835621,0.035789788,0.35042495,2
412465348,412460211,1114122,0.18194145,0.03542672,0.34440133,2
412486373,412481045,1114122,0.18361378,0.035947356,0.34392092,2
412507785,412502644,1114122,0.18336314,0.037076116,0.3503966,2
412528358,412522990,1114122,0.18431765,0.036116384,0.35074246,2
412550347,412544494,1114122,0.18459836,0.03840953,0.34956944,2
412570398,412565265,1114122,0.18277428,0.038014784,0.345996,2
412591356,412585814,1114122,0.18464196,0.038473345,0.3474759,2
412613416,412608033,1114122,0.18440151,0.03728572,0.3483959,2
412635621,412629602,1114122,0.18436074,0.03735228,0.34893143,2
412656524,412651164,1114122,0.18348044,0.03779585,0.35156476,2
412677866,412672760,1114122,0.18186173,0.034580655,0.34447938,2
412698474,412693143,1114122,0.18388668,0.035907038,0.34704027,2
412720546,412714636,1114122,0.18431845,0.035754785,0.35029215,2
412750534,412740388,1114122,0.1839196,0.035184987,0.35078913,2
412770549,412765418,1114122,0.18479803,0.036173277,0.34918436,2
412790863,412785668,1114122,0.18427935,0.03759675,0.34991482,2
412811851,412806540,1114122,0.18444225,0.035896093,0.3478878,2
412833069,412827907,1114122,0.18459876,0.038081795,0.34934235,2
412853871,412848544,1114122,0.18404493,0.03674562,0.34754157,2
412875649,412869875,1114122,0.18146452,0.033483766,0.3440634,2
412895851,412890642,1114122,0.18360543,0.0362927,0.34847075,2
412916853,412911563,1114122,0.18344879,0.036126874,0.3470869,2
412938139,412933024,1114122,0.18389776,0.03396491,0.3409547,2
412958857,412953443,1114122,0.18404709,0.036504027,0.3463353,2
412980705,412974914,1114122,0.18376824,0.035326175,0.34649777,2
413000856,412995678,1114122,0.18400809,0.035480615,0.34592092,2
413021866,413016539,1114122,0.18384522,0.03663023,0.3479408,2
413043901,413038527,1114122,0.18424061,0.037934855,0.34933984,2
413065775,413059969,1114122,0.18328393,0.033624705,0.35021818,2
413085948,413080832,1114122,0.18395334,0.036954835,0.3540948,2
413106910,413101593,1114122,0.18340382,0.035098158,0.3499255,2
413128301,413123217,1114122,0.18380693,0.035097715,0.34711877,2
413148907,413143593,1114122,0.18475658,0.038072,0.3501001,2
413170909,413165015,1114122,0.18420815,0.03791322,0.34532887,2
413190939,413185845,1114122,0.18364449,0.037830397,0.34889176,2
413211908,413206589,1114122,0.1827665,0.03645334,0.35025382,2
413233952,413228581,1114122,0.1815417,0.03622222,0.34539124,2
413255859,413250070,1114122,0.18245202,0.036260575,0.34811172,2
413275986,413270836,1114122,0.18297148,0.03697353,0.34696326,2
413297023,413291426,1114122,0.18140054,0.031095764,0.33552098,2
413318424,413313341,1114122,0.18395942,0.03960627,0.35078692,2
413338981,413333651,1114122,0.18339808,0.037225224,0.35307235,2
413361069,413355122,1114122,0.18268436,0.037500814,0.35164863,2
413391470,413381052,1114122,0.18350202,0.03905502,0.34700602,2
413412511,413407150,1114122,0.1839203,0.03781081,0.35040712,2
413433499,413428432,1114122,0.18368813,0.03807789,0.34680063,2
413453688,413448521,1114122,0.18411678,0.03661742,0.35177353,2
413474414,413469092,1114122,0.18304569,0.03715591,0.34990686,2
413496070,413490388,1114122,0.18305266,0.034670122,0.34608698,2
413516416,413511166,1114122,0.18091235,0.034106676,0.34135213,2
413537418,413532089,1114122,0.18344529,0.036763355,0.3490113,2
413558618,413553538,1114122,0.18355921,0.03716557,0.35200238,2
413578635,413573561,1114122,0.18301627,0.035759658,0.34422934,2
413599368,413593947,1114122,0.18230774,0.03316941,0.3399611,2
413621168,413615422,1114122,0.18261886,0.0333753,0.34393042,2
413641391,413636187,1114122,0.18261907,0.03745525,0.3438049,2
413662351,413657039,1114122,0.18150024,0.035108067,0.34631258,2
413684418,413679041,1114122,0.18150252,0.0325154,0.3450759,2
413706227,413700477,1114122,0.1843023,0.03412178,0.33734787,2
413726456,413721245,1114122,0.18423781,0.03695956,0.3508869,2
413747423,413742102,1114122,0.18300396,0.03626044,0.35096475,2
413769476,413764048,1114122,0.18439797,0.036011368,0.3503402,2
413791363,413785573,1114122,0.18300405,0.036114067,0.3509183,2
413811518,413806327,1114122,0.18383941,0.036699533,0.35110563,2
413832466,413827146,1114122,0.1841223,0.037023954,0.3487485,2
413853844,413848745,1114122,0.18407977,0.039025392,0.35024488,2
413873966,413868896,1114122,0.18280832,0.037202448,0.34914947,2
413896414,413890578,1114122,0.18161556,0.03831257,0.3485378,2
413916485,413911348,1114122,0.18443602,0.038093194,0.35130298,2
413937519,413932158,1114122,0.18428126,0.039741244,0.34887308,2
413958908,413953828,1114122,0.18277931,0.03444983,0.34323162,2
413978992,413973892,1114122,0.18301961,0.03534244,0.3423969,2
413999425,413994139,1114122,0.18299268,0.03161238,0.3353523,2
414020460,414015107,1114122,0.18381107,0.035457693,0.34485078,2
414041519,414036407,1114122,0.18420735,0.035850264,0.34574783,2
414062409,414057098,1114122,0.18312678,0.0356234,0.3490851,2
414084169,414078471,1114122,0.18396267,0.034302067,0.34898043,2
414104436,414099237,1114122,0.18515962,0.0362342,0.34731418,2
414125462,414120096,1114122,0.18420285,0.036663517,0.34820926,2
414147554,414142008,1114122,0.18404174,0.037457865,0.3492887,2
414169094,414163460,1114122,0.18448207,0.03788039,0.347869,2
414190623,414185240,1114122,0.18396467,0.03751245,0.34790784,2
414211680,414206548,1114122,0.18364702,0.037407428,0.34750485,2
414232536,414227212,1114122,0.1832459,0.03837683,0.3492546,2
414254184,414248531,1114122,0.18372071,0.03659394,0.35074753,2
414275705,414270263,1114122,0.18375818,0.03705538,0.35200134,2
414296713,414291618,1114122,0.18467818,0.03808064,0.34943163,2
414317560,414312255,1114122,0.18303633,0.033587,0.33323896,2
414339256,414333577,1114122,0.1842463,0.03702004,0.34620863,2
414359596,414354363,1114122,0.18519562,0.03727303,0.34937757,2
414380553,414375240,1114122,0.18444031,0.03705838,0.3489278,2
414401811,414396689,1114122,0.18431962,0.038555328,0.34965992,2
414422587,414417254,1114122,0.18416208,0.037721932,0.34875762,2
414444340,414438607,1114122,0.18360528,0.03669564,0.3485651,2
414464573,414459446,1114122,0.18292615,0.0375956,0.35000148,2
414485556,414480261,1114122,0.18348719,0.03677833,0.34785295,2
414506998,414501835,1114122,0.18432388,0.037483223,0.34732884,2
414527641,414522267,1114122,0.18320805,0.034128755,0.3481747,2
414549401,414543637,1114122,0.18420064,0.03848473,0.34943599,2
414569551,414564413,1114122,0.18475544,0.038247615,0.35072625,2
414590555,414585242,1114122,0.18486863,0.040518753,0.35409802,2
414612603,414607236,1114122,0.18360919,0.035915103,0.346416,2
414634691,414628765,1114122,0.18471265,0.040357552,0.3523577,2
414655656,414650341,1114122,0.18407845,0.039383538,0.35096252,2
414677027,414671886,1114122,0.18431331,0.040017143,0.35311013,2
414697656,414692297,1114122,0.1838764,0.03939838,0.3526557,2
414719656,414713823,1114122,0.18490794,0.03915551,0.35439238,2
414740707,414735393,1114122,0.18523106,0.037499085,0.35178697,2
414762126,414756968,1114122,0.18451579,0.037139226,0.35120168,2
414782745,414777404,1114122,0.18535236,0.037880253,0.3507226,2
414804648,414798828,1114122,0.18535209,0.037179988,0.3508918,2
414825761,414820200,1114122,0.18499307,0.03779873,0.35134476,2
414847870,414842451,1114122,0.18511283,0.038977142,0.3511374,2
414869705,414863938,1114122,0.18327916,0.037706245,0.35281098,2
414889816,414884695,1114122,0.1847145,0.037908934,0.35134566,2
414910806,414905501,1114122,0.18436006,0.039331377,0.34931353,2
414932259,414927114,1114122,0.18286335,0.031542093,0.34078777,2
414952842,414947445,1114122,0.18412623,0.034185644,0.3466174,2
414974956,414969025,1114122,0.18396959,0.036298014,0.34521842,2
414995862,414990542,1114122,0.18353756,0.03530972,0.34208548,2
415017952,415012538,1114122,0.18317655,0.030513365,0.34362707,2
415039905,415034018,1114122,0.18368901,0.033822328,0.34629995,2
415059936,415054787,1114122,0.1823749,0.03557986,0.34676594,2
415080976,415075605,1114122,0.18281344,0.03690812,0.34633827,2
415102954,415097655,1114122,0.18376723,0.033922743,0.34705895,2
415124860,415119083,1114122,0.18432993,0.032639425,0.34401315,2
415146009,415140454,1114122,0.18348986,0.03433546,0.34639537,2
415167533,415162382,1114122,0.18476334,0.033564035,0.34638768,2
415188053,415182719,1114122,0.18321455,0.034505453,0.34461457,2
415209941,415204168,1114122,0.18273732,0.035242464,0.344445,2
415230052,415224919,1114122,0.18314156,0.033854127,0.34099644,2
415251021,415245712,1114122,0.18369058,0.03644207,0.3454426,2
415272542,415267411,1114122,0.18369007,0.037430484,0.34572273,2
415293043,415287713,1114122,0.18281579,0.0338752,0.3450513,2
415314041,415308718,1114122,0.18452688,0.036262423,0.34512985,2
415335242,415330026,1114122,0.18211521,0.03189243,0.3364238,2
415356005,415350710,1114122,0.18408921,0.035234414,0.3450712,2
415377728,415372062,1114122,0.18433303,0.035931364,0.3423178,2
415398001,415392798,1114122,0.18384928,0.033242054,0.34571344,2
415419006,415413716,1114122,0.18289702,0.032564223,0.34414324,2
415440155,415435037,1114122,0.18384933,0.034124263,0.3456803,2
415461056,415455690,1114122,0.18289475,0.03614876,0.3453928,2
415482708,415477052,1114122,0.18149918,0.03609243,0.34690464,2
415502999,415497784,1114122,0.18357506,0.034558885,0.3433236,2
415524013,415518713,1114122,0.18313761,0.032429956,0.34316158,2
415546099,415540596,1114122,0.18218906,0.030602526,0.33957124,2
415567767,415562082,1114122,0.18441203,0.035890587,0.34262934,2
415587781,415582683,1114122,0.18414068,0.03535351,0.33870038,2
415609108,415603788,1114122,0.18250085,0.03599388,0.34316194,2
415631158,415625622,1114122,0.18353002,0.035734303,0.3461907,2
415652820,415647134,1114122,0.18246603,0.033971246,0.34046197,2
415673101,415667896,1114122,0.1815439,0.035282664,0.34417593,2
415694140,415688790,1114122,0.18190457,0.034197874,0.34282568,2
415715596,415710318,1114122,0.18310122,0.032894988,0.3412959,2
415736101,415730807,1114122,0.18274069,0.032915015,0.34258783,2
415757957,415752207,1114122,0.18373138,0.03549386,0.34489566,2
415779266,415773858,1114122,0.1843265,0.03669347,0.3458926,2
415800421,415795324,1114122,0.18364975,0.032833915,0.34601974,2
415821175,415815852,1114122,0.1834905,0.034450285,0.34604034,2
415842978,415837238,1114122,0.18289152,0.034693033,0.34715647,2
415863156,415858065,1114122,0.18312865,0.03508562,0.34805322,2
415884218,415878850,1114122,0.18245685,0.03508228,0.34546733,2
415905530,415900427,1114122,0.18269856,0.036094867,0.3438766,2
415948086,415942267,1114122,0.18163347,0.033479426,0.33871615,2
415968151,415963044,1114122,0.18396991,0.03607989,0.34503734,2
415989212,415983842,1114122,0.18337476,0.035137445,0.34404373,2
416010587,416005508,1114122,0.18338609,0.034813426,0.33784533,2
416031165,416025841,1114122,0.18334751,0.035152674,0.3371812,2
416053231,416047340,1114122,0.18333569,0.035363052,0.3436455,2
416074218,416068900,1114122,0.18177629,0.03527389,0.34769666,2
416095675,416090578,1114122,0.18277155,0.03593802,0.34748426,2
416115942,416110677,1114122,0.18321458,0.03707752,0.34460324,2
416137250,416131909,1114122,0.18301776,0.034080178,0.3434055,2
416158613,416153280,1114122,0.18448907,0.034880303,0.34404242,2
416220800,416215697,1114122,0.18282187,0.034432687,0.34171632,2
416241169,416235912,1114122,0.18297753,0.03569366,0.3436491,2
416262156,416256844,1114122,0.18131575,0.03293299,0.33835202,2
416283374,416278248,1114122,0.1822586,0.036262996,0.34508115,2
416325853,416320168,1114122,0.18250647,0.03224929,0.34008327,2
416346201,416340934,1114122,0.18258645,0.030561747,0.33988333,2
