timestamp,timestamp_sample,control[0],control[1],control[2],control[3],control[4],control[5],control[6],control[7]
394660983,0,-0.0,0.1758794,0.0,0.0,0.0,0.0,0.0,0.0
394795154,0,-0.0,0.17336683,0.0,0.0,0.0,0.0,0.0,0.0
394905264,0,-0.0,0.17336683,0.0,0.0,0.0,0.0,0.0,0.0
395015614,0,-0.0,0.17336683,0.0,0.0,0.0,0.0,0.0,0.0
395111804,0,-0.0,0.1758794,0.0,0.0,0.0,0.0,0.0,0.0
395221998,0,-0.0,0.1758794,0.0,0.0,0.0,0.0,0.0,0.0
395311263,0,-0.0,0.17336683,0.0,0.0,0.0,0.0,0.0,0.0
395501575,0,-0.0,0.17336683,0.0,0.0,0.0,0.0,0.0,0.0
395525611,0,-0.0,0.1758794,0.0,0.0,0.0,0.0,0.0,0.0
395706162,0,-0.0,0.17336683,0.0,0.0,0.0,0.0,0.0,0.0
395796108,0,-0.0,0.1758794,0.0,0.0,0.0,0.0,0.0,0.0
395871850,0,-0.0,0.1758794,0.0,0.0,0.0,0.0,0.0,0.0
396006156,0,-0.0,0.17336683,0.0,0.0,0.0,0.0,0.0,0.0
396056336,0,-0.0,0.1758794,0.0,0.0,0.0,0.0,0.0,0.0
396206282,0,-0.0,0.17336683,0.0,0.0,0.0,0.0,0.0,0.0
396302771,0,-0.0,0.1758794,0.0,0.0,0.0,0.0,0.0,0.0
396412425,0,-0.0,0.1758794,0.0,0.0,0.0,0.0,0.0,0.0
396502359,0,-0.0,0.17336683,0.0,0.0,0.0,0.0,0.0,0.0
396612498,0,-0.0,0.1758794,0.0,0.0,0.0,0.0,0.0,0.0
396707000,0,-0.0,0.1758794,0.0,0.0,0.0,0.0,0.0,0.0
396806768,0,-0.0,0.17336683,0.0,0.0,0.0,0.0,0.0,0.0
396877119,0,-0.0,0.1758794,0.0,0.0,0.0,0.0,0.0,0.0
397006973,0,-0.0,0.1758794,0.0,0.0,0.0,0.0,0.0,0.0
397112870,0,-0.0,0.17336683,0.0,0.0,0.0,0.0,0.0,0.0
397202918,0,-0.0,0.1758794,0.0,0.0,0.0,0.0,0.0,0.0
397297142,0,-0.0,0.17336683,0.0,0.0,0.0,0.0,0.0,0.0
397693283,0,-0.0,0.17336683,0.0,0.0,0.0,0.0,0.0,0.0
397813502,0,-0.0,0.17336683,0.0,0.0,0.0,0.0,0.0,0.0
397903512,0,-0.0,0.1758794,0.0,0.0,0.0,0.0,0.0,0.0
397997551,0,-0.0,0.1758794,0.0,0.0,0.0,0.0,0.0,0.0
398087996,0,-0.0,0.17336683,0.0,0.0,0.0,0.0,0.0,0.0
398197886,0,-0.0,0.1758794,0.0,0.0,0.0,0.0,0.0,0.0
398303748,0,-0.0,0.17336683,0.0,0.0,0.0,0.0,0.0,0.0
398414356,0,-0.0,0.17336683,0.0,0.0,0.0,0.0,0.0,0.0
398504616,0,-0.0,0.17336683,0.0,0.0,0.0,0.0,0.0,0.0
398528317,0,-0.0,0.1758794,0.0,0.0,0.0,0.0,0.0,0.0
398698401,0,-0.0,0.1758794,0.0,0.0,0.0,0.0,0.0,0.0
398808444,0,-0.0,0.1758794,0.0,0.0,0.0,0.0,0.0,0.0
398874247,0,-0.0,0.17336683,0.0,0.0,0.0,0.0,0.0,0.0
399004450,0,-0.0,0.1758794,0.0,0.0,0.0,0.0,0.0,0.0
399108736,0,-0.0,0.17336683,0.0,0.0,0.0,0.0,0.0,0.0
399199606,0,-0.0,0.1758794,0.0,0.0,0.0,0.0,0.0,0.0
399409018,0,-0.0,0.1758794,0.0,0.0,0.0,0.0,0.0,0.0
399499039,0,-0.0,0.1758794,0.0,0.0,0.0,0.0,0.0,0.0
399615498,0,-0.0,0.17336683,0.0,0.0,0.0,0.0,0.0,0.0
399704976,0,-0.0,0.1758794,0.0,0.0,0.0,0.0,0.0,0.0
399795894,0,-0.0,0.1758794,0.0,0.0,0.0,0.0,0.0,0.0
399905111,0,-0.0,0.1758794,0.0,0.0,0.0,0.0,0.0,0.0
400199448,0,-0.0,0.17336683,0.0,0.0,0.0,0.0,0.0,0.0
400395845,0,-0.0,0.1758794,0.0,0.0,0.0,0.0,0.0,0.0
400500132,0,-0.0,0.17336683,0.0,0.0,0.0,0.0,0.0,0.0
400595720,0,-0.0,0.1758794,0.0,0.0,0.0,0.0,0.0,0.0
400705826,0,-0.0,0.1758794,0.0,0.0,0.0,0.0,0.0,0.0
400746012,0,-0.0,0.17336683,0.0,0.0,0.0,0.0,0.0,0.0
401097013,0,-0.0,0.17336683,0.0,0.0,0.0,0.0,0.0,0.0
401206395,0,-0.0,0.1758794,0.0,0.0,0.0,0.0,0.0,0.0
401296347,0,-0.0,0.17336683,0.0,0.0,0.0,0.0,0.0,0.0
401410701,0,-0.0,0.1758794,0.0,0.0,0.0,0.0,0.0,0.0
401506636,0,-0.0,0.17336683,0.0,0.0,0.0,0.0,0.0,0.0
401600616,0,-0.0,0.1758794,0.0,0.0,0.0,0.0,0.0,0.0
401700824,0,-0.0,0.1758794,0.0,0.0,0.0,0.0,0.0,0.0
401796771,0,-0.0,0.17336683,0.0,0.0,0.0,0.0,0.0,0.0
401891138,0,-0.0,0.1758794,0.0,0.0,0.0,0.0,0.0,0.0
402006751,0,-0.0,0.1758794,0.0,0.0,0.0,0.0,0.0,0.0
402101210,0,-0.0,0.17336683,0.0,0.0,0.0,0.0,0.0,0.0
402211099,0,-0.0,0.1758794,0.0,0.0,0.0,0.0,0.0,0.0
402301488,0,-0.0,0.1758794,0.0,0.0,0.0,0.0,0.0,0.0
402401494,0,-0.0,0.17336683,0.0,0.0,0.0,0.0,0.0,0.0
402511414,0,-0.0,0.17336683,0.0,0.0,0.0,0.0,0.0,0.0
402607794,0,-0.0,0.1758794,0.0,0.0,0.0,0.0,0.0,0.0
402701640,0,-0.0,0.1758794,0.0,0.0,0.0,0.0,0.0,0.0
402807646,0,-0.0,0.17336683,0.0,0.0,0.0,0.0,0.0,0.0
402961821,0,-0.0,0.17336683,0.0,0.0,0.0,0.0,0.0,0.0
403098728,0,-0.0,0.17336683,0.0,0.0,0.0,0.0,0.0,0.0
403207846,0,-0.0,0.1758794,0.0,0.0,0.0,0.0,0.0,0.0
403298898,0,-0.0,0.1758794,0.0,0.0,0.0,0.0,0.0,0.0
403398779,0,-0.0,0.17336683,0.0,0.0,0.0,0.0,0.0,0.0
403508155,0,-0.0,0.1758794,0.0,0.0,0.0,0.0,0.0,0.0
403602448,0,-0.0,0.1758794,0.0,0.0,0.0,0.0,0.0,0.0
403712570,0,-0.0,0.17336683,0.0,0.0,0.0,0.0,0.0,0.0
403758352,0,-0.0,0.17336683,0.0,0.0,0.0,0.0,0.0,0.0
403872436,0,-0.0,0.17336683,0.0,0.0,0.0,0.0,0.0,0.0
404002533,0,-0.0,0.1758794,0.0,0.0,0.0,0.0,0.0,0.0
404068688,0,-0.0,0.1758794,0.0,0.0,0.0,0.0,0.0,0.0
404202722,0,-0.0,0.17336683,0.0,0.0,0.0,0.0,0.0,0.0
404292906,0,-0.0,0.1758794,0.0,0.0,0.0,0.0,0.0,0.0
404403091,0,-0.0,0.1758794,0.0,0.0,0.0,0.0,0.0,0.0
404499169,0,-0.0,0.17336683,0.0,0.0,0.0,0.0,0.0,0.0
404583300,0,-0.0,0.17336683,0.0,0.0,0.0,0.0,0.0,0.0
404693179,0,-0.0,0.17336683,0.0,0.0,0.0,0.0,0.0,0.0
404809002,0,-0.0,0.1758794,0.0,0.0,0.0,0.0,0.0,0.0
404880025,0,-0.0,0.17336683,0.0,0.0,0.0,0.0,0.0,0.0
405003599,0,-0.0,0.17336683,0.0,0.0,0.0,0.0,0.0,0.0
405113452,0,-0.0,0.1758794,0.0,0.0,0.0,0.0,0.0,0.0
405203688,0,-0.0,0.1758794,0.0,0.0,0.0,0.0,0.0,0.0
405303669,0,-0.0,0.1758794,0.0,0.0,0.0,0.0,0.0,0.0
405413943,0,-0.0,0.1758794,0.0,0.0,0.0,0.0,0.0,0.0
405509802,0,-0.0,0.1758794,0.0,0.0,0.0,0.0,0.0,0.0
405533822,0,-0.0,0.1758794,0.0,0.0,0.0,0.0,0.0,0.0
405699947,0,-0.0,0.1758794,0.0,0.0,0.0,0.0,0.0,0.0
405809479,0,-0.0,0.1758794,0.0,0.0,0.0,0.0,0.0,0.0
405905854,0,-0.0,0.1758794,0.0,0.0,0.0,0.0,0.0,0.0
406010185,0,-0.0,0.1758794,0.0,0.0,0.0,0.0,0.0,0.0
406114342,0,-0.0,0.17336683,0.0,0.0,0.0,0.0,0.0,0.0
406204400,0,-0.0,0.17336683,0.0,0.0,0.0,0.0,0.0,0.0
406314528,0,-0.0,0.1758794,0.0,0.0,0.0,0.0,0.0,0.0
406424564,0,-0.0,0.1758794,0.0,0.0,0.0,0.0,0.0,0.0
406504653,0,-0.0,0.1758794,0.0,0.0,0.0,0.0,0.0,0.0
406604681,0,-0.0,0.1758794,0.0,0.0,0.0,0.0,0.0,0.0
406715655,0,-0.0,0.17336683,0.0,0.0,0.0,0.0,0.0,0.0
406805022,0,-0.0,0.17336683,0.0,0.0,0.0,0.0,0.0,0.0
406851272,0,-0.0,0.17336683,0.0,0.0,0.0,0.0,0.0,0.0
407005105,0,-0.0,0.1758794,0.0,0.0,0.0,0.0,0.0,0.0
407205297,0,-0.0,0.1758794,0.0,0.0,0.0,0.0,0.0,0.0
407291624,0,-0.0,0.1758794,0.0,0.0,0.0,0.0,0.0,0.0
407405534,0,-0.0,0.17336683,0.0,0.0,0.0,0.0,0.0,0.0
407502013,0,-0.0,0.1758794,0.0,0.0,0.0,0.0,0.0,0.0
407605693,0,-0.0,0.1758794,0.0,0.0,0.0,0.0,0.0,0.0
407675691,0,-0.0,0.17336683,0.0,0.0,0.0,0.0,0.0,0.0
407805886,0,-0.0,0.1758794,0.0,0.0,0.0,0.0,0.0,0.0
407895991,0,-0.0,0.1758794,0.0,0.0,0.0,0.0,0.0,0.0
407996310,0,-0.0,0.1758794,0.0,0.0,0.0,0.0,0.0,0.0
408086023,0,-0.0,0.17336683,0.0,0.0,0.0,0.0,0.0,0.0
408201985,0,-0.0,0.17336683,0.0,0.0,0.0,0.0,0.0,0.0
408312011,0,-0.0,0.1758794,0.0,0.0,0.0,0.0,0.0,0.0
408406247,0,-0.0,0.17336683,0.0,0.0,0.0,0.0,0.0,0.0
408496399,0,-0.0,0.1758794,0.0,0.0,0.0,0.0,0.0,0.0
408606447,0,-0.0,0.1758794,0.0,0.0,0.0,0.0,0.0,0.0
408706404,0,-0.0,0.1758794,0.0,0.0,0.0,0.0,0.0,0.0
408766521,0,-0.0,0.1758794,0.0,0.0,0.0,0.0,0.0,0.0
408896568,0,-0.0,0.17336683,0.0,0.0,0.0,0.0,0.0,0.0
409006812,0,-0.0,0.1758794,0.0,0.0,0.0,0.0,0.0,0.0
409103413,0,-0.0,0.1758794,0.0,0.0,0.0,0.0,0.0,0.0
409177002,0,-0.0,0.1758794,0.0,0.0,0.0,0.0,0.0,0.0
409312945,0,-0.0,0.1758794,0.0,0.0,0.0,0.0,0.0,0.0
409407067,0,-0.0,0.17336683,0.0,0.0,0.0,0.0,0.0,0.0
409497224,0,-0.0,0.1758794,0.0,0.0,0.0,0.0,0.0,0.0
409607277,0,-0.0,0.17336683,0.0,0.0,0.0,0.0,0.0,0.0
409697202,0,-0.0,0.1758794,0.0,0.0,0.0,0.0,0.0,0.0
409807253,0,-0.0,0.17336683,0.0,0.0,0.0,0.0,0.0,0.0
409913620,0,-0.0,0.1758794,0.0,0.0,0.0,0.0,0.0,0.0
410007458,0,-0.0,0.1758794,0.0,0.0,0.0,0.0,0.0,0.0
410073748,0,-0.0,0.17336683,0.0,0.0,0.0,0.0,0.0,0.0
410197736,0,-0.0,0.1758794,0.0,0.0,0.0,0.0,0.0,0.0
410304308,0,-0.0,0.1758794,0.0,0.0,0.0,0.0,0.0,0.0
410394354,0,-0.0,0.17336683,0.0,0.0,0.0,0.0,0.0,0.0
410503942,0,-0.0,0.1758794,0.0,0.0,0.0,0.0,0.0,0.0
410593764,0,-0.0,0.1758794,0.0,0.0,0.0,0.0,0.0,0.0
410708389,0,-0.0,0.17336683,0.0,0.0,0.0,0.0,0.0,0.0
410798352,0,-0.0,0.17336683,0.0,0.0,0.0,0.0,0.0,0.0
410908962,0,-0.0,0.17336683,0.0,0.0,0.0,0.0,0.0,0.0
411005137,0,-0.0,0.1758794,0.0,0.0,0.0,0.0,0.0,0.0
411114350,0,-0.0,0.1758794,0.0,0.0,0.0,0.0,0.0,0.0
411204359,0,-0.0,0.17336683,0.0,0.0,0.0,0.0,0.0,0.0
411298747,0,-0.0,0.17336683,0.0,0.0,0.0,0.0,0.0,0.0
411408677,0,-0.0,0.17336683,0.0,0.0,0.0,0.0,0.0,0.0
411498943,0,-0.0,0.17336683,0.0,0.0,0.0,0.0,0.0,0.0
411614650,0,-0.0,0.17336683,0.0,0.0,0.0,0.0,0.0,0.0
411679036,0,-0.0,0.1758794,0.0,0.0,0.0,0.0,0.0,0.0
411798940,0,-0.0,0.17336683,0.0,0.0,0.0,0.0,0.0,0.0
411909023,0,-0.0,0.17336683,0.0,0.0,0.0,0.0,0.0,0.0
412010849,0,-0.0,0.17336683,0.0,0.0,0.0,0.0,0.0,0.0
412055450,0,-0.0,0.1758794,0.0,0.0,0.0,0.0,0.0,0.0
412209423,0,-0.0,0.1758794,0.0,0.0,0.0,0.0,0.0,0.0
412315555,0,-0.0,0.1758794,0.0,0.0,0.0,0.0,0.0,0.0
412405386,0,-0.0,0.1758794,0.0,0.0,0.0,0.0,0.0,0.0
412509682,0,-0.0,0.17336683,0.0,0.0,0.0,0.0,0.0,0.0
412579595,0,-0.0,0.17336683,0.0,0.0,0.0,0.0,0.0,0.0
412705657,0,-0.0,0.1758794,0.0,0.0,0.0,0.0,0.0,0.0
412809744,0,-0.0,0.1758794,0.0,0.0,0.0,0.0,0.0,0.0
412896521,0,-0.0,0.1758794,0.0,0.0,0.0,0.0,0.0,0.0
413009982,0,-0.0,0.17336683,0.0,0.0,0.0,0.0,0.0,0.0
413090150,0,-0.0,0.17336683,0.0,0.0,0.0,0.0,0.0,0.0
413205922,0,-0.0,0.17336683,0.0,0.0,0.0,0.0,0.0,0.0
413310564,0,-0.0,0.1758794,0.0,0.0,0.0,0.0,0.0,0.0
413406646,0,-0.0,0.1758794,0.0,0.0,0.0,0.0,0.0,0.0
413497059,0,-0.0,0.1758794,0.0,0.0,0.0,0.0,0.0,0.0
413606342,0,-0.0,0.23366834,0.0,0.0,0.0,0.0,0.0,0.0
413700832,0,-0.0,0.39447236,0.0,0.0,0.0,0.0,0.0,0.0
413810724,0,-0.0,0.46984926,0.0,0.0,0.0,0.0,0.0,0.0
413900929,0,-0.0,0.42713568,0.0,0.0,0.0,0.0,0.0,0.0
414010732,0,-0.0,0.1758794,0.0,0.0,0.0,0.0,0.0,0.0
414097313,0,-0.0,0.06281407,0.0,0.0,0.0,0.0,0.0,0.0
414210873,0,-0.0,-0.073619634,0.0,0.0,0.0,0.0,0.0,0.0
414300961,0,-0.0,0.0,0.0,0.0,0.0,0.0,0.0,0.0
414411091,0,-0.0,0.17085427,0.0,0.0,0.0,0.0,0.0,0.0
414501243,0,-0.0,0.17085427,0.0,0.0,0.0,0.0,0.0,0.0
414597716,0,-0.0,0.17085427,0.0,0.0,0.0,0.0,0.0,0.0
414707134,0,-0.0625,0.17085427,0.0,0.0,0.0,0.0,0.0,0.0
414811543,0,-0.097222224,0.17085427,0.0,0.0,0.0,0.0,0.0,0.0
414902245,0,-0.104166664,0.17085427,0.0,0.0,0.0,0.0,0.0,0.0
415011494,0,-0.11805555,0.17085427,0.0,0.0,0.0,0.0,0.0,0.0
415097930,0,-0.121527776,0.17085427,0.0,0.0,0.0,0.0,0.0,0.0
415207689,0,-0.1423611,0.17085427,0.0,0.0,0.0,0.0,0.0,0.0
415298133,0,-0.16319445,0.17085427,0.0,0.0,0.0,0.0,0.0,0.0
415407712,0,-0.12847222,0.17336683,0.0,0.0,0.0,0.0,0.0,0.0
415511897,0,-0.045138888,0.17336683,0.0,0.0,0.0,0.0,0.0,0.0
415602108,0,-0.0,0.17336683,0.0,0.0,0.0,0.0,0.0,0.0
415712120,0,-0.0,0.17336683,0.0,0.0,0.0,0.0,0.0,0.0
415802401,0,-0.0,0.17336683,0.0,0.0,0.0,0.0,0.0,0.0
415902252,0,-0.090277776,0.17336683,0.0,0.0,0.0,0.0,0.0,0.0
415998154,0,-0.21875,0.17336683,0.0,0.0,0.0,0.0,0.0,0.0
416108311,0,-0.34375,0.1758794,0.0,0.0,0.0,0.0,0.0,0.0
416309287,0,-0.2847222,0.1758794,0.0,0.0,0.0,0.0,0.0,0.0
416398480,0,-0.16319445,0.1758794,0.0,0.0,0.0,0.0,0.0,0.0
416499497,0,-0.15277778,0.17336683,0.0,0.0,0.0,0.0,0.0,0.0
416698962,0,-0.5138889,0.17336683,0.0,0.0,0.0,0.0,0.0,0.0
416809155,0,-0.18402778,0.1758794,0.0,0.0,0.0,0.0,0.0,0.0
417010145,0,-0.0,0.17336683,0.0,0.0,0.0,0.0,0.0,0.0
417103653,0,0.114503816,0.17336683,0.0,0.0,0.0,0.0,0.0,0.0
417199290,0,0.32569975,0.17336683,0.0,0.0,0.0,0.0,0.0,0.0
417309341,0,0.21882951,0.17336683,0.0,0.0,0.0,0.0,0.0,0.0
417413615,0,-0.0,0.17336683,0.0,0.0,0.0,0.0,0.0,0.0
417509374,0,-0.0,0.17336683,0.0,0.0,0.0,0.0,0.0,0.0
417600085,0,-0.0,0.17336683,0.0,0.0,0.0,0.0,0.0,0.0
417693823,0,-0.0,0.17336683,0.0,0.0,0.0,0.0,0.0,0.0
417799683,0,-0.0,0.17336683,0.0,0.0,0.0,0.0,0.0,0.0
417893898,0,-0.0,0.17336683,0.0,0.0,0.0,0.0,0.0,0.0
418004321,0,-0.0,0.17336683,0.0,0.0,0.0,0.0,0.0,0.0
418074159,0,-0.0,0.17336683,0.0,0.0,0.0,0.0,0.0,0.0
418191048,0,-0.0,0.17336683,0.0,0.0,0.0,0.0,0.0,0.0
418300352,0,-0.0,0.17336683,0.0,0.0,0.0,0.0,0.0,0.0
418390268,0,-0.0,0.17336683,0.0,0.0,0.0,0.0,0.0,0.0
418510241,0,-0.0,0.17336683,0.0,0.0,0.0,0.0,0.0,0.0
418614674,0,-0.0,0.17336683,0.0,0.0,0.0,0.0,0.0,0.0
418704951,0,-0.0,0.17336683,0.0,0.0,0.0,0.0,0.0,0.0
418794881,0,-0.0,0.17336683,0.0,0.0,0.0,0.0,0.0,0.0
418910886,0,-0.0,0.17336683,0.0,0.0,0.0,0.0,0.0,0.0
418994992,0,-0.0,0.17336683,0.0,0.0,0.0,0.0,0.0,0.0
419105113,0,-0.0,0.17336683,0.0,0.0,0.0,0.0,0.0,0.0
419215051,0,-0.0,0.17336683,0.0,0.0,0.0,0.0,0.0,0.0
419281409,0,-0.0,0.17336683,0.0,0.0,0.0,0.0,0.0,0.0
419395218,0,-0.0,0.17336683,0.0,0.0,0.0,0.0,0.0,0.0
419505435,0,-0.0,0.17336683,0.0,0.0,0.0,0.0,0.0,0.0
419601819,0,-0.0,0.17336683,0.0,0.0,0.0,0.0,0.0,0.0
419711399,0,-0.0,0.17336683,0.0,0.0,0.0,0.0,0.0,0.0
419801545,0,-0.0,0.17336683,0.010075566,0.0,0.0,0.0,0.0,0.0
419912246,0,-0.0,0.17336683,0.012594459,0.0,0.0,0.0,0.0,0.0
420001550,0,-0.0,0.17336683,0.0,0.0,0.0,0.0,0.0,0.0
420081683,0,-0.0,0.17336683,0.0,0.0,0.0,0.0,0.0,0.0
420202355,0,-0.0,0.17336683,-0.06234414,0.0,0.0,0.0,0.0,0.0
420291773,0,-0.0,0.17336683,-0.2169576,0.0,0.0,0.0,0.0,0.0
420401824,0,-0.0,0.17336683,-0.33915213,0.0,0.0,0.0,0.0,0.0
420502068,0,-0.0,0.17336683,-0.1670823,0.0,0.0,0.0,0.0,0.0
420592061,0,-0.0,0.17336683,-0.012468828,0.0,0.0,0.0,0.0,0.0
420702163,0,-0.0,0.17336683,0.0,0.0,0.0,0.0,0.0,0.0
420746331,0,-0.0,0.17336683,0.0,0.0,0.0,0.0,0.0,0.0
420896559,0,-0.0,0.17336683,0.0,0.0,0.0,0.0,0.0,0.0
420972319,0,-0.0,0.17336683,0.0,0.0,0.0,0.0,0.0,0.0
421092351,0,-0.0,0.17336683,0.0,0.0,0.0,0.0,0.0,0.0
421187313,0,-0.0,0.17336683,0.0,0.0,0.0,0.0,0.0,0.0
421296644,0,-0.0,0.17336683,-0.0074812965,0.0,0.0,0.0,0.0,0.0
421402819,0,-0.0,0.17336683,-0.2094763,0.0,0.0,0.0,0.0,0.0
421492628,0,-0.0,0.17336683,-0.3042394,0.0,0.0,0.0,0.0,0.0
421606970,0,-0.0,0.17336683,-0.1820449,0.0,0.0,0.0,0.0,0.0
421693554,0,-0.0,0.17336683,-0.0648379,0.0,0.0,0.0,0.0,0.0
421807372,0,-0.0,0.17336683,-0.029925186,0.0,0.0,0.0,0.0,0.0
421903681,0,-0.0,0.17336683,-0.2169576,0.0,0.0,0.0,0.0,0.0
421993663,0,-0.0,0.17336683,-0.3765586,0.0,0.0,0.0,0.0,0.0
422097410,0,-0.0,0.17336683,-0.4189526,0.0,0.0,0.0,0.0,0.0
422203205,0,-0.0,0.17336683,-0.16957606,0.0,0.0,0.0,0.0,0.0
422313354,0,-0.0,0.17336683,-0.0723192,0.0,0.0,0.0,0.0,0.0
422397653,0,-0.0,0.17336683,-0.0723192,0.0,0.0,0.0,0.0,0.0
422504151,0,-0.0,0.17336683,-0.10473815,0.0,0.0,0.0,0.0,0.0
422603927,0,-0.0,0.17336683,0.0,0.0,0.0,0.0,0.0,0.0
422713645,0,-0.0,0.17336683,0.0,0.0,0.0,0.0,0.0,0.0
422798019,0,-0.0,0.1758794,0.0,0.0,0.0,0.0,0.0,0.0
422894334,0,-0.0,0.17336683,0.0,0.0,0.0,0.0,0.0,0.0
423014053,0,-0.0,0.17336683,0.15617129,0.0,0.0,0.0,0.0,0.0
423104130,0,-0.0,0.17336683,0.26700252,0.0,0.0,0.0,0.0,0.0
423208648,0,-0.0,0.17336683,0.34508815,0.0,0.0,0.0,0.0,0.0
423298255,0,-0.0,0.1758794,0.3602015,0.0,0.0,0.0,0.0,0.0
423404363,0,-0.0,0.17336683,0.3274559,0.0,0.0,0.0,0.0,0.0
423514411,0,-0.0,0.17336683,0.08312342,0.0,0.0,0.0,0.0,0.0
423605124,0,-0.0,0.17336683,0.0,0.0,0.0,0.0,0.0,0.0
423678729,0,-0.0,0.17336683,0.0,0.0,0.0,0.0,0.0,0.0
423808875,0,-0.0,0.17336683,0.0,0.009803922,0.0,0.0,0.0,0.0
423898964,0,-0.0,0.17336683,0.0,0.09313726,0.0,0.0,0.0,0.0
423995511,0,-0.0,0.17336683,0.0,0.13357843,0.0,0.0,0.0,0.0
424114806,0,-0.0,0.17336683,0.0,0.13357843,0.0,0.0,0.0,0.0
424209307,0,-0.0,0.17336683,0.0,0.12990196,0.0,0.0,0.0,0.0
424299262,0,-0.0,0.17336683,0.0,0.12990196,0.0,0.0,0.0,0.0
424409294,0,-0.0,0.17336683,0.0,0.12745099,0.0,0.0,0.0,0.0
424499510,0,-0.0,0.17336683,0.0,0.12745099,0.0,0.0,0.0,0.0
424596104,0,-0.0,0.17336683,0.0,0.1384804,0.0,0.0,0.0,0.0
424706091,0,-0.0,0.17336683,0.0,0.17034313,0.0,0.0,0.0,0.0
424805399,0,-0.0,0.17336683,0.0,0.17156863,0.0,0.0,0.0,0.0
424896000,0,-0.0,0.17336683,0.0,0.21078432,0.0,0.0,0.0,0.0
425005716,0,-0.0,0.1758794,0.0,0.22426471,0.0,0.0,0.0,0.0
425100757,0,-0.0,0.17336683,0.0,0.24754901,0.0,0.0,0.0,0.0
425170200,0,-0.0,0.17336683,0.0,0.24754901,0.0,0.0,0.0,0.0
425296648,0,-0.0,0.17336683,0.0,0.24754901,0.0,0.0,0.0,0.0
425415815,0,-0.0,0.17336683,0.0,0.24632353,0.0,0.0,0.0,0.0
425506670,0,-0.0,0.17336683,0.0,0.25,0.0,0.0,0.0,0.0
425600558,0,-0.0,0.17336683,0.0,0.28308824,0.0,0.0,0.0,0.0
425696621,0,-0.0,0.1758794,0.0,0.28431374,0.0,0.0,0.0,0.0
425806407,0,-0.0,0.17336683,0.0,0.31985295,0.0,0.0,0.0,0.0
425910719,0,-0.0,0.17336683,0.0,0.31985295,0.0,0.0,0.0,0.0
426000893,0,-0.0,0.17336683,0.0,0.31985295,0.0,0.0,0.0,0.0
426097084,0,-0.0,0.1758794,0.042821158,0.31862745,0.0,0.0,0.0,0.0
426197335,0,-0.0,0.17336683,0.10075567,0.31985295,0.0,0.0,0.0,0.0
426307330,0,-0.0,0.17336683,0.11335012,0.39215687,0.0,0.0,0.0,0.0
426376754,0,-0.0,0.17336683,0.11083123,0.4007353,0.0,0.0,0.0,0.0
426486728,0,-0.0,0.17336683,0.09823678,0.4019608,0.0,0.0,0.0,0.0
426597554,0,-0.0,0.17336683,0.047858942,0.41421568,0.0,0.0,0.0,0.0
426711244,0,-0.0,0.17336683,0.08816121,0.48161766,0.0,0.0,0.0,0.0
426807570,0,-0.0,0.17336683,0.15113351,0.5036765,0.0,0.0,0.0,0.0
426897635,0,-0.0,0.17336683,0.15617129,0.5502451,0.0,0.0,0.0,0.0
427007665,0,-0.0,0.18341708,0.23677582,0.5686275,0.0,0.0,0.0,0.0
427091561,0,-0.0,0.19849247,0.04534005,0.5625,0.0,0.0,0.0,0.0
427207448,0,-0.0,0.23869346,0.0,0.5661765,0.0,0.0,0.0,0.0
427311640,0,-0.0,0.27386934,0.0,0.58455884,0.0,0.0,0.0,0.0
427407712,0,-0.0,0.36180905,0.0,0.5857843,0.0,0.0,0.0,0.0
427497730,0,-0.0,0.38693467,0.0,0.5919118,0.0,0.0,0.0,0.0
427607657,0,-0.0,0.41708544,0.0,0.625,0.0,0.0,0.0,0.0
427702090,0,-0.0,0.44723618,0.0,0.6911765,0.0,0.0,0.0,0.0
427811957,0,-0.0,0.4321608,0.0,0.69240195,0.0,0.0,0.0,0.0
427902103,0,-0.0,0.40452263,0.0,0.69240195,0.0,0.0,0.0,0.0
428012264,0,-0.0,0.49497488,0.0,0.6936275,0.0,0.0,0.0,0.0
428102278,0,-0.0,0.60301507,0.0,0.6936275,0.0,0.0,0.0,0.0
428212258,0,-0.0,0.41959798,0.0,0.69240195,0.0,0.0,0.0,0.0
428314480,0,-0.0,0.2713568,0.0,0.6936275,0.0,0.0,0.0,0.0
428399213,0,0.012722646,0.2512563,0.0,0.6936275,0.0,0.0,0.0,0.0
428512420,0,0.04071247,0.18592964,0.0,0.6936275,0.0,0.0,0.0,0.0
428598922,0,0.07379135,0.17839196,0.0,0.6936275,0.0,0.0,0.0,0.0
428708718,0,0.053435113,0.17839196,0.0,0.6936275,0.0,0.0,0.0,0.0
428812621,0,0.07124682,0.17839196,0.0,0.69240195,0.0,0.0,0.0,0.0
428903003,0,0.114503816,0.17839196,0.0,0.6911765,0.0,0.0,0.0,0.0
428999048,0,0.15012723,0.13065326,0.0,0.6911765,0.0,0.0,0.0,0.0
429109183,0,0.25699747,0.16582915,0.0,0.6911765,0.0,0.0,0.0,0.0
429193249,0,0.18829517,0.17085427,0.0,0.6911765,0.0,0.0,0.0,0.0
429303295,0,0.13994911,0.17085427,0.0,0.6911765,0.0,0.0,0.0,0.0
429404715,0,0.14249364,0.16331658,0.0,0.6911765,0.0,0.0,0.0,0.0
429499052,0,0.124681935,0.16834171,0.0,0.625,0.0,0.0,0.0,0.0
429614188,0,0.13231552,0.17336683,0.0,0.62009805,0.0,0.0,0.0,0.0
429704828,0,0.122137405,0.17085427,0.0,0.6213235,0.0,0.0,0.0,0.0
429813520,0,0.058524173,0.14070351,0.0,0.6188725,0.0,0.0,0.0,0.0
430014586,0,0.07124682,0.110552765,0.0,0.62009805,0.0,0.0,0.0,0.0
430109975,0,0.10178117,0.110552765,0.0,0.62009805,0.0,0.0,0.0,0.0
430213846,0,0.114503816,0.113065325,0.0,0.62009805,0.0,0.0,0.0,0.0
430314814,0,0.089058526,0.10552764,0.0,0.62009805,0.0,0.0,0.0,0.0
430404322,0,0.07633588,0.07788945,0.0,0.6213235,0.0,0.0,0.0,0.0
430504873,0,0.06361323,0.072864324,0.0,0.62009805,0.0,0.0,0.0,0.0
430594207,0,0.06361323,0.05276382,0.0,0.62009805,0.0,0.0,0.0,0.0
430695067,0,0.06361323,0.040201005,0.0,0.6213235,0.0,0.0,0.0,0.0
430795181,0,0.06615776,0.06030151,0.0,0.62009805,0.0,0.0,0.0,0.0
430910882,0,0.06615776,0.07537688,0.0,0.6213235,0.0,0.0,0.0,0.0
431015352,0,-0.0,0.09798995,0.0,0.62009805,0.0,0.0,0.0,0.0
431095387,0,-0.0069444445,0.113065325,0.0,0.62009805,0.0,0.0,0.0,0.0
431314672,0,-0.024305556,0.0678392,0.0,0.6213235,0.0,0.0,0.0,0.0
431405068,0,-0.0,0.10050251,0.0,0.6213235,0.0,0.0,0.0,0.0
431495857,0,0.0025445293,0.17085427,0.0,0.62009805,0.0,0.0,0.0,0.0
431606512,0,0.030534351,0.17336683,0.0,0.6213235,0.0,0.0,0.0,0.0
431714913,0,-0.0,0.25376883,0.0,0.62009805,0.0,0.0,0.0,0.0
431804915,0,-0.0,0.2562814,0.0,0.6213235,0.0,0.0,0.0,0.0
431896033,0,-0.0,0.2562814,0.0,0.62009805,0.0,0.0,0.0,0.0
431995170,0,-0.0,0.2638191,0.0,0.6213235,0.0,0.0,0.0,0.0
432111592,0,-0.0,0.25879398,0.0,0.62009805,0.0,0.0,0.0,0.0
432182242,0,-0.0034722222,0.2638191,0.0,0.6213235,0.0,0.0,0.0,0.0
432415525,0,-0.0,0.29396984,0.0,0.6213235,0.0,0.0,0.0,0.0
432507145,0,-0.0034722222,0.29396984,0.0,0.6213235,0.0,0.0,0.0,0.0
432607107,0,-0.0,0.28894472,0.0,0.6213235,0.0,0.0,0.0,0.0
432696550,0,0.03562341,0.26633167,0.0,0.6213235,0.0,0.0,0.0,0.0
432796664,0,-0.0,0.2361809,0.0,0.6213235,0.0,0.0,0.0,0.0
432911750,0,-0.0,0.2713568,0.0,0.62009805,0.0,0.0,0.0,0.0
433007354,0,-0.0,0.31407034,0.0,0.62009805,0.0,0.0,0.0,0.0
433097056,0,-0.0,0.31407034,0.0,0.6213235,0.0,0.0,0.0,0.0
433186143,0,0.010178117,0.3316583,0.0,0.6213235,0.0,0.0,0.0,0.0
433312533,0,-0.0,0.35678393,0.0,0.6691176,0.0,0.0,0.0,0.0
433407900,0,-0.0,0.37939698,0.0,0.7132353,0.0,0.0,0.0,0.0
433502103,0,0.012722646,0.36432162,0.0,0.7144608,0.0,0.0,0.0,0.0
433597212,0,0.058524173,0.37688443,0.0,0.7132353,0.0,0.0,0.0,0.0
433692284,0,0.06615776,0.37688443,0.0,0.7144608,0.0,0.0,0.0,0.0
433792480,0,0.022900764,0.35678393,0.0,0.7132353,0.0,0.0,0.0,0.0
433997601,0,0.04071247,0.29396984,0.0,0.7144608,0.0,0.0,0.0,0.0
434092688,0,0.1043257,0.2763819,0.0,0.7132353,0.0,0.0,0.0,0.0
434208200,0,0.15267175,0.2763819,0.0,0.7144608,0.0,0.0,0.0,0.0
434306929,0,0.16030534,0.2763819,0.0,0.7132353,0.0,0.0,0.0,0.0
434403036,0,0.16030534,0.2763819,0.0,0.7120098,0.0,0.0,0.0,0.0
434493623,0,0.14503817,0.27889448,0.0,0.7132353,0.0,0.0,0.0,0.0
434608697,0,0.15521629,0.28140703,0.0,0.7132353,0.0,0.0,0.0,0.0
434703275,0,0.15012723,0.28140703,0.0,0.7120098,0.0,0.0,0.0,0.0
434807262,0,0.15267175,0.28140703,0.0,0.7120098,0.0,0.0,0.0,0.0
434873066,0,0.13994911,0.28140703,0.0,0.7120098,0.0,0.0,0.0,0.0
435008892,0,0.15521629,0.28140703,0.0,0.7120098,0.0,0.0,0.0,0.0
435104043,0,0.16793893,0.30150753,0.0,0.7120098,0.0,0.0,0.0,0.0
435209006,0,0.15521629,0.3517588,0.0,0.7132353,0.0,0.0,0.0,0.0
435308967,0,0.10178117,0.4447236,0.0,0.7144608,0.0,0.0,0.0,0.0
435408033,0,0.08396947,0.46231157,0.0,0.7132353,0.0,0.0,0.0,0.0
435508051,0,0.13231552,0.43718594,0.0,0.7132353,0.0,0.0,0.0,0.0
435698256,0,0.12722646,0.4849246,0.0,0.7132353,0.0,0.0,0.0,0.0
435798827,0,0.15521629,0.5,0.0,0.7132353,0.0,0.0,0.0,0.0
435908116,0,0.122137405,0.5477387,0.0,0.73039216,0.0,0.0,0.0,0.0
436014477,0,0.091603056,0.5527638,0.0,0.7316176,0.0,0.0,0.0,0.0
436098428,0,0.06615776,0.56281406,0.0,0.73039216,0.0,0.0,0.0,0.0
436208243,0,0.010178117,0.5703518,0.0,0.73039216,0.0,0.0,0.0,0.0
436309196,0,-0.0,0.58542717,0.0,0.73039216,0.0,0.0,0.0,0.0
436398309,0,-0.0,0.6381909,0.047858942,0.7377451,0.0,0.0,0.0,0.0
436499299,0,-0.0,0.77386934,0.08312342,0.73406863,0.0,0.0,0.0,0.0
436608649,0,-0.0,0.78643215,0.12342569,0.73406863,0.0,0.0,0.0,0.0
436714489,0,-0.0,0.7763819,0.13098237,0.7352941,0.0,0.0,0.0,0.0
436908641,0,-0.0,0.7763819,0.13350126,0.73406863,0.0,0.0,0.0,0.0
437010148,0,-0.0,0.7763819,0.13350126,0.73406863,0.0,0.0,0.0,0.0
437099614,0,-0.0,0.7788945,0.13350126,0.73406863,0.0,0.0,0.0,0.0
437199674,0,-0.0,0.57537687,0.13098237,0.7352941,0.0,0.0,0.0,0.0
437309749,0,-0.0,0.51005024,0.1209068,0.7291667,0.0,0.0,0.0,0.0
437399415,0,0.0025445293,0.4246231,0.11838791,0.73039216,0.0,0.0,0.0,0.0
437504916,0,0.03816794,0.31407034,0.1209068,0.7205882,0.0,0.0,0.0,0.0
437599076,0,0.07379135,0.22361809,0.1209068,0.6911765,0.0,0.0,0.0,0.0
437689474,0,0.086513996,0.18844222,0.1209068,0.6911765,0.0,0.0,0.0,0.0
437789448,0,0.07379135,0.1758794,0.1209068,0.6691176,0.0,0.0,0.0,0.0
437900286,0,0.043256998,0.1758794,0.105793454,0.65318626,0.0,0.0,0.0,0.0
438009522,0,-0.0,0.23115578,0.10327456,0.6544118,0.0,0.0,0.0,0.0
438095890,0,-0.0,0.28140703,0.10327456,0.6580882,0.0,0.0,0.0,0.0
438211299,0,-0.0,0.38944724,0.10327456,0.65931374,0.0,0.0,0.0,0.0
438306273,0,0.0050890585,0.39698493,0.10327456,0.6580882,0.0,0.0,0.0,0.0
438410555,0,0.017811704,0.36934674,0.08312342,0.6544118,0.0,0.0,0.0,0.0
438511331,0,-0.0,0.38693467,0.075566754,0.6544118,0.0,0.0,0.0,0.0
438605811,0,-0.038194444,0.39698493,0.075566754,0.6580882,0.0,0.0,0.0,0.0
438709940,0,-0.07638889,0.4447236,0.07304786,0.65931374,0.0,0.0,0.0,0.0
438800966,0,-0.055555556,0.47487438,0.07304786,0.65931374,0.0,0.0,0.0,0.0
438900282,0,-0.0,0.4798995,0.075566754,0.6580882,0.0,0.0,0.0,0.0
439001187,0,-0.0,0.48241207,0.07304786,0.65931374,0.0,0.0,0.0,0.0
439106797,0,-0.0,0.5201005,0.065491185,0.65931374,0.0,0.0,0.0,0.0
439196523,0,-0.0,0.5201005,0.065491185,0.65931374,0.0,0.0,0.0,0.0
439271208,0,-0.0,0.52261305,0.06801008,0.6580882,0.0,0.0,0.0,0.0
439356244,0,-0.0,0.5201005,0.065491185,0.65931374,0.0,0.0,0.0,0.0
439481226,0,-0.0,0.5201005,0.06801008,0.65931374,0.0,0.0,0.0,0.0
439596664,0,-0.0,0.52261305,0.06801008,0.6580882,0.0,0.0,0.0,0.0
439691639,0,-0.0,0.5201005,0.065491185,0.65931374,0.0,0.0,0.0,0.0
439807130,0,-0.0,0.52261305,0.06801008,0.6580882,0.0,0.0,0.0,0.0
439911560,0,-0.0,0.52261305,0.06801008,0.6580882,0.0,0.0,0.0,0.0
440000930,0,-0.0,0.5201005,0.06801008,0.6580882,0.0,0.0,0.0,0.0
440101828,0,-0.0,0.52261305,0.065491185,0.0,0.0,0.0,0.0,0.0
440191756,0,-0.0,0.5201005,0.06801008,0.0,0.0,0.0,0.0,0.0
440307342,0,-0.0,0.52261305,0.065491185,0.0,0.0,0.0,0.0,0.0
440397016,0,-0.0,0.52261305,0.065491185,0.0,0.0,0.0,0.0,0.0
440491200,0,-0.0,0.5201005,0.06801008,0.0,0.0,0.0,0.0,0.0
440591260,0,-0.0,0.5201005,0.06801008,0.0,0.0,0.0,0.0,0.0
440707286,0,-0.0,0.5201005,0.06801008,0.0,0.0,0.0,0.0,0.0
440797121,0,-0.0,0.52261305,0.065491185,0.0,0.0,0.0,0.0,0.0
440901548,0,-0.0,0.5201005,0.065491185,0.0,0.0,0.0,0.0,0.0
441011785,0,-0.0,0.52261305,0.065491185,0.0,0.0,0.0,0.0,0.0
441081487,0,-0.0,0.5201005,0.065491185,0.0,0.0,0.0,0.0,0.0
441207920,0,-0.0,0.5201005,0.06801008,0.0,0.0,0.0,0.0,0.0
441297594,0,-0.0,0.52261305,0.065491185,0.0,0.0,0.0,0.0,0.0
441408546,0,-0.0,0.5201005,0.06801008,0.0,0.0,0.0,0.0,0.0
441497568,0,-0.0,0.52261305,0.065491185,0.0,0.0,0.0,0.0,0.0
441607970,0,-0.0,0.52261305,0.065491185,0.0,0.0,0.0,0.0,0.0
441712693,0,-0.0,0.5201005,0.06801008,0.0,0.0,0.0,0.0,0.0
441782258,0,-0.0,0.5201005,0.065491185,0.0,0.0,0.0,0.0,0.0
441898413,0,-0.0,0.52261305,0.065491185,0.0,0.0,0.0,0.0,0.0
442008607,0,0.3384224,0.53768843,0.0,0.75490195,0.0,0.0,0.0,0.0
442102440,0,0.38931298,0.5025126,0.0,0.71813726,0.0,0.0,0.0,0.0
442203139,0,0.45038167,0.49497488,0.0,0.69240195,0.0,0.0,0.0,0.0
442298702,0,0.49109414,0.48241207,0.0,0.6936275,0.0,0.0,0.0,0.0
442412440,0,0.49363866,0.48241207,0.0,0.69240195,0.0,0.0,0.0,0.0
442458482,0,0.49363866,0.48241207,0.0,0.69240195,0.0,0.0,0.0,0.0
442602520,0,0.49363866,0.48241207,0.0,0.69240195,0.0,0.0,0.0,0.0
442688674,0,0.49618322,0.4849246,0.0,0.69240195,0.0,0.0,0.0,0.0
442813622,0,0.49618322,0.48241207,0.0,0.69240195,0.0,0.0,0.0,0.0
442913657,0,0.49618322,0.4849246,0.0,0.69240195,0.0,0.0,0.0,0.0
443003795,0,0.49363866,0.48241207,0.0,0.69240195,0.0,0.0,0.0,0.0
443103859,0,-0.0,0.7763819,0.0,0.69240195,0.0,0.0,0.0,0.0
443214496,0,-0.125,0.55778897,0.0,0.6936275,0.0,0.0,0.0,0.0
443313747,0,-0.47916666,0.50502515,0.0,0.6936275,0.0,0.0,0.0,0.0
443399509,0,-0.4097222,0.47487438,0.0,0.69485295,0.0,0.0,0.0,0.0
443509739,0,-0.020833334,0.5276382,0.0,0.6936275,0.0,0.0,0.0,0.0
443614696,0,-0.0,0.6281407,0.0,0.6936275,0.0,0.0,0.0,0.0
443703553,0,-0.0,0.63065326,0.0,0.6936275,0.0,0.0,0.0,0.0
443814211,0,-0.0,0.71859294,0.0,0.6936275,0.0,0.0,0.0,0.0
443884885,0,0.010178117,0.6809045,0.0,0.6936275,0.0,0.0,0.0,0.0
444014920,0,-0.0,0.69095474,0.0,0.6936275,0.0,0.0,0.0,0.0
444094485,0,-0.0,0.70603013,0.0,0.69485295,0.0,0.0,0.0,0.0
444210037,0,0.0050890585,0.56281406,0.0,0.69240195,0.0,0.0,0.0,0.0
444309530,0,0.061068702,0.5,0.0,0.6544118,0.0,0.0,0.0,0.0
444394690,0,0.10941476,0.36432162,0.0,0.65563726,0.0,0.0,0.0,0.0
444514725,0,0.114503816,0.32663316,0.0,0.65563726,0.0,0.0,0.0,0.0
444613879,0,0.07124682,0.31658292,0.0,0.65563726,0.0,0.0,0.0,0.0
444709694,0,0.061068702,0.31909546,0.0,0.65563726,0.0,0.0,0.0,0.0
444814926,0,0.086513996,0.26633167,0.0,0.65563726,0.0,0.0,0.0,0.0
444903961,0,0.13486005,0.19849247,0.0,0.65563726,0.0,0.0,0.0,0.0
445014018,0,0.07379135,0.20603015,0.0,0.65563726,0.0,0.0,0.0,0.0
445110731,0,0.061068702,0.23869346,0.0,0.65563726,0.0,0.0,0.0,0.0
445200482,0,0.048346058,0.22361809,0.0,0.6544118,0.0,0.0,0.0,0.0
445295191,0,0.007633588,0.23115578,0.0,0.6544118,0.0,0.0,0.0,0.0
445410829,0,0.017811704,0.2562814,0.0,0.65318626,0.0,0.0,0.0,0.0
445495426,0,0.048346058,0.28140703,0.0,0.65563726,0.0,0.0,0.0,0.0
445575246,0,0.03307888,0.2914573,0.0,0.6544118,0.0,0.0,0.0,0.0
445715344,0,0.010178117,0.28643215,0.0,0.65318626,0.0,0.0,0.0,0.0
445800939,0,0.007633588,0.2763819,0.0,0.6544118,0.0,0.0,0.0,0.0
445910439,0,-0.0,0.3115578,0.0,0.6544118,0.0,0.0,0.0,0.0
445994873,0,-0.0,0.33668342,0.0,0.6580882,0.0,0.0,0.0,0.0
446095615,0,0.053435113,0.35929647,0.0,0.69485295,0.0,0.0,0.0,0.0
446200807,0,0.07379135,0.37185928,0.0,0.69485295,0.0,0.0,0.0,0.0
446311325,0,0.07888041,0.38944724,0.0,0.69485295,0.0,0.0,0.0,0.0
446411711,0,0.07124682,0.40201005,0.0,0.69485295,0.0,0.0,0.0,0.0
446505141,0,0.06615776,0.41708544,0.0,0.69485295,0.0,0.0,0.0,0.0
446601088,0,0.061068702,0.5527638,0.0,0.69485295,0.0,0.0,0.0,0.0
446711105,0,0.089058526,0.57788944,0.0,0.69240195,0.0,0.0,0.0,0.0
446806687,0,0.07124682,0.5728643,0.0,0.6936275,0.0,0.0,0.0,0.0
446901223,0,0.027989822,0.59799,0.0,0.6936275,0.0,0.0,0.0,0.0
446996176,0,0.058524173,0.5527638,0.0,0.69240195,0.0,0.0,0.0,0.0
447111250,0,0.089058526,0.5276382,0.0,0.69240195,0.0,0.0,0.0,0.0
447187097,0,0.096692115,0.5150754,0.0,0.69240195,0.0,0.0,0.0,0.0
447302089,0,0.096692115,0.50753766,0.0,0.69240195,0.0,0.0,0.0,0.0
447405571,0,0.094147585,0.4874372,0.0,0.6936275,0.0,0.0,0.0,0.0
447491495,0,0.099236645,0.4723618,0.0,0.69240195,0.0,0.0,0.0,0.0
447601512,0,0.06615776,0.5150754,0.0,0.6936275,0.0,0.0,0.0,0.0
447702961,0,0.053435113,0.53768843,0.0,0.69240195,0.0,0.0,0.0,0.0
447806730,0,0.050890584,0.5552764,0.0,0.69240195,0.0,0.0,0.0,0.0
447891770,0,0.06361323,0.5603015,0.0,0.6936275,0.0,0.0,0.0,0.0
447996791,0,0.086513996,0.5477387,0.0,0.69240195,0.0,0.0,0.0,0.0
448106916,0,0.08396947,0.5427136,0.0,0.69240195,0.0,0.0,0.0,0.0
448212612,0,0.086513996,0.5301508,0.0,0.6936275,0.0,0.0,0.0,0.0
448302073,0,0.08396947,0.52261305,0.0,0.6936275,0.0,0.0,0.0,0.0
448412098,0,0.053435113,0.5527638,0.0,0.6911765,0.0,0.0,0.0,0.0
448496240,0,0.03562341,0.620603,0.0,0.6911765,0.0,0.0,0.0,0.0
448606323,0,0.043256998,0.6256281,0.0,0.6911765,0.0,0.0,0.0,0.0
448682882,0,0.04071247,0.620603,0.0,0.69240195,0.0,0.0,0.0,0.0
448796467,0,0.045801528,0.60552764,0.0,0.6911765,0.0,0.0,0.0,0.0
448896657,0,0.0050890585,0.5301508,0.0,0.69240195,0.0,0.0,0.0,0.0
449006444,0,-0.0,0.4396985,0.0,0.69240195,0.0,0.0,0.0,0.0
449107574,0,-0.020833334,0.41457286,0.0,0.6936275,0.0,0.0,0.0,0.0
449197070,0,-0.048611112,0.42211056,0.0,0.69240195,0.0,0.0,0.0,0.0
449297649,0,-0.072916664,0.38190955,0.0,0.6936275,0.0,0.0,0.0,0.0
449513010,0,-0.0,0.30904523,0.0,0.69240195,0.0,0.0,0.0,0.0
449607872,0,0.0050890585,0.40954775,0.0,0.69240195,0.0,0.0,0.0,0.0
449697801,0,0.114503816,0.33417085,0.0,0.6936275,0.0,0.0,0.0,0.0
449802829,0,0.18066157,0.28643215,0.0,0.6936275,0.0,0.0,0.0,0.0
449912961,0,0.117048346,0.30653265,0.0,0.6936275,0.0,0.0,0.0,0.0
450013151,0,0.06361323,0.32160804,0.0,0.6936275,0.0,0.0,0.0,0.0
450107572,0,0.015267176,0.31407034,0.0,0.6936275,0.0,0.0,0.0,0.0
450208204,0,0.015267176,0.32663316,0.0,0.69240195,0.0,0.0,0.0,0.0
450297511,0,0.017811704,0.33919597,0.0,0.6936275,0.0,0.0,0.0,0.0
450403275,0,0.020356234,0.34422112,0.0,0.6936275,0.0,0.0,0.0,0.0
450503407,0,0.012722646,0.36180905,0.0,0.6936275,0.0,0.0,0.0,0.0
450613581,0,0.012722646,0.36934674,0.0,0.6936275,0.0,0.0,0.0,0.0
450707904,0,0.012722646,0.36432162,0.0,0.6936275,0.0,0.0,0.0,0.0
450898862,0,0.04071247,0.38693467,0.0,0.6936275,0.0,0.0,0.0,0.0
451003776,0,0.06870229,0.4120603,0.0,0.6936275,0.0,0.0,0.0,0.0
451113836,0,0.07633588,0.39447236,0.0,0.6936275,0.0,0.0,0.0,0.0
451189221,0,0.025445292,0.3316583,0.0,0.6936275,0.0,0.0,0.0,0.0
451307947,0,-0.0,0.30653265,0.0,0.6936275,0.0,0.0,0.0,0.0
451408023,0,-0.0,0.34924623,0.0,0.6936275,0.0,0.0,0.0,0.0
451498928,0,0.07633588,0.37185928,0.0,0.6936275,0.0,0.0,0.0,0.0
451598958,0,0.06615776,0.36934674,0.0,0.6936275,0.0,0.0,0.0,0.0
451688240,0,-0.0,0.35427135,0.0,0.6936275,0.0,0.0,0.0,0.0
451808496,0,-0.0,0.3241206,0.0,0.6936275,0.0,0.0,0.0,0.0
451894080,0,-0.0,0.3115578,0.0,0.6936275,0.0,0.0,0.0,0.0
451989259,0,-0.0,0.34170854,0.0,0.6936275,0.0,0.0,0.0,0.0
452105067,0,-0.0,0.35427135,0.0,0.6936275,0.0,0.0,0.0,0.0
452199956,0,0.0050890585,0.38442212,0.0,0.6936275,0.0,0.0,0.0,0.0
452314347,0,0.053435113,0.4321608,0.0,0.69485295,0.0,0.0,0.0,0.0
452415068,0,0.048346058,0.43467337,0.0,0.6936275,0.0,0.0,0.0,0.0
452508979,0,0.025445292,0.4120603,0.0,0.6936275,0.0,0.0,0.0,0.0
452588914,0,0.03307888,0.40201005,0.0,0.6936275,0.0,0.0,0.0,0.0
452714536,0,0.030534351,0.38442212,0.0,0.69240195,0.0,0.0,0.0,0.0
452814898,0,0.030534351,0.37688443,0.0,0.69240195,0.0,0.0,0.0,0.0
452905229,0,0.017811704,0.34924623,0.0,0.6936275,0.0,0.0,0.0,0.0
453010143,0,0.017811704,0.34170854,0.0,0.6936275,0.0,0.0,0.0,0.0
453099767,0,0.017811704,0.34673366,0.0,0.6936275,0.0,0.0,0.0,0.0
453199848,0,0.017811704,0.34673366,0.0,0.69240195,0.0,0.0,0.0,0.0
453289214,0,0.017811704,0.36180905,0.0,0.6936275,0.0,0.0,0.0,0.0
453390325,0,0.04071247,0.36683416,0.0,0.6936275,0.0,0.0,0.0,0.0
453515114,0,0.058524173,0.35427135,0.0,0.6936275,0.0,0.0,0.0,0.0
453609438,0,0.089058526,0.34422112,0.0,0.6936275,0.0,0.0,0.0,0.0
453705243,0,0.10941476,0.33919597,0.0,0.6936275,0.0,0.0,0.0,0.0
453910389,0,0.117048346,0.34422112,0.0,0.6936275,0.0,0.0,0.0,0.0
454010452,0,0.129771,0.33919597,0.0,0.6936275,0.0,0.0,0.0,0.0
454099735,0,0.13740458,0.34673366,0.0,0.6936275,0.0,0.0,0.0,0.0
454200590,0,0.13486005,0.36683416,0.0,0.69240195,0.0,0.0,0.0,0.0
454286001,0,0.13231552,0.36683416,0.0,0.69240195,0.0,0.0,0.0,0.0
454499821,0,0.124681935,0.36683416,0.0,0.6936275,0.0,0.0,0.0,0.0
454601045,0,0.129771,0.36683416,0.0,0.6936275,0.0,0.0,0.0,0.0
454710132,0,0.13994911,0.36683416,0.0,0.69240195,0.0,0.0,0.0,0.0
454810864,0,0.10687023,0.3919598,0.0,0.6911765,0.0,0.0,0.0,0.0
454910859,0,0.099236645,0.40452263,0.0,0.6911765,0.0,0.0,0.0,0.0
455001003,0,0.13231552,0.38944724,0.0,0.69240195,0.0,0.0,0.0,0.0
455101679,0,0.1475827,0.40201005,0.0,0.6911765,0.0,0.0,0.0,0.0
455195969,0,0.16030534,0.41457286,0.0,0.6911765,0.0,0.0,0.0,0.0
455311170,0,0.19847329,0.41959798,0.0,0.69240195,0.0,0.0,0.0,0.0
455410544,0,0.20101781,0.42713568,0.0,0.6911765,0.0,0.0,0.0,0.0
455510703,0,0.12722646,0.54522616,0.0,0.6911765,0.0,0.0,0.0,0.0
455591841,0,0.06361323,0.6005025,0.0,0.69240195,0.0,0.0,0.0,0.0
455691481,0,0.048346058,0.6256281,0.0,0.69240195,0.0,0.0,0.0,0.0
455810684,0,0.03307888,0.6281407,0.0,0.69240195,0.0,0.0,0.0,0.0
455910857,0,0.010178117,0.6130653,0.0,0.6691176,0.0,0.0,0.0,0.0
456000738,0,0.010178117,0.5879397,0.0,0.6544118,0.0,0.0,0.0,0.0
456110808,0,0.010178117,0.56281406,0.0,0.6544118,0.0,0.0,0.0,0.0
456210815,0,0.025445292,0.53266335,0.0,0.6544118,0.0,0.0,0.0,0.0
456311048,0,0.012722646,0.5829146,0.0,0.6544118,0.0,0.0,0.0,0.0
456400891,0,0.007633588,0.63065326,0.0,0.65563726,0.0,0.0,0.0,0.0
456501139,0,0.010178117,0.68592966,0.0,0.6544118,0.0,0.0,0.0,0.0
456601956,0,0.0025445293,0.7110553,0.0,0.65686274,0.0,0.0,0.0,0.0
456711215,0,-0.0,0.7085427,0.0,0.65686274,0.0,0.0,0.0,0.0
456812099,0,-0.0,0.6683417,0.0,0.65563726,0.0,0.0,0.0,0.0
456901128,0,0.017811704,0.620603,0.0,0.65931374,0.0,0.0,0.0,0.0
457011309,0,0.017811704,0.7211055,0.0,0.69485295,0.0,0.0,0.0,0.0
457108303,0,0.017811704,0.71859294,0.0,0.69485295,0.0,0.0,0.0,0.0
457212307,0,-0.0,0.8894472,0.0,0.7352941,0.0,0.0,0.0,0.0
457301496,0,-0.0,0.8291457,0.0,0.73406863,0.0,0.0,0.0,0.0
457402287,0,0.007633588,0.77135676,0.0,0.7352941,0.0,0.0,0.0,0.0
457511717,0,0.03562341,0.7110553,0.0,0.7352941,0.0,0.0,0.0,0.0
457601459,0,0.114503816,0.6809045,0.0,0.73406863,0.0,0.0,0.0,0.0
457692543,0,0.10178117,0.74623114,0.0,0.73406863,0.0,0.0,0.0,0.0
457811779,0,0.086513996,0.7613065,0.0,0.73406863,0.0,0.0,0.0,0.0
457912687,0,0.099236645,0.70100504,0.0,0.73406863,0.0,0.0,0.0,0.0
457998092,0,0.08396947,0.7160804,0.0,0.73406863,0.0,0.0,0.0,0.0
458102662,0,0.06870229,0.6080402,0.0,0.73284316,0.0,0.0,0.0,0.0
458211830,0,0.13486005,0.48994976,0.0,0.73039216,0.0,0.0,0.0,0.0
458312880,0,0.14249364,0.45477387,0.0,0.73039216,0.0,0.0,0.0,0.0
458401969,0,0.117048346,0.42713568,0.0,0.7291667,0.0,0.0,0.0,0.0
458508010,0,0.03307888,0.48241207,0.0,0.6911765,0.0,0.0,0.0,0.0
458603083,0,-0.0,0.5125628,0.0,0.69240195,0.0,0.0,0.0,0.0
458693077,0,-0.013888889,0.4849246,0.0,0.6911765,0.0,0.0,0.0,0.0
458813216,0,-0.07638889,0.44974875,0.0,0.6887255,0.0,0.0,0.0,0.0
458903182,0,-0.059027776,0.41708544,0.0,0.6580882,0.0,0.0,0.0,0.0
459093334,0,0.0050890585,0.33417085,0.0,0.6544118,0.0,0.0,0.0,0.0
459202780,0,0.0025445293,0.42713568,0.0,0.65563726,0.0,0.0,0.0,0.0
459313686,0,-0.0,0.37185928,0.0,0.61764705,0.0,0.0,0.0,0.0
459398694,0,-0.024305556,0.2713568,0.0,0.5833333,0.0,0.0,0.0,0.0
459512566,0,-0.10069445,0.23869346,0.0,0.5441176,0.0,0.0,0.0,0.0
459613588,0,-0.041666668,0.23366834,0.0,0.5416667,0.0,0.0,0.0,0.0
459713516,0,-0.0,0.19849247,0.0,0.5392157,0.0,0.0,0.0,0.0
459808858,0,0.099236645,0.22110553,0.0,0.54044116,0.0,0.0,0.0,0.0
459910462,0,0.12722646,0.2361809,0.0,0.5416667,0.0,0.0,0.0,0.0
459998862,0,0.13486005,0.24120604,0.0,0.5416667,0.0,0.0,0.0,0.0
460093756,0,0.10941476,0.2437186,0.0,0.54289216,0.0,0.0,0.0,0.0
460213082,0,0.020356234,0.26130652,0.0,0.5416667,0.0,0.0,0.0,0.0
460313118,0,-0.0,0.34422112,0.0,0.54289216,0.0,0.0,0.0,0.0
460399107,0,0.007633588,0.37688443,0.0,0.54289216,0.0,0.0,0.0,0.0
460514138,0,0.045801528,0.38442212,0.0,0.54289216,0.0,0.0,0.0,0.0
460613201,0,0.096692115,0.35678393,0.0,0.54289216,0.0,0.0,0.0,0.0
460713258,0,0.17048346,0.32663316,0.0,0.54044116,0.0,0.0,0.0,0.0
460799269,0,0.17811705,0.34924623,0.0,0.54044116,0.0,0.0,0.0,0.0
460904341,0,0.03816794,0.4648241,0.0,0.51593137,0.0,0.0,0.0,0.0
461004479,0,0.050890584,0.459799,0.0,0.50490195,0.0,0.0,0.0,0.0
461214374,0,0.117048346,0.52261305,0.0,0.4387255,0.0,0.0,0.0,0.0
461314305,0,0.07888041,0.580402,0.0,0.43382353,0.0,0.0,0.0,0.0
461414042,0,0.06615776,0.5954774,0.0,0.43382353,0.0,0.0,0.0,0.0
461494542,0,0.096692115,0.5829146,0.0,0.43504903,0.0,0.0,0.0,0.0
461614781,0,0.1475827,0.59045225,0.0,0.43137255,0.0,0.0,0.0,0.0
461704775,0,0.13231552,0.6356784,0.0,0.43137255,0.0,0.0,0.0,0.0
461813884,0,0.13231552,0.6407035,0.0,0.43137255,0.0,0.0,0.0,0.0
461914913,0,0.08396947,0.72864324,0.0,0.43504903,0.0,0.0,0.0,0.0
462015024,0,0.08396947,0.6934673,0.0,0.4362745,0.0,0.0,0.0,0.0
462110568,0,0.13486005,0.64572865,0.0,0.43504903,0.0,0.0,0.0,0.0
462205652,0,0.1653944,0.63065326,0.0,0.43504903,0.0,0.0,0.0,0.0
462315155,0,0.15012723,0.68844223,0.0,0.43137255,0.0,0.0,0.0,0.0
462415198,0,0.12722646,0.74623114,0.0,0.43382353,0.0,0.0,0.0,0.0
462510608,0,0.13486005,0.74371856,0.0,0.4362745,0.0,0.0,0.0,0.0
462605299,0,0.06615776,0.6758794,0.0,0.4362745,0.0,0.0,0.0,0.0
462704441,0,-0.0,0.5527638,0.0,0.4362745,0.0,0.0,0.0,0.0
462804361,0,-0.0,0.5427136,0.0,0.4852941,0.0,0.0,0.0,0.0
462905886,0,-0.010416667,0.580402,0.0,0.5110294,0.0,0.0,0.0,0.0
463005349,0,-0.024305556,0.42964825,0.0,0.5110294,0.0,0.0,0.0,0.0
463115372,0,-0.0,0.32663316,0.0,0.4644608,0.0,0.0,0.0,0.0
463204583,0,-0.0,0.36432162,0.0,0.4362745,0.0,0.0,0.0,0.0
463314682,0,-0.0,0.40954775,0.0,0.43014705,0.0,0.0,0.0,0.0
463404943,0,-0.0,0.2839196,0.0,0.43014705,0.0,0.0,0.0,0.0
463495721,0,-0.013888889,0.24623115,0.0,0.42892158,0.0,0.0,0.0,0.0
463610812,0,-0.0069444445,0.2437186,0.0,0.42892158,0.0,0.0,0.0,0.0
463714985,0,-0.0,0.2437186,0.0,0.42892158,0.0,0.0,0.0,0.0
463804993,0,-0.0,0.24874371,0.0,0.42892158,0.0,0.0,0.0,0.0
463904972,0,-0.0,0.2437186,0.0,0.42892158,0.0,0.0,0.0,0.0
463995002,0,-0.0,0.24623115,0.0,0.42892158,0.0,0.0,0.0,0.0
464096455,0,0.043256998,0.31658292,0.0,0.43137255,0.0,0.0,0.0,0.0
464205960,0,0.055979643,0.4798995,0.0,0.43382353,0.0,0.0,0.0,0.0
464296126,0,0.015267176,0.5427136,0.0,0.43382353,0.0,0.0,0.0,0.0
464396600,0,0.027989822,0.54522616,0.0,0.43382353,0.0,0.0,0.0,0.0
464511829,0,0.043256998,0.4924623,0.0,0.43382353,0.0,0.0,0.0,0.0
464611364,0,0.12722646,0.44974875,0.0,0.43382353,0.0,0.0,0.0,0.0
464701840,0,0.13994911,0.45728642,0.0,0.4742647,0.0,0.0,0.0,0.0
464911478,0,0.14249364,0.5703518,0.0,0.50980395,0.0,0.0,0.0,0.0
465011567,0,0.10941476,0.6155779,0.0,0.5110294,0.0,0.0,0.0,0.0
465102516,0,0.07379135,0.5427136,0.0,0.5110294,0.0,0.0,0.0,0.0
465201690,0,0.03562341,0.48994976,0.0,0.50980395,0.0,0.0,0.0,0.0
465295942,0,-0.0,0.5,0.0,0.50980395,0.0,0.0,0.0,0.0
465396635,0,-0.010416667,0.44723618,0.0,0.50980395,0.0,0.0,0.0,0.0
465505815,0,-0.027777778,0.45477387,0.0,0.5110294,0.0,0.0,0.0,0.0
465596781,0,-0.0069444445,0.5552764,0.0,0.5110294,0.0,0.0,0.0,0.0
465697075,0,-0.0,0.5829146,0.0,0.5122549,0.0,0.0,0.0,0.0
465795999,0,-0.0,0.5678392,0.0,0.5122549,0.0,0.0,0.0,0.0
465901900,0,-0.0,0.5150754,0.0,0.5122549,0.0,0.0,0.0,0.0
465986989,0,-0.0,0.50502515,0.0,0.5122549,0.0,0.0,0.0,0.0
466107530,0,-0.0,0.40452263,0.0,0.5122549,0.0,0.0,0.0,0.0
466196352,0,-0.055555556,0.36180905,0.0,0.50980395,0.0,0.0,0.0,0.0
466297208,0,-0.052083332,0.41959798,0.0,0.5122549,0.0,0.0,0.0,0.0
466406756,0,-0.0,0.60301507,0.0,0.50980395,0.0,0.0,0.0,0.0
466496575,0,-0.0,0.74623114,0.0,0.50980395,0.0,0.0,0.0,0.0
466612976,0,-0.0,0.6708543,0.0,0.50980395,0.0,0.0,0.0,0.0
466706411,0,-0.0,0.64572865,0.0,0.50980395,0.0,0.0,0.0,0.0
466801967,0,-0.0,0.5477387,0.0,0.50980395,0.0,0.0,0.0,0.0
466888304,0,-0.0,0.5125628,0.0,0.50980395,0.0,0.0,0.0,0.0
466987677,0,0.010178117,0.5,0.0,0.50980395,0.0,0.0,0.0,0.0
467107065,0,0.08142494,0.4447236,0.0,0.5110294,0.0,0.0,0.0,0.0
467212888,0,0.16284987,0.31909546,0.0,0.50735295,0.0,0.0,0.0,0.0
467302703,0,0.20356233,0.30653265,0.0,0.50735295,0.0,0.0,0.0,0.0
467397698,0,0.33587787,0.3040201,0.0,0.5085784,0.0,0.0,0.0,0.0
467492751,0,0.3129771,0.2763819,0.0,0.49509802,0.0,0.0,0.0,0.0
467612771,0,0.124681935,0.24623115,0.0,0.43137255,0.0,0.0,0.0,0.0
467707062,0,-0.0,0.23366834,0.0,0.43137255,0.0,0.0,0.0,0.0
467798042,0,-0.045138888,0.20854272,0.0,0.43137255,0.0,0.0,0.0,0.0
467912925,0,-0.055555556,0.23115578,0.0,0.43137255,0.0,0.0,0.0,0.0
468008108,0,-0.0,0.21859297,0.0,0.43014705,0.0,0.0,0.0,0.0
468103644,0,0.129771,0.2437186,0.0,0.43137255,0.0,0.0,0.0,0.0
468203223,0,0.20610687,0.24623115,0.0,0.43137255,0.0,0.0,0.0,0.0
468313905,0,0.03307888,0.23869346,0.0,0.39460784,0.0,0.0,0.0,0.0
468403365,0,-0.0,0.1959799,0.0,0.39215687,0.0,0.0,0.0,0.0
468498975,0,-0.010416667,0.17839196,0.0,0.36397058,0.0,0.0,0.0,0.0
468608618,0,-0.0625,0.1758794,0.0,0.3529412,0.0,0.0,0.0,0.0
468708397,0,-0.065972224,0.16834171,0.0,0.35416666,0.0,0.0,0.0,0.0
468803582,0,-0.0069444445,0.10552764,0.0,0.35416666,0.0,0.0,0.0,0.0
468913774,0,-0.0,0.13316584,0.0,0.31862745,0.0,0.0,0.0,0.0
469007796,0,0.0050890585,0.1356784,0.0,0.31617647,0.0,0.0,0.0,0.0
469099637,0,-0.0,0.17336683,0.0,0.28431374,0.0,0.0,0.0,0.0
469194348,0,-0.0,0.14572865,0.0,0.27941176,0.0,0.0,0.0,0.0
469309298,0,-0.059027776,0.21105528,0.0,0.28186274,0.0,0.0,0.0,0.0
469398992,0,-0.07638889,0.2437186,0.0,0.28186274,0.0,0.0,0.0,0.0
469504375,0,-0.090277776,0.2437186,0.0,0.28186274,0.0,0.0,0.0,0.0
469609029,0,-0.0,0.34673366,0.0,0.28186274,0.0,0.0,0.0,0.0
469709101,0,-0.0,0.51758796,0.0,0.28063726,0.0,0.0,0.0,0.0
469808131,0,-0.0,0.5703518,0.0,0.28186274,0.0,0.0,0.0,0.0
469908308,0,-0.0,0.6105528,0.0,0.28186274,0.0,0.0,0.0,0.0
470014212,0,-0.0,0.64572865,0.0,0.27941176,0.0,0.0,0.0,0.0
470089296,0,-0.0,0.60552764,0.0,0.27941176,0.0,0.0,0.0,0.0
470208287,0,-0.0,0.52261305,0.0,0.27941176,0.0,0.0,0.0,0.0
470309268,0,-0.0,0.42211056,0.0,0.27941176,0.0,0.0,0.0,0.0
470398684,0,-0.0,0.41959798,0.0,0.27941176,0.0,0.0,0.0,0.0
470499356,0,0.06615776,0.38442212,0.0,0.27941176,0.0,0.0,0.0,0.0
470599892,0,0.18066157,0.34673366,0.0,0.27941176,0.0,0.0,0.0,0.0
470714642,0,0.050890584,0.2437186,0.0,0.27941176,0.0,0.0,0.0,0.0
470809620,0,0.06615776,0.2437186,0.0,0.27941176,0.0,0.0,0.0,0.0
470905087,0,0.21374045,0.2437186,0.0,0.27941176,0.0,0.0,0.0,0.0
471014993,0,0.19338423,0.2512563,0.0,0.27941176,0.0,0.0,0.0,0.0
471104701,0,0.41475827,0.2512563,0.0,0.27941176,0.0,0.0,0.0,0.0
471189809,0,0.562341,0.25376883,0.0,0.27941176,0.0,0.0,0.0,0.0
471314796,0,0.5114504,0.25376883,0.0,0.27941176,0.0,0.0,0.0,0.0
471410565,0,0.31806615,0.25376883,0.0,0.27941176,0.0,0.0,0.0,0.0
471499896,0,0.27989823,0.25376883,0.0,0.28063726,0.0,0.0,0.0,0.0
471605113,0,0.06870229,0.26884422,0.0,0.27941176,0.0,0.0,0.0,0.0
471715142,0,-0.0,0.26633167,0.0,0.27941176,0.0,0.0,0.0,0.0
471905121,0,0.050890584,0.26633167,0.0,0.27941176,0.0,0.0,0.0,0.0
471989465,0,0.18829517,0.2763819,0.0,0.28063726,0.0,0.0,0.0,0.0
472115267,0,0.17557251,0.2763819,0.0,0.27941176,0.0,0.0,0.0,0.0
472210350,0,0.13486005,0.24874371,0.0,0.27941176,0.0,0.0,0.0,0.0
472310195,0,0.045801528,0.18090452,0.0,0.27941176,0.0,0.0,0.0,0.0
472415767,0,0.03562341,0.16331658,0.0,0.28063726,0.0,0.0,0.0,0.0
472499566,0,-0.0,0.1758794,0.0,0.27941176,0.0,0.0,0.0,0.0
472609695,0,-0.0,0.1758794,0.0,0.27941176,0.0,0.0,0.0,0.0
472700595,0,-0.0069444445,0.20100503,0.0,0.27941176,0.0,0.0,0.0,0.0
472795713,0,-0.0,0.20603015,0.0,0.27941176,0.0,0.0,0.0,0.0
472870768,0,-0.0,0.21356784,0.0,0.27941176,0.0,0.0,0.0,0.0
473009763,0,-0.0,0.21859297,0.0,0.27941176,0.0,0.0,0.0,0.0
473100270,0,-0.0,0.24120604,0.0,0.27941176,0.0,0.0,0.0,0.0
473200276,0,-0.0,0.24120604,0.0,0.27941176,0.0,0.0,0.0,0.0
473301376,0,-0.0,0.28140703,0.0,0.27941176,0.0,0.0,0.0,0.0
473415904,0,-0.0,0.2964824,0.0,0.27941176,0.0,0.0,0.0,0.0
473510913,0,-0.0,0.28140703,0.0,0.27941176,0.0,0.0,0.0,0.0
473600479,0,0.111959286,0.25376883,0.0,0.27941176,0.0,0.0,0.0,0.0
473706156,0,0.07124682,0.2638191,0.0,0.28186274,0.0,0.0,0.0,0.0
473801146,0,0.117048346,0.26633167,0.0,0.28063726,0.0,0.0,0.0,0.0
473900513,0,0.16030534,0.30904523,0.0,0.28186274,0.0,0.0,0.0,0.0
473991739,0,0.18320611,0.30904523,0.0,0.28431374,0.0,0.0,0.0,0.0
474101421,0,0.08142494,0.30904523,0.0,0.28063726,0.0,0.0,0.0,0.0
474210505,0,-0.0,0.31658292,0.0,0.28063726,0.0,0.0,0.0,0.0
474296699,0,-0.0,0.31658292,0.0,0.28063726,0.0,0.0,0.0,0.0
474400684,0,-0.0,0.30904523,0.0,0.2769608,0.0,0.0,0.0,0.0
474501645,0,-0.0,0.30904523,0.0,0.12867647,0.0,0.0,0.0,0.0
474590561,0,0.061068702,0.30904523,0.0,0.0,0.0,0.0,0.0,0.0
474700695,0,0.13994911,0.30904523,0.0,0.0,0.0,0.0,0.0,0.0
474800869,0,0.23155217,0.3115578,0.0,0.0,0.0,0.0,0.0,0.0
474910814,0,0.16284987,0.34422112,0.0,0.0,0.0,0.0,0.0,0.0
475011843,0,0.07888041,0.40452263,0.0,0.0,0.0,0.0,0.0,0.0
475111833,0,0.03307888,0.5527638,0.0,0.0,0.0,0.0,0.0,0.0
475207990,0,0.03307888,0.5251256,0.0,0.0,0.0,0.0,0.0,0.0
475311871,0,0.15012723,0.51758796,0.0,0.0,0.0,0.0,0.0,0.0
475406994,0,0.16793893,0.72613066,0.0,0.0,0.0,0.0,0.0,0.0
475502150,0,0.13994911,0.75628144,0.0,0.0,0.0,0.0,0.0,0.0
475597132,0,0.10178117,0.69095474,0.0,0.0,0.0,0.0,0.0,0.0
475702706,0,0.061068702,0.65829146,0.0,0.0,0.0,0.0,0.0,0.0
475797267,0,0.06870229,0.5477387,0.0,0.0,0.0,0.0,0.0,0.0
476007248,0,0.22137405,0.41959798,0.0,0.0,0.0,0.0,0.0,0.0
476102932,0,0.2086514,0.36683416,0.0,0.0,0.0,0.0,0.0,0.0
476181769,0,0.13994911,0.32663316,0.0,0.0,0.0,0.0,0.0,0.0
476312416,0,0.048346058,0.31909546,0.0,0.0882353,0.0,0.0,0.0,0.0
476411513,0,0.025445292,0.31909546,0.0,0.21568628,0.0,0.0,0.0,0.0
476497805,0,-0.0,0.31909546,0.0,0.26593137,0.0,0.0,0.0,0.0
476612539,0,-0.0,0.3115578,0.0,0.375,0.0,0.0,0.0,0.0
476707804,0,0.07379135,0.31407034,0.0,0.4387255,0.0,0.0,0.0,0.0
476792023,0,0.24173027,0.32160804,0.0,0.5183824,0.0,0.0,0.0,0.0
476893211,0,0.259542,0.32160804,0.0,0.5588235,0.0,0.0,0.0,0.0
477012739,0,0.17557251,0.31658292,0.0,0.6237745,0.0,0.0,0.0,0.0
477103430,0,0.1908397,0.31658292,0.0,0.6237745,0.0,0.0,0.0,0.0
477202921,0,0.22137405,0.30904523,0.0,0.6544118,0.0,0.0,0.0,0.0
477298053,0,0.2620865,0.19346733,0.0,0.65563726,0.0,0.0,0.0,0.0
477412958,0,0.31043258,0.1356784,0.0,0.65686274,0.0,0.0,0.0,0.0
477508223,0,0.23918575,0.13316584,0.0,0.65686274,0.0,0.0,0.0,0.0
477598240,0,0.12722646,0.09798995,0.0,0.65563726,0.0,0.0,0.0,0.0
477713086,0,0.03307888,0.0,0.0,0.65686274,0.0,0.0,0.0,0.0
477803271,0,0.0025445293,0.022613065,0.0,0.65563726,0.0,0.0,0.0,0.0
477912577,0,-0.0,0.027638191,0.0,0.65563726,0.0,0.0,0.0,0.0
477998212,0,-0.0,0.0678392,0.0,0.6544118,0.0,0.0,0.0,0.0
478103821,0,-0.0,0.07035176,0.0,0.65563726,0.0,0.0,0.0,0.0
478213546,0,-0.0,0.047738694,0.0,0.65563726,0.0,0.0,0.0,0.0
478313386,0,0.025445292,0.040201005,0.0,0.6544118,0.0,0.0,0.0,0.0
478412721,0,0.12722646,0.050251257,0.0,0.6544118,0.0,0.0,0.0,0.0
478493634,0,0.19592875,0.10301507,0.0,0.65563726,0.0,0.0,0.0,0.0
478712745,0,0.12722646,0.16331658,0.0,0.6544118,0.0,0.0,0.0,0.0
478808947,0,0.050890584,0.21356784,0.0,0.65563726,0.0,0.0,0.0,0.0
478899361,0,0.03562341,0.24120604,0.0,0.6544118,0.0,0.0,0.0,0.0
479014154,0,0.07888041,0.24120604,0.0,0.65563726,0.0,0.0,0.0,0.0
479104108,0,0.15776081,0.24623115,0.0,0.65563726,0.0,0.0,0.0,0.0
479193299,0,0.15521629,0.26884422,0.0,0.65563726,0.0,0.0,0.0,0.0
479303196,0,0.114503816,0.27386934,0.0,0.65563726,0.0,0.0,0.0,0.0
479403957,0,0.058524173,0.3040201,0.0,0.6544118,0.0,0.0,0.0,0.0
479499308,0,0.012722646,0.30904523,0.0,0.6544118,0.0,0.0,0.0,0.0
479613509,0,0.08142494,0.30904523,0.0,0.6544118,0.0,0.0,0.0,0.0
479714204,0,0.19592875,0.30904523,0.0,0.6544118,0.0,0.0,0.0,0.0
479794714,0,0.19847329,0.31407034,0.0,0.65563726,0.0,0.0,0.0,0.0
479914257,0,0.18829517,0.37185928,0.0,0.65563726,0.0,0.0,0.0,0.0
480009623,0,0.17557251,0.44723618,0.0,0.6544118,0.0,0.0,0.0,0.0
480100083,0,0.16284987,0.4924623,0.0,0.6544118,0.0,0.0,0.0,0.0
480194511,0,0.14503817,0.5527638,0.0,0.6544118,0.0,0.0,0.0,0.0
480315433,0,0.18320611,0.54522616,0.0,0.65563726,0.0,0.0,0.0,0.0
480393889,0,0.15521629,0.56532663,0.0,0.6544118,0.0,0.0,0.0,0.0
480499707,0,0.16284987,0.55025125,0.0,0.6544118,0.0,0.0,0.0,0.0
480594692,0,0.21119593,0.5150754,0.0,0.65563726,0.0,0.0,0.0,0.0
480714136,0,0.25699747,0.50753766,0.0,0.65563726,0.0,0.0,0.0,0.0
480809983,0,0.28498727,0.5301508,0.0,0.6544118,0.0,0.0,0.0,0.0
481004129,0,0.21374045,0.620603,0.0,0.65686274,0.0,0.0,0.0,0.0
481110520,0,0.13740458,0.69095474,0.0,0.6580882,0.0,0.0,0.0,0.0
481195544,0,0.089058526,0.69095474,0.0,0.6580882,0.0,0.0,0.0,0.0
481304189,0,0.050890584,0.65829146,0.0,0.6580882,0.0,0.0,0.0,0.0
481410174,0,0.027989822,0.6381909,0.0,0.6580882,0.0,0.0,0.0,0.0
481510467,0,0.03816794,0.6155779,0.0,0.6580882,0.0,0.0,0.0,0.0
481595323,0,0.055979643,0.57537687,0.0,0.6580882,0.0,0.0,0.0,0.0
481715291,0,0.06870229,0.53517586,0.0,0.6544118,0.0,0.0,0.0,0.0
481805522,0,0.045801528,0.5427136,0.0,0.6544118,0.0,0.0,0.0,0.0
481910377,0,0.017811704,0.5477387,0.0,0.622549,0.0,0.0,0.0,0.0
482000719,0,0.017811704,0.53266335,0.0,0.6188725,0.0,0.0,0.0,0.0
482095520,0,0.0025445293,0.5025126,0.0,0.61764705,0.0,0.0,0.0,0.0
482210386,0,-0.0,0.42964825,0.0,0.6164216,0.0,0.0,0.0,0.0
482274671,0,-0.0,0.39949748,0.0,0.6164216,0.0,0.0,0.0,0.0
482396065,0,-0.0,0.40201005,0.0,0.6164216,0.0,0.0,0.0,0.0
482505632,0,-0.0,0.37437186,0.0,0.61764705,0.0,0.0,0.0,0.0
482614936,0,-0.0,0.38442212,0.0,0.61764705,0.0,0.0,0.0,0.0
482695755,0,-0.0,0.42211056,0.0,0.61764705,0.0,0.0,0.0,0.0
482804931,0,-0.0,0.4522613,0.0,0.6164216,0.0,0.0,0.0,0.0
482995320,0,0.055979643,0.35427135,0.0,0.6164216,0.0,0.0,0.0,0.0
483102010,0,0.061068702,0.31909546,0.0,0.6164216,0.0,0.0,0.0,0.0
483211323,0,-0.0,0.20100503,0.0,0.61764705,0.0,0.0,0.0,0.0
483311136,0,-0.0,0.08040201,0.0,0.61764705,0.0,0.0,0.0,0.0
483382006,0,-0.0,0.0,0.0,0.61764705,0.0,0.0,0.0,0.0
483505324,0,-0.0,0.0,0.0,0.61764705,0.0,0.0,0.0,0.0
483611935,0,-0.0,-0.018404908,0.0,0.6188725,0.0,0.0,0.0,0.0
483715603,0,-0.0,-0.16564417,0.0,0.6188725,0.0,0.0,0.0,0.0
483796251,0,-0.0,-0.35582823,0.0,0.6188725,0.0,0.0,0.0,0.0
483896358,0,-0.0034722222,-0.42331287,0.0,0.62009805,0.0,0.0,0.0,0.0
484011351,0,-0.0,0.0,0.0,0.62009805,0.0,0.0,0.0,0.0
484095753,0,-0.0,0.1281407,0.0,0.6213235,0.0,0.0,0.0,0.0
484205652,0,-0.0,0.20854272,0.0,0.6213235,0.0,0.0,0.0,0.0
484305766,0,-0.0,0.2562814,0.0,0.62009805,0.0,0.0,0.0,0.0
484495837,0,-0.0,0.15829146,0.0,0.6213235,0.0,0.0,0.0,0.0
484605765,0,-0.0,0.14321607,0.0,0.6213235,0.0,0.0,0.0,0.0
484701930,0,-0.0,0.16080402,0.0,0.6213235,0.0,0.0,0.0,0.0
484796081,0,-0.0,0.22110553,0.0,0.6213235,0.0,0.0,0.0,0.0
484891834,0,-0.0,0.27889448,0.0,0.6213235,0.0,0.0,0.0,0.0
485006931,0,-0.0,0.30653265,0.0,0.6213235,0.0,0.0,0.0,0.0
485192347,0,0.007633588,0.22613065,0.0,0.59068626,0.0,0.0,0.0,0.0
485287170,0,0.025445292,0.39698493,0.0,0.62009805,0.0,0.0,0.0,0.0
485406349,0,0.07888041,0.50502515,0.0,0.62009805,0.0,0.0,0.0,0.0
485492281,0,0.08142494,0.51005024,0.0,0.62009805,0.0,0.0,0.0,0.0
485606353,0,0.06615776,0.5276382,0.0,0.6213235,0.0,0.0,0.0,0.0
485707203,0,0.053435113,0.52261305,0.0,0.6213235,0.0,0.0,0.0,0.0
485792245,0,0.045801528,0.5301508,0.0,0.62009805,0.0,0.0,0.0,0.0
485902473,0,0.061068702,0.52261305,0.0,0.62009805,0.0,0.0,0.0,0.0
486002370,0,0.117048346,0.4874372,0.0,0.6213235,0.0,0.0,0.0,0.0
486112645,0,0.17048346,0.459799,0.0,0.62009805,0.0,0.0,0.0,0.0
486192630,0,0.17557251,0.4522613,0.0,0.6213235,0.0,0.0,0.0,0.0
486297624,0,0.1043257,0.42211056,0.0,0.6213235,0.0,0.0,0.0,0.0
486406644,0,0.089058526,0.39698493,0.0,0.62009805,0.0,0.0,0.0,0.0
486507603,0,0.117048346,0.38442212,0.0,0.6213235,0.0,0.0,0.0,0.0
486596788,0,0.14503817,0.38442212,0.0,0.6213235,0.0,0.0,0.0,0.0
486697693,0,0.13740458,0.38442212,0.0,0.62009805,0.0,0.0,0.0,0.0
486806993,0,0.117048346,0.36683416,0.0,0.62009805,0.0,0.0,0.0,0.0
486896880,0,0.050890584,0.34673366,0.0,0.6213235,0.0,0.0,0.0,0.0
487013077,0,0.08396947,0.35678393,0.0,0.62009805,0.0,0.0,0.0,0.0
487103006,0,0.18066157,0.36683416,0.0,0.6213235,0.0,0.0,0.0,0.0
487212475,0,0.1475827,0.32160804,0.0,0.6213235,0.0,0.0,0.0,0.0
487297979,0,0.094147585,0.3115578,0.0,0.6213235,0.0,0.0,0.0,0.0
487613287,0,0.06361323,0.30904523,0.0,0.6188725,0.0,0.0,0.0,0.0
487698236,0,0.06361323,0.30904523,0.0,0.6188725,0.0,0.0,0.0,0.0
487807367,0,0.24173027,0.3115578,0.0,0.62009805,0.0,0.0,0.0,0.0
487893232,0,0.2519084,0.3115578,0.0,0.6188725,0.0,0.0,0.0,0.0
487997554,0,0.2519084,0.3115578,0.0,0.6188725,0.0,0.0,0.0,0.0
488104044,0,0.1908397,0.3115578,0.0,0.62009805,0.0,0.0,0.0,0.0
488213412,0,0.117048346,0.2713568,0.0,0.6213235,0.0,0.0,0.0,0.0
488297905,0,0.061068702,0.28140703,0.0,0.62009805,0.0,0.0,0.0,0.0
488398652,0,0.043256998,0.298995,0.0,0.62009805,0.0,0.0,0.0,0.0
488507912,0,0.027989822,0.30653265,0.0,0.62009805,0.0,0.0,0.0,0.0
488608736,0,0.012722646,0.30904523,0.0,0.62009805,0.0,0.0,0.0,0.0
488713956,0,0.13486005,0.30904523,0.0,0.62009805,0.0,0.0,0.0,0.0
488803814,0,0.19592875,0.30904523,0.0,0.6213235,0.0,0.0,0.0,0.0
488908071,0,0.23918575,0.3115578,0.0,0.62009805,0.0,0.0,0.0,0.0
488993942,0,0.15521629,0.30904523,0.0,0.62009805,0.0,0.0,0.0,0.0
489113986,0,0.050890584,0.30904523,0.0,0.62009805,0.0,0.0,0.0,0.0
489208198,0,0.012722646,0.30904523,0.0,0.62009805,0.0,0.0,0.0,0.0
489309151,0,-0.0,0.23115578,0.0,0.5833333,0.0,0.0,0.0,0.0
489398434,0,-0.0,0.36683416,0.0,0.62009805,0.0,0.0,0.0,0.0
489499721,0,0.017811704,0.43718594,0.0,0.62009805,0.0,0.0,0.0,0.0
489604041,0,0.030534351,0.4522613,0.0,0.62009805,0.0,0.0,0.0,0.0
489698469,0,0.007633588,0.34422112,0.0,0.62009805,0.0,0.0,0.0,0.0
489794214,0,-0.0,0.30904523,0.0,0.62009805,0.0,0.0,0.0,0.0
489914395,0,-0.0,0.3115578,0.0,0.62009805,0.0,0.0,0.0,0.0
490014500,0,-0.0,0.3115578,0.0,0.62009805,0.0,0.0,0.0,0.0
490104875,0,-0.0,0.3115578,0.0,0.62009805,0.0,0.0,0.0,0.0
490199550,0,-0.0,0.3115578,0.0,0.62009805,0.0,0.0,0.0,0.0
490309560,0,-0.0,0.3115578,0.0,0.62009805,0.0,0.0,0.0,0.0
490409615,0,-0.0,0.3115578,0.0,0.62009805,0.0,0.0,0.0,0.0
490494599,0,-0.0,0.3115578,0.0,0.6213235,0.0,0.0,0.0,0.0
490599623,0,-0.0,0.3115578,0.0,0.62009805,0.0,0.0,0.0,0.0
490709841,0,0.061068702,0.3115578,0.0,0.62009805,0.0,0.0,0.0,0.0
490798954,0,0.07379135,0.3115578,0.0,0.6188725,0.0,0.0,0.0,0.0
490884929,0,0.06870229,0.3115578,0.0,0.62009805,0.0,0.0,0.0,0.0
491008973,0,0.050890584,0.3115578,0.0,0.62009805,0.0,0.0,0.0,0.0
491179879,0,0.030534351,0.3115578,0.0,0.6213235,0.0,0.0,0.0,0.0
491305061,0,0.027989822,0.3115578,0.0,0.62009805,0.0,0.0,0.0,0.0
491404920,0,0.027989822,0.3115578,0.0,0.6213235,0.0,0.0,0.0,0.0
491515713,0,0.025445292,0.3115578,0.0,0.62009805,0.0,0.0,0.0,0.0
491605495,0,0.017811704,0.3115578,0.0,0.62009805,0.0,0.0,0.0,0.0
491899704,0,0.053435113,0.3115578,0.0,0.6213235,0.0,0.0,0.0,0.0
492009577,0,0.07379135,0.3115578,0.0,0.6213235,0.0,0.0,0.0,0.0
492115483,0,0.07124682,0.3115578,0.0,0.6213235,0.0,0.0,0.0,0.0
492215361,0,0.06870229,0.3115578,0.0,0.6213235,0.0,0.0,0.0,0.0
492305403,0,0.099236645,0.31909546,0.0,0.6213235,0.0,0.0,0.0,0.0
492380549,0,0.13486005,0.33668342,0.0,0.6213235,0.0,0.0,0.0,0.0
492490493,0,0.14249364,0.3241206,0.0,0.62009805,0.0,0.0,0.0,0.0
492590685,0,0.15267175,0.3241206,0.0,0.6188725,0.0,0.0,0.0,0.0
492705694,0,0.16793893,0.31658292,0.0,0.62009805,0.0,0.0,0.0,0.0
492805847,0,0.13994911,0.31658292,0.0,0.6213235,0.0,0.0,0.0,0.0
492871338,0,0.13740458,0.31658292,0.0,0.62009805,0.0,0.0,0.0,0.0
493010913,0,0.122137405,0.31658292,0.0,0.6213235,0.0,0.0,0.0,0.0
493110305,0,0.1043257,0.31909546,0.0,0.62009805,0.0,0.0,0.0,0.0
493210905,0,0.053435113,0.31658292,0.0,0.62009805,0.0,0.0,0.0,0.0
493301679,0,0.010178117,0.30904523,0.0,0.6213235,0.0,0.0,0.0,0.0
493395869,0,-0.0,0.30904523,0.0,0.6213235,0.0,0.0,0.0,0.0
493501096,0,-0.0,0.3115578,0.0,0.62009805,0.0,0.0,0.0,0.0
493597267,0,-0.0,0.3115578,0.0,0.62009805,0.0,0.0,0.0,0.0
493706225,0,-0.0,0.3115578,0.0,0.6213235,0.0,0.0,0.0,0.0
493806254,0,-0.0,0.3115578,0.0,0.6213235,0.0,0.0,0.0,0.0
493900543,0,-0.0,0.3115578,0.0,0.62009805,0.0,0.0,0.0,0.0
494010518,0,-0.0,0.3115578,0.0,0.6213235,0.0,0.0,0.0,0.0
494101222,0,0.007633588,0.3115578,0.0,0.62009805,0.0,0.0,0.0,0.0
494211484,0,0.007633588,0.3115578,0.0,0.62009805,0.0,0.0,0.0,0.0
494301521,0,0.0050890585,0.3115578,0.0,0.62009805,0.0,0.0,0.0,0.0
494391589,0,-0.0,0.3115578,0.0,0.6213235,0.0,0.0,0.0,0.0
494506582,0,-0.0,0.3115578,0.0,0.62009805,0.0,0.0,0.0,0.0
494612084,0,0.04071247,0.3115578,0.0,0.6213235,0.0,0.0,0.0,0.0
494677315,0,0.03307888,0.3115578,0.0,0.6213235,0.0,0.0,0.0,0.0
494811813,0,0.050890584,0.3115578,0.0,0.62009805,0.0,0.0,0.0,0.0
494911681,0,0.053435113,0.3115578,0.0,0.62009805,0.0,0.0,0.0,0.0
495001763,0,0.030534351,0.3115578,0.0,0.6213235,0.0,0.0,0.0,0.0
495107452,0,-0.0,0.31407034,0.0,0.6213235,0.0,0.0,0.0,0.0
495201096,0,-0.0,0.31658292,0.0,0.62009805,0.0,0.0,0.0,0.0
495311233,0,-0.0,0.31658292,0.0,0.6213235,0.0,0.0,0.0,0.0
495371954,0,-0.0,0.31658292,0.0,0.62009805,0.0,0.0,0.0,0.0
495602067,0,-0.0,0.31909546,0.0,0.62009805,0.0,0.0,0.0,0.0
495697136,0,-0.0,0.31658292,0.0,0.6213235,0.0,0.0,0.0,0.0
495801369,0,0.061068702,0.31407034,0.0,0.62009805,0.0,0.0,0.0,0.0
495907290,0,0.06615776,0.3115578,0.0,0.6213235,0.0,0.0,0.0,0.0
495991562,0,0.058524173,0.3115578,0.0,0.6213235,0.0,0.0,0.0,0.0
496112227,0,0.048346058,0.31407034,0.0,0.62009805,0.0,0.0,0.0,0.0
496201395,0,0.099236645,0.33417085,0.0,0.62009805,0.0,0.0,0.0,0.0
496307403,0,0.1475827,0.35427135,0.0,0.62009805,0.0,0.0,0.0,0.0
496402469,0,0.119592875,0.36683416,0.0,0.62009805,0.0,0.0,0.0,0.0
496497551,0,0.086513996,0.36683416,0.0,0.62009805,0.0,0.0,0.0,0.0
496707616,0,0.015267176,0.31407034,0.0,0.62009805,0.0,0.0,0.0,0.0
496803076,0,0.015267176,0.31407034,0.0,0.62009805,0.0,0.0,0.0,0.0
496897807,0,0.030534351,0.32663316,0.0,0.62009805,0.0,0.0,0.0,0.0
496977581,0,0.045801528,0.31909546,0.0,0.62009805,0.0,0.0,0.0,0.0
497111932,0,0.055979643,0.33668342,0.0,0.6213235,0.0,0.0,0.0,0.0
497213018,0,0.06361323,0.36432162,0.0,0.62009805,0.0,0.0,0.0,0.0
497302132,0,0.06615776,0.40703517,0.0,0.62009805,0.0,0.0,0.0,0.0
497397983,0,0.08142494,0.43718594,0.0,0.62009805,0.0,0.0,0.0,0.0
497512390,0,0.094147585,0.4522613,0.0,0.6188725,0.0,0.0,0.0,0.0
497593143,0,0.099236645,0.45477387,0.0,0.62009805,0.0,0.0,0.0,0.0
497702206,0,0.111959286,0.43718594,0.0,0.62009805,0.0,0.0,0.0,0.0
497803127,0,0.129771,0.4723618,0.0,0.6213235,0.0,0.0,0.0,0.0
497912563,0,0.122137405,0.5,0.0,0.62009805,0.0,0.0,0.0,0.0
498013223,0,0.122137405,0.5201005,0.0,0.62009805,0.0,0.0,0.0,0.0
498103096,0,0.119592875,0.5527638,0.0,0.6188725,0.0,0.0,0.0,0.0
498212477,0,0.122137405,0.5527638,0.0,0.62009805,0.0,0.0,0.0,0.0
498413423,0,0.13486005,0.6407035,0.0,0.6188725,0.0,0.0,0.0,0.0
498513476,0,0.17557251,0.60552764,0.0,0.62009805,0.0,0.0,0.0,0.0
498612422,0,0.15267175,0.6105528,0.0,0.62009805,0.0,0.0,0.0,0.0
