timestamp,time_utc_usec,lat,lon,alt,alt_ellipsoid,s_variance_m_s,c_variance_rad,eph,epv,hdop,vdop,noise_per_ms,jamming_indicator,vel_m_s,vel_n_m_s,vel_e_m_s,vel_d_m_s,cog_rad,timestamp_time_relative,heading,heading_offset,fix_type,jamming_state,vel_ned_valid,satellites_used,selected
394691196,1627401603200096,386218859,-91532949,53370,101596,1.3440001,0.6437645,5.5030003,12.834001,1.17,2.45,88,5,1.2470001,-0.647,1.0660001,-0.58100003,4.789542,0,nan,0.0,3,0,1,8,0
394890452,1627401603400096,386218853,-91532938,53296,101522,1.1090001,0.64381176,5.498,12.835001,1.17,2.45,88,5,0.51000005,0.044000003,0.508,0.36800003,4.789542,0,nan,0.0,3,0,1,8,0
395091393,1627401603600096,386218845,-91532947,53045,101270,1.08,0.6438577,5.4820004,12.815001,1.17,2.45,88,5,0.93100005,-0.79200006,-0.48800004,-0.039,4.789542,0,nan,0.0,3,0,1,8,0
395290294,1627401603800096,386218843,-91532962,53625,101851,1.2620001,0.64392823,5.478,12.825001,1.17,2.45,88,5,1.6560001,0.354,-1.6170001,0.042000003,4.789542,0,nan,0.0,3,0,1,8,0
395494830,1627401604000096,386218839,-91532963,54247,102473,1.6760001,0.6439996,5.4870005,12.870001,1.17,2.45,88,5,0.75500005,-0.65800005,0.37,-1.217,4.789542,0,nan,0.0,3,0,1,8,0
395701667,1627401604200096,386218826,-91532975,54292,102518,1.5780001,0.64406675,5.491,12.867001,1.17,2.45,88,5,0.59300005,-0.492,-0.33,0.52000004,4.789542,0,nan,0.0,3,0,1,8,0
395900970,1627401604400096,386218791,-91533010,53406,101632,1.7620001,0.69260734,5.497,12.876,1.17,2.45,88,19,2.3890002,-2.242,-0.82600003,1.4920001,4.1889057,0,nan,0.0,3,0,1,8,0
396095613,1627401604600096,386218778,-91532995,53516,101742,1.562,0.6926691,5.4940004,12.854001,1.17,2.45,88,19,1.562,0.65300006,1.4180001,-0.032,4.1889057,0,nan,0.0,3,0,1,8,0
396291429,1627401604800096,386218777,-91532979,54017,102242,1.508,0.6927288,5.4900002,12.833,1.17,2.45,88,19,0.024,0.006,-0.023000002,0.22200002,4.1889057,0,nan,0.0,3,0,1,8,0
396692562,1627401605200096,386218795,-91532995,53755,101981,1.588,0.69148684,5.504,12.84,1.17,2.45,88,19,2.1090002,2.0800002,0.35200003,0.45100003,5.3220854,0,nan,0.0,3,0,1,8,0
396891902,1627401605400096,386218842,-91532983,52874,101100,1.4540001,0.3569987,5.5090003,12.839001,1.17,2.45,88,6,3.515,3.17,1.519,2.7960002,0.15061912,0,nan,0.0,3,0,1,8,0
397091947,1627401605600096,386218865,-91532972,52803,101029,1.7520001,0.35713312,5.5000005,12.802001,1.17,2.45,88,6,0.42200002,0.418,0.059000004,0.58900005,0.15061912,0,nan,0.0,3,0,1,8,0
397288808,1627401605800096,386218846,-91532958,52322,100547,1.2570001,0.6129944,5.5020003,12.809001,1.17,2.45,88,6,2.7710001,-1.6340001,2.2380002,0.209,0.67075515,0,nan,0.0,3,0,1,8,0
397692429,1627401606200096,386218804,-91532949,52000,100225,1.2880001,0.6131228,5.499,12.821001,1.17,2.45,88,6,0.77800006,-0.31800002,-0.71000004,0.20700002,0.67075515,0,nan,0.0,3,0,1,8,0
397892587,1627401606400096,386218804,-91532955,52321,100547,1.439,0.6131872,5.484,12.779,1.17,2.45,88,14,0.24400002,0.16100001,-0.18400002,0.39800003,0.67075515,0,nan,0.0,3,0,1,8,0
398092522,1627401606600096,386218802,-91532974,51799,100025,1.478,0.61325336,5.4800005,12.779,1.17,2.45,88,14,0.43300003,-0.045,-0.43100002,0.694,0.67075515,0,nan,0.0,3,0,1,8,0
398293286,1627401606800097,386218793,-91532975,50961,99187,1.184,0.7491649,5.473,12.77,1.17,2.45,88,14,1.639,-0.49800003,1.562,1.1580001,1.1557313,0,nan,0.0,3,0,1,8,0
398492500,1627401607000097,386218785,-91532959,50780,99006,1.317,0.7492131,5.458,12.747001,1.17,2.45,88,14,0.49400002,-0.342,0.35700002,0.878,1.1557313,0,nan,0.0,3,0,1,8,0
398693460,1627401607200097,386218782,-91532961,50915,99141,1.3920001,0.74926406,5.4360003,12.693001,1.17,2.45,88,14,0.517,-0.097,-0.508,0.744,1.1557313,0,nan,0.0,3,0,1,8,0
399091412,1627401607600097,386218781,-91532961,51306,99532,1.3690001,0.74936587,5.412,12.678,1.17,2.45,88,33,0.072000004,0.040000003,-0.060000002,0.61600006,1.1557313,0,nan,0.0,3,0,1,8,0
399288615,1627401607800097,386218780,-91532930,52183,100408,1.108,0.7494115,5.387,12.616,1.17,2.45,88,33,0.72700006,-0.17500001,0.70600003,1.0120001,1.1557313,0,nan,0.0,3,0,1,8,0
399493944,1627401608000097,386218769,-91532902,52642,100868,1.197,0.74946344,5.373,12.602,1.17,2.45,88,33,1.182,-1.0070001,0.619,0.78700006,1.1557313,0,nan,0.0,3,0,1,8,0
399694435,1627401608200097,386218756,-91532865,52726,100952,1.5050001,0.62561184,5.366,12.611001,1.17,2.45,88,33,2.2220001,-0.568,2.1490002,0.63000005,1.5526394,0,nan,0.0,3,0,1,8,0
399894326,1627401608400097,386218752,-91532844,52744,100969,1.35,0.625671,5.3700004,12.632001,1.17,2.45,88,8,0.22900002,0.117000006,0.19600001,0.65400004,1.5526394,0,nan,0.0,3,0,1,8,0
400489441,1627401609000097,386218712,-91532844,50222,98448,1.4250001,0.6258822,5.386,12.659,1.17,2.45,88,8,1.718,-1.3290001,1.0890001,0.39100003,1.5526394,0,nan,0.0,3,0,1,8,0
400686012,1627401609200097,386218692,-91532860,49239,97464,1.4820001,0.6259471,5.3900003,12.672001,1.17,2.45,88,8,0.314,-0.266,-0.16600001,1.279,1.5526394,0,nan,0.0,3,0,1,8,0
401086624,1627401609600097,386218712,-91532799,49682,97908,1.8360001,0.55521715,5.3890004,12.669001,1.17,2.45,89,10,2.753,2.0740001,1.8100001,3.5140002,1.0850682,0,nan,0.0,3,0,1,8,0
401285483,1627401609800097,386218727,-91532761,49796,98022,1.7390001,0.555303,5.3950005,12.670001,1.17,2.45,89,10,1.039,0.33800003,0.98200005,1.0500001,1.0850682,0,nan,0.0,3,0,1,8,0
401485287,1627401610000097,386218725,-91532770,49231,97456,1.654,0.5553847,5.4040003,12.696001,1.17,2.45,89,10,0.31800002,-0.046000004,-0.31500003,0.638,1.0850682,0,nan,0.0,3,0,1,8,0
401689642,1627401610200097,386218723,-91532776,48711,96937,1.6980001,0.5554687,5.4160004,12.714001,1.17,2.45,89,10,0.65000004,0.187,0.623,0.675,1.0850682,0,nan,0.0,3,0,1,8,0
401890134,1627401610400097,386218714,-91532766,48638,96863,1.549,0.5555451,5.42,12.714001,1.17,2.45,89,6,0.605,-0.07300001,0.601,1.1580001,1.0850682,0,nan,0.0,3,0,1,8,0
402090501,1627401610600097,386218698,-91532743,48482,96707,1.5830001,0.5556449,5.432,12.741,1.17,2.45,89,6,1.746,-1.093,1.3610001,1.026,1.0850682,0,nan,0.0,3,0,1,8,0
402290473,1627401610800097,386218679,-91532718,49046,97271,1.5020001,0.5557191,5.4300003,12.72,1.17,2.44,89,6,0.45400003,-0.43,0.147,0.8880001,1.0850682,0,nan,0.0,3,0,1,8,0
402492599,1627401611000097,386218678,-91532727,48922,97147,1.3050001,0.5557835,5.4340005,12.725,1.17,2.44,89,6,0.591,0.512,-0.296,0.259,1.0850682,0,nan,0.0,3,0,1,8,0
402690520,1627401611200097,386218675,-91532711,49861,98087,1.2340001,0.55584425,5.425,12.689,1.17,2.44,89,6,0.544,-0.531,-0.116000004,0.094000004,1.0850682,0,nan,0.0,3,0,1,8,0
402890906,1627401611400097,386218685,-91532709,50728,98954,1.225,0.55592716,5.4100003,12.653001,1.17,2.44,89,5,1.6300001,1.102,-1.202,0.41200003,1.0850682,0,nan,0.0,3,0,1,8,0
403091424,1627401611600097,386218686,-91532732,50744,98970,1.1860001,0.5559856,5.3830004,12.589001,1.17,2.44,89,5,0.27400002,0.26900002,-0.052,-0.07300001,1.0850682,0,nan,0.0,3,0,1,8,0
403292416,1627401611800097,386218689,-91532768,50117,98343,1.3510001,0.55605227,5.3840003,12.617001,1.17,2.44,89,5,1.215,0.37300003,-1.156,-0.24000001,1.0850682,0,nan,0.0,3,0,1,8,0
403491260,1627401612000097,386218696,-91532796,49522,97747,1.4050001,0.5561216,5.3950005,12.649,1.17,2.44,89,5,0.75200003,0.739,-0.13700001,0.656,1.0850682,0,nan,0.0,3,0,1,8,0
403687195,1627401612200097,386218693,-91532792,49238,97464,1.342,0.55618775,5.407,12.682,1.17,2.44,89,5,0.98,-0.48800004,0.85,0.441,1.0850682,0,nan,0.0,3,0,1,8,0
403887561,1627401612400097,386218686,-91532798,49217,97442,1.3440001,0.556254,5.401,12.661,1.17,2.44,89,5,0.75500005,0.24900001,-0.712,0.24900001,1.0850682,0,nan,0.0,3,0,1,8,0
404082503,1627401612600097,386218689,-91532830,49152,97377,1.3490001,0.5563354,5.405,12.683001,1.17,2.44,89,5,1.621,0.379,-1.5760001,-0.31800002,1.0850682,0,nan,0.0,3,0,1,8,0
404291787,1627401612800097,386218701,-91532873,49607,97833,1.4690001,0.4864534,5.412,12.705001,1.17,2.44,89,5,2.66,1.24,-2.3530002,-0.19100001,6.1378255,0,nan,0.0,3,0,1,8,0
404487759,1627401613000097,386218717,-91532896,50429,98655,1.4350001,0.74590045,5.4150004,12.709001,1.17,2.44,89,5,1.741,0.642,-1.618,0.085,5.825111,0,nan,0.0,3,0,1,8,0
404692032,1627401613200097,386218734,-91532910,51877,100102,1.4230001,0.44515145,5.407,12.701,1.17,2.44,89,5,2.775,1.7340001,-2.167,-0.551,5.5022435,0,nan,0.0,3,0,1,8,0
404888332,1627401613400097,386218752,-91532946,51939,100164,1.6650001,0.4452541,5.414,12.725,1.17,2.44,89,11,1.261,0.485,-1.164,0.35200003,5.5022435,0,nan,0.0,3,0,1,8,0
405088361,1627401613600097,386218745,-91532973,51413,99638,1.8460001,0.4453677,5.427,12.739,1.17,2.44,89,11,0.402,-0.24100001,0.32200003,-1.3690001,5.5022435,0,nan,0.0,3,0,1,8,0
405288613,1627401613800097,386218753,-91532983,51407,99632,1.6680001,0.4454703,5.438,12.755001,1.17,2.44,89,11,0.9760001,0.92600006,-0.30800003,-0.83800006,5.5022435,0,nan,0.0,3,0,1,8,0
405489594,1627401614000097,386218755,-91532999,50747,98972,1.8140001,0.44558203,5.447,12.764001,1.17,2.44,89,11,0.70400006,0.39800003,0.58000004,-0.21400002,5.5022435,0,nan,0.0,3,0,1,8,0
405693437,1627401614200097,386218744,-91533002,50867,99093,1.7750001,0.4456913,5.447,12.750001,1.17,2.44,89,11,0.22700001,-0.035,-0.224,0.30600002,5.5022435,0,nan,0.0,3,0,1,8,0
405889449,1627401614400097,386218749,-91532988,50868,99094,1.5870001,0.445789,5.4490004,12.747001,1.17,2.44,89,20,1.2800001,0.87900007,0.93100005,0.87700003,5.5022435,0,nan,0.0,3,0,1,8,0
406090373,1627401614600097,386218748,-91532990,50646,98871,1.6880001,0.4458927,5.446,12.732,1.17,2.44,89,20,0.536,0.26200002,-0.467,0.777,5.5022435,0,nan,0.0,3,0,1,8,0
406289413,1627401614800097,386218744,-91533005,50025,98250,1.6530001,0.44599444,5.445,12.732,1.17,2.44,89,20,0.259,0.21700001,0.143,0.499,5.5022435,0,nan,0.0,3,0,1,8,0
406490010,1627401615000097,386218730,-91533025,49402,97628,1.715,0.44609988,5.431,12.688001,1.17,2.44,89,20,0.59900004,-0.35200003,-0.485,0.78900003,5.5022435,0,nan,0.0,3,0,1,8,0
406685686,1627401615200097,386218726,-91533041,49054,97280,1.531,0.44619393,5.426,12.674001,1.17,2.44,89,20,0.634,0.469,-0.42700002,0.342,5.5022435,0,nan,0.0,3,0,1,8,0
406890236,1627401615400097,386218730,-91533054,48483,96709,1.511,0.4462868,5.4240003,12.662001,1.17,2.44,89,23,0.74500006,0.703,0.246,0.30100003,5.5022435,0,nan,0.0,3,0,1,8,0
407090101,1627401615600097,386218727,-91533056,48427,96653,1.3840001,0.4463718,5.412,12.608001,1.17,2.44,89,23,0.45000002,-0.12200001,-0.43300003,0.23700002,5.5022435,0,nan,0.0,3,0,1,8,0
407286472,1627401615800097,386218728,-91533070,47778,96004,1.394,0.4464648,5.3950005,12.553,1.17,2.44,89,23,0.85600007,0.855,0.037,1.2490001,5.5022435,0,nan,0.0,3,0,1,8,0
407490417,1627401616000097,386218725,-91533066,48078,96304,1.363,0.44654843,5.386,12.562,1.17,2.44,89,23,0.934,-0.75200003,-0.554,0.33,5.5022435,0,nan,0.0,3,0,1,8,0
407888568,1627401616400097,386218698,-91533089,47378,95604,1.5610001,0.4467418,5.355,12.495001,1.17,2.44,89,4,0.18800001,0.063,0.177,1.1060001,5.5022435,0,nan,0.0,3,0,1,8,0
408088584,1627401616600097,386218711,-91533074,47822,96048,1.7820001,0.44685104,5.355,12.51,1.17,2.44,89,4,1.1520001,1.149,0.087000005,0.455,5.5022435,0,nan,0.0,3,0,1,8,0
408291424,1627401616800097,386218707,-91533071,47809,96035,1.4100001,0.44693762,5.348,12.499001,1.17,2.44,89,4,0.583,-0.56,0.162,0.61600006,5.5022435,0,nan,0.0,3,0,1,8,0
408491224,1627401617000097,386218709,-91533064,48618,96844,1.4150001,0.44702438,5.3440003,12.496,1.17,2.44,89,4,0.85800004,0.21200001,-0.83100003,0.19800001,5.5022435,0,nan,0.0,3,0,1,8,0
408691577,1627401617200097,386218715,-91533047,48977,97202,1.468,0.44712803,5.347,12.516001,1.17,2.44,89,4,1.307,0.411,1.241,1.069,5.5022435,0,nan,0.0,3,0,1,8,0
408889456,1627401617400097,386218705,-91533047,48847,97073,1.549,0.447223,5.3510003,12.502001,1.17,2.44,89,6,0.87600005,-0.841,-0.246,0.014,5.5022435,0,nan,0.0,3,0,1,8,0
409091776,1627401617600098,386218702,-91533027,49596,97822,1.4860001,0.44731408,5.36,12.516001,1.17,2.44,89,6,0.48900002,-0.089,0.48100004,0.56600004,5.5022435,0,nan,0.0,3,0,1,8,0
409286501,1627401617800098,386218700,-91533012,50334,98560,1.4070001,0.4474003,5.3690004,12.512001,1.17,2.44,89,6,0.44200003,-0.33100003,-0.29200003,-0.49500003,5.5022435,0,nan,0.0,3,0,1,8,0
409491751,1627401618000098,386218688,-91533005,50771,98997,1.554,0.44749543,5.381,12.52,1.17,2.44,89,6,0.87600005,-0.86600006,0.13700001,-0.162,5.5022435,0,nan,0.0,3,0,1,8,0
409689478,1627401618200098,386218665,-91533026,50240,98466,2.0370002,0.4476204,5.4030004,12.559001,1.17,2.44,89,6,1.32,-1.121,-0.697,0.397,5.5022435,0,nan,0.0,3,0,1,8,0
409892136,1627401618400098,386218637,-91533043,50451,98676,1.7,0.76797575,5.419,12.564,1.17,2.44,89,7,1.9950001,-1.7490001,-0.96000004,-0.753,5.030697,0,nan,0.0,3,0,1,8,0
410088722,1627401618600098,386218587,-91533047,50923,99148,1.7210001,0.47268403,5.427,12.562,1.17,2.44,89,7,3.1560001,-3.1560001,0.051000003,-1.8000001,3.6487942,0,nan,0.0,3,0,1,8,0
410287610,1627401618800098,386218543,-91533057,51363,99589,1.9790001,0.6225101,5.4440002,12.586,1.17,2.44,89,7,2.421,-2.246,-0.90400004,-0.809,3.6032524,0,nan,0.0,3,0,1,8,0
410487032,1627401619000098,386218541,-91533079,51078,99304,1.6710001,0.6225837,5.464,12.613001,1.17,2.44,89,7,0.97,0.90400004,-0.35000002,-1.08,3.6032524,0,nan,0.0,3,0,1,8,0
410687761,1627401619200098,386218547,-91533097,50908,99134,1.3970001,0.62264514,5.472,12.620001,1.17,2.44,89,7,0.52900004,0.15400001,-0.50600004,-0.26000002,3.6032524,0,nan,0.0,3,0,1,8,0
410889456,1627401619400098,386218546,-91533090,51166,99392,1.4230001,0.62270796,5.4830003,12.632001,1.17,2.44,89,4,0.624,-0.108,0.615,-0.16100001,3.6032524,0,nan,0.0,3,0,1,8,0
411093543,1627401619600098,386218543,-91533072,51548,99774,1.4610001,0.6227722,5.5020003,12.661,1.17,2.44,89,4,0.564,-0.201,0.527,-0.358,3.6032524,0,nan,0.0,3,0,1,8,0
411293331,1627401619800098,386218515,-91533083,51125,99351,1.9560001,0.62289506,5.5200005,12.686001,1.17,2.44,89,4,1.9290001,-1.8720001,0.46600002,-2.0140002,3.6032524,0,nan,0.0,3,0,1,8,0
411488645,1627401620000098,386218500,-91533085,50485,98711,1.9530001,0.62298095,5.55,12.7300005,1.17,2.44,89,4,0.813,-0.32500002,0.74500006,0.80300003,3.6032524,0,nan,0.0,3,0,1,8,0
411689627,1627401620200098,386218489,-91533120,49908,98133,1.8620001,0.62306297,5.5820003,12.776001,1.17,2.44,89,4,1.6350001,-0.53000003,-1.547,0.365,3.6032524,0,nan,0.0,3,0,1,8,0
411889420,1627401620400098,386218483,-91533124,49987,98212,1.6700001,0.62313646,5.602,12.795001,1.17,2.44,89,18,0.39900002,-0.071,0.393,0.36800003,3.6032524,0,nan,0.0,3,0,1,8,0
412088709,1627401620600098,386218482,-91533137,49867,98092,1.7370001,0.62321293,5.6190004,12.815001,1.17,2.44,89,18,0.72900003,0.13900001,-0.716,0.27,3.6032524,0,nan,0.0,3,0,1,8,0
412294039,1627401620800098,386218477,-91533127,50540,98766,1.4610001,0.6232771,5.6200004,12.8,1.17,2.44,89,18,0.326,-0.28300002,0.162,-0.619,3.6032524,0,nan,0.0,3,0,1,8,0
412489557,1627401621000098,386218483,-91533104,51170,99395,1.669,0.6233506,5.6270003,12.799001,1.17,2.44,89,18,0.82600003,0.453,0.69100004,-0.597,3.6032524,0,nan,0.0,3,0,1,8,0
412694575,1627401621200098,386218491,-91533075,51986,100211,1.6500001,0.6234232,5.635,12.807,1.17,2.44,89,18,0.49500003,0.067,0.49,-0.467,3.6032524,0,nan,0.0,3,0,1,8,0
412892415,1627401621400098,386218498,-91533048,52752,100978,1.71,0.62349844,5.6450005,12.81,1.17,2.44,89,6,0.71300006,0.36200002,0.614,-1.1270001,3.6032524,0,nan,0.0,3,0,1,8,0
413089443,1627401621600098,386218512,-91533036,53029,101255,1.723,0.6235754,5.6590004,12.842001,1.17,2.44,89,6,1.0960001,0.99300003,0.46400002,-1.365,3.6032524,0,nan,0.0,3,0,1,8,0
413289590,1627401621800098,386218501,-91533030,53218,101444,1.8870001,0.6236583,5.6800003,12.876,1.17,2.44,89,6,1.3620001,-1.3590001,0.09,0.021000002,3.6032524,0,nan,0.0,3,0,1,8,0
413489523,1627401622000098,386218485,-91533025,53261,101487,1.9650002,0.6237447,5.7050004,12.9210005,1.17,2.44,89,6,0.79200006,-0.768,0.19500001,-0.646,3.6032524,0,nan,0.0,3,0,1,8,0
413690439,1627401622200098,386218485,-91533014,53164,101390,1.8140001,0.6238243,5.7260003,12.948001,1.17,2.44,89,6,0.75500005,0.15,0.74,-0.48700002,3.6032524,0,nan,0.0,3,0,1,8,0
413889608,1627401622400098,386218489,-91533006,53401,101627,1.6800001,0.6238983,5.7450004,12.9800005,1.17,2.44,89,8,0.30200002,0.28800002,-0.09200001,-0.711,3.6032524,0,nan,0.0,3,0,1,8,0
414090426,1627401622600098,386218496,-91533010,53499,101724,1.7540001,0.6239753,5.768,13.016001,1.17,2.44,89,8,0.38500002,0.326,-0.20500001,-0.64100003,3.6032524,0,nan,0.0,3,0,1,8,0
414289718,1627401622800098,386218486,-91533025,52828,101054,1.5840001,0.6240449,5.7920003,13.0460005,1.17,2.44,89,8,0.859,-0.78800005,0.34,-0.125,3.6032524,0,nan,0.0,3,0,1,8,0
414486537,1627401623000098,386218474,-91533035,52264,100489,1.6370001,0.62411684,5.8110003,13.089001,1.17,2.44,89,8,0.40800002,-0.38200003,0.143,-0.53000003,3.6032524,0,nan,0.0,3,0,1,8,0
414690346,1627401623200098,386218472,-91533035,52336,100562,1.6,0.6241871,5.8290005,13.128,1.17,2.44,89,8,0.05,-0.030000001,-0.040000003,-0.342,3.6032524,0,nan,0.0,3,0,1,8,0
414891576,1627401623400098,386218475,-91533044,52404,100629,1.582,0.6242566,5.834,13.142,1.17,2.44,88,16,0.708,0.572,-0.418,-0.80500007,3.6032524,0,nan,0.0,3,0,1,8,0
415088073,1627401623600098,386218483,-91533055,52532,100758,1.5970001,0.62432677,5.8420005,13.157001,1.17,2.44,88,16,0.64900005,0.499,-0.41400003,-1.197,3.6032524,0,nan,0.0,3,0,1,8,0
415291415,1627401623800098,386218487,-91533076,52275,100500,1.5220001,0.62439364,5.8440003,13.172001,1.17,2.44,88,16,0.60400003,0.28800002,-0.531,-0.38500002,3.6032524,0,nan,0.0,3,0,1,8,0
415488656,1627401624000098,386218489,-91533103,51885,100111,1.5450001,0.62446153,5.8510003,13.186001,1.17,2.44,88,16,0.776,0.45700002,-0.62700003,-0.70100003,3.6032524,0,nan,0.0,3,0,1,8,0
415691033,1627401624200098,386218484,-91533124,51536,99762,1.7860001,0.6245401,5.861,13.202001,1.17,2.44,88,16,0.573,-0.37100002,-0.43600002,0.011000001,3.6032524,0,nan,0.0,3,0,1,8,0
415897434,1627401624400098,386218478,-91533126,51244,99469,1.59,0.6246099,5.867,13.213,1.17,2.44,83,20,0.522,-0.16100001,0.497,0.039,3.6032524,0,nan,0.0,3,0,1,8,0
416087200,1627401624600098,386218487,-91533117,51407,99633,2.128,0.6247032,5.879,13.2560005,1.17,2.44,83,20,0.71500003,0.71300006,0.045,0.55200005,3.6032524,0,nan,0.0,3,0,1,8,0
416291692,1627401624800098,386218493,-91533100,52142,100367,1.5710001,0.6247722,5.881,13.255001,1.17,2.44,83,20,0.42600003,0.335,0.263,-0.0050000004,3.6032524,0,nan,0.0,3,0,1,8,0
416490420,1627401625000098,386218494,-91533079,52614,100839,1.639,0.6248441,5.8840003,13.268001,1.17,2.44,83,20,0.76400006,-0.294,0.70500004,-0.36900002,3.6032524,0,nan,0.0,3,0,1,8,0
416692418,1627401625200098,386218500,-91533072,52603,100829,1.6840001,0.6249179,5.8910003,13.297001,1.17,2.44,83,20,0.65500003,0.62100005,0.209,-0.057000004,3.6032524,0,nan,0.0,3,0,1,8,0
416889340,1627401625400098,386218507,-91533054,52604,100829,1.8260001,0.62499803,5.894,13.314001,1.17,2.44,83,4,1.0270001,-0.041,1.026,-0.521,3.6032524,0,nan,0.0,3,0,1,8,0
417088420,1627401625600098,386218517,-91533035,52927,101153,1.983,0.6250851,5.905,13.363001,1.17,2.44,83,4,0.70500004,0.605,0.36200002,-0.586,3.6032524,0,nan,0.0,3,0,1,8,0
417288590,1627401625800098,386218524,-91533022,52944,101169,1.817,0.62516487,5.9170003,13.389001,1.17,2.44,83,4,0.66800004,0.015000001,0.66800004,-0.367,3.6032524,0,nan,0.0,3,0,1,8,0
417490451,1627401626000098,386218528,-91533045,52473,100699,1.659,0.62523764,5.926,13.413001,1.17,2.44,83,4,1.1680001,0.344,-1.116,-0.45400003,3.6032524,0,nan,0.0,3,0,1,8,0
417689534,1627401626200098,386218546,-91533088,52213,100439,1.5830001,0.7236236,5.9350004,13.426001,1.17,2.44,83,4,2.1950002,1.144,-1.8740001,-0.23500001,4.311669,0,nan,0.0,3,0,1,8,0
417889700,1627401626400098,386218562,-91533099,52213,100439,1.682,0.72368735,5.9410005,13.452001,1.17,2.44,83,4,0.48700002,0.44200003,0.20500001,-0.33800003,4.311669,0,nan,0.0,3,0,1,8,0
418089256,1627401626600098,386218571,-91533083,52922,101148,1.639,0.72374946,5.9540005,13.496,1.17,2.44,83,4,0.068,-0.054,0.041,-0.09900001,4.311669,0,nan,0.0,3,0,1,8,0
418289606,1627401626800098,386218558,-91533059,53284,101510,1.7070001,0.7238142,5.9670005,13.521001,1.17,2.44,83,4,1.6680001,-1.404,0.90200007,0.13000001,4.311669,0,nan,0.0,3,0,1,8,0
418489446,1627401627000098,386218563,-91533058,53502,101728,1.9820001,0.7238893,5.9820004,13.562,1.17,2.44,83,4,1.036,0.89500004,-0.522,-0.716,4.311669,0,nan,0.0,3,0,1,8,0
418689737,1627401627200098,386218588,-91533070,53263,101488,1.7820001,0.723976,5.998,13.603001,1.17,2.44,83,4,1.8360001,1.8310001,0.136,-1.366,4.311669,0,nan,0.0,3,0,1,8,0
418890178,1627401627400098,386218611,-91533053,53454,101680,1.8510001,0.724046,6.024,13.661,1.17,2.44,83,7,1.3820001,0.994,0.961,-0.85600007,4.311669,0,nan,0.0,3,0,1,8,0
419090935,1627401627600098,386218603,-91533046,53946,102171,1.213,0.7241282,6.044,13.708,1.17,2.44,83,7,1.5130001,-1.4560001,-0.41200003,-1.5530001,4.311669,0,nan,0.0,3,0,1,8,0
419290317,1627401627800098,386218591,-91533060,53456,101682,1.8260001,0.7241973,6.0530005,13.735001,1.17,2.44,83,7,0.193,0.13900001,0.135,-0.22600001,4.311669,0,nan,0.0,3,0,1,8,0
419490417,1627401628000098,386218606,-91533065,53990,102215,1.618,0.7242586,6.0610003,13.768001,1.17,2.44,83,7,1.302,0.731,-1.077,-0.51100004,4.311669,0,nan,0.0,3,0,1,8,0
419684510,1627401628200098,386218617,-91533059,54275,102500,1.6680001,0.7243217,6.0750003,13.832001,1.17,2.44,83,7,0.69000006,0.27,0.63500005,-0.702,4.311669,0,nan,0.0,3,0,1,8,0
419890523,1627401628400098,386218625,-91533038,54788,103014,1.5830001,0.7243816,6.0880003,13.882001,1.17,2.44,83,4,0.36800003,0.132,0.344,-0.017,4.311669,0,nan,0.0,3,0,1,8,0
420090201,1627401628600099,386218630,-91533040,54661,102887,1.4770001,0.7244375,6.0860004,13.897,1.17,2.44,83,4,0.49400002,0.47400004,-0.13700001,-0.384,4.311669,0,nan,0.0,3,0,1,8,0
420291012,1627401628800099,386218631,-91533052,54083,102309,1.5070001,0.7244945,6.084,13.906001,1.17,2.44,83,4,0.193,0.17500001,0.083000004,-0.65300006,4.311669,0,nan,0.0,3,0,1,8,0
420487612,1627401629000099,386218624,-91533056,54059,102285,1.807,0.72456294,6.0800004,13.907001,1.17,2.44,83,4,0.62,-0.597,-0.165,-1.25,4.311669,0,nan,0.0,3,0,1,8,0
420686463,1627401629200099,386218623,-91533076,53162,101388,1.4870001,0.72461915,6.0790005,13.931001,1.17,2.44,83,4,0.878,0.878,0.015000001,-0.17400001,4.311669,0,nan,0.0,3,0,1,8,0
420891225,1627401629400099,386218626,-91533080,52817,101043,1.746,0.7246853,6.083,13.972001,1.17,2.44,83,5,0.172,0.064,0.15900001,0.18900001,4.311669,0,nan,0.0,3,0,1,8,0
421091128,1627401629600099,386218629,-91533062,53142,101368,1.47,0.724741,6.0820003,13.987,1.17,2.44,83,5,0.65300006,0.22200002,0.614,0.054,4.311669,0,nan,0.0,3,0,1,8,0
421291760,1627401629800099,386218632,-91533038,53514,101740,1.534,0.72479886,6.0810003,14.009001,1.17,2.44,83,5,0.614,-0.10700001,0.605,0.26200002,4.311669,0,nan,0.0,3,0,1,8,0
421689427,1627401630200099,386218599,-91533026,53654,101880,1.9890001,0.72493523,6.0950003,14.069,1.17,2.44,83,5,1.491,-1.4540001,0.33,0.446,4.311669,0,nan,0.0,3,0,1,8,0
421891934,1627401630400099,386218575,-91533035,53470,101696,1.9050001,0.72500736,6.11,14.093,1.17,2.44,83,23,1.11,-1.006,-0.47000003,0.554,4.311669,0,nan,0.0,3,0,1,8,0
422092730,1627401630600099,386218560,-91533034,53935,102161,1.6730001,0.72507066,6.1190004,14.108001,1.17,2.44,83,23,0.87700003,-0.77800006,-0.40500003,0.32000002,4.311669,0,nan,0.0,3,0,1,8,0
422287555,1627401630800099,386218558,-91533030,54501,102726,1.554,0.7251293,6.1210003,14.123001,1.17,2.44,83,23,0.38200003,0.335,-0.18200001,-0.565,4.311669,0,nan,0.0,3,0,1,8,0
422488886,1627401631000099,386218551,-91533037,54213,102439,1.404,0.72518253,6.122,14.141001,1.17,2.44,83,23,0.44700003,-0.43100002,0.120000005,-0.158,4.311669,0,nan,0.0,3,0,1,8,0
422688824,1627401631200099,386218549,-91533019,55110,103335,1.577,0.72524226,6.129,14.160001,1.17,2.44,83,23,0.19800001,-0.18300001,0.07700001,-0.80500007,4.311669,0,nan,0.0,3,0,1,8,0
422893194,1627401631400099,386218563,-91532991,56459,104685,1.6070001,0.72531044,6.1310005,14.174001,1.17,2.44,83,5,0.72900003,0.67,0.287,-1.6500001,4.311669,0,nan,0.0,3,0,1,8,0
423093198,1627401631600099,386218568,-91532991,56396,104622,1.659,0.7253731,6.129,14.186001,1.17,2.44,83,5,0.47700003,0.38500002,0.282,-0.85800004,4.311669,0,nan,0.0,3,0,1,8,0
423293502,1627401631800099,386218564,-91532992,56098,104323,1.674,0.72543645,6.1320004,14.211,1.17,2.44,83,5,0.531,-0.284,0.448,-0.52500004,4.311669,0,nan,0.0,3,0,1,8,0
423489749,1627401632000099,386218564,-91532975,56130,104356,1.7800001,0.7255037,6.1390004,14.240001,1.17,2.44,83,5,1.1830001,0.44000003,1.098,-0.61800003,4.311669,0,nan,0.0,3,0,1,8,0
423693724,1627401632200099,386218564,-91532942,56114,104340,1.715,0.7853695,6.1460004,14.271001,1.17,2.44,83,5,1.988,0.149,1.983,-0.85300004,3.0149848,0,nan,0.0,3,0,1,8,0
423889717,1627401632400099,386218565,-91532917,56773,104998,1.593,0.7854252,6.144,14.280001,1.17,2.44,83,4,0.374,0.23700002,0.289,-0.647,3.0149848,0,nan,0.0,3,0,1,8,0
424090210,1627401632600099,386218560,-91532918,57124,105349,1.843,0.78548944,6.1460004,14.307001,1.17,2.44,83,4,0.47100002,-0.402,-0.246,-0.94900006,3.0149848,0,nan,0.0,3,0,1,8,0
424288102,1627401632800099,386218553,-91532930,56756,104982,1.5640001,0.78554404,6.157,14.367001,1.17,2.44,83,4,0.411,0.275,0.305,-0.767,3.0149848,0,nan,0.0,3,0,1,8,0
424490423,1627401633000099,386218552,-91532955,56452,104678,1.5860001,0.78559935,6.1640005,14.396001,1.17,2.44,83,4,0.93000007,0.423,-0.82900006,-1.0150001,3.0149848,0,nan,0.0,3,0,1,8,0
424690492,1627401633200099,386218565,-91532975,56978,105204,1.5940001,0.7856762,6.1720004,14.434001,1.17,2.44,83,4,1.4430001,0.94900006,-1.087,-1.6610001,3.0149848,0,nan,0.0,3,0,1,8,0
424889432,1627401633400099,386218570,-91532989,56713,104939,1.4990001,0.7857285,6.17,14.43,1.17,2.44,83,20,0.41900003,0.252,0.335,-0.688,3.0149848,0,nan,0.0,3,0,1,8,0
425089201,1627401633600099,386218573,-91532984,56406,104632,1.4610001,0.78577954,6.1670003,14.441001,1.17,2.44,83,20,0.83900005,0.374,0.75100005,-0.1,3.0149848,0,nan,0.0,3,0,1,8,0
425289474,1627401633800099,386218557,-91532995,55200,103426,1.7630001,0.7858409,6.168,14.464001,1.17,2.44,83,20,0.92600006,-0.61700004,0.69200003,-0.41700003,3.0149848,0,nan,0.0,3,0,1,8,0
425490412,1627401634000099,386218547,-91532996,54832,103058,1.917,0.7859079,6.1780005,14.498001,1.17,2.44,83,20,0.272,-0.141,0.23200001,-0.001,3.0149848,0,nan,0.0,3,0,1,8,0
425696024,1627401634200099,386218547,-91533021,54547,102772,1.7110001,0.78596765,6.1910005,14.51,1.17,2.44,83,20,1.1780001,0.23600002,-1.154,0.202,3.0149848,0,nan,0.0,3,0,1,8,0
425895546,1627401634400099,386218545,-91533043,54037,102263,1.7820001,0.78602976,6.2050004,14.531001,1.17,2.44,83,8,0.156,0.065000005,-0.142,0.086,3.0149848,0,nan,0.0,3,0,1,8,0
426096799,1627401634600099,386218559,-91533061,53656,101881,1.5410001,0.7860835,6.2110004,14.535001,1.17,2.44,83,8,1.4670001,1.368,-0.531,0.085,3.0149848,0,nan,0.0,3,0,1,8,0
426296704,1627401634800099,386218587,-91533068,53829,102054,1.406,0.7861402,6.2100005,14.540001,1.17,2.44,83,8,1.618,1.567,-0.40300003,0.163,3.0149848,0,nan,0.0,3,0,1,8,0
426496688,1627401635000099,386218617,-91533074,53535,101761,1.5920001,0.7862076,6.2170005,14.582001,1.17,2.44,83,8,1.9280001,1.909,0.275,0.076000005,3.0149848,0,nan,0.0,3,0,1,8,0
426696417,1627401635200099,386218659,-91533085,53578,101804,1.5320001,0.6433914,6.2240005,14.589001,1.17,2.44,83,8,2.5310001,2.411,-0.76900005,0.21300001,4.787504,0,nan,0.0,3,0,1,8,0
426896636,1627401635400099,386218681,-91533109,53508,101734,1.654,0.6434617,6.229,14.601001,1.17,2.44,83,10,1.2850001,0.507,-1.1810001,0.65500003,4.787504,0,nan,0.0,3,0,1,8,0
427097512,1627401635600099,386218725,-91533116,53937,102163,1.6890001,0.5816374,6.2370005,14.617001,1.17,2.44,83,10,3.0820003,3.039,-0.507,0.615,5.519725,0,nan,0.0,3,0,1,8,0
427297527,1627401635800099,386218792,-91533145,53790,102016,1.5660001,0.39835796,6.2440004,14.629001,1.17,2.44,83,10,4.165,3.877,-1.5200001,0.70100003,5.785096,0,nan,0.0,3,0,1,8,0
427491588,1627401636000099,386218873,-91533188,53473,101698,1.6520001,0.33649108,6.2520003,14.634001,1.17,2.44,83,10,5.294,5.0410004,-1.6170001,0.15,5.894771,0,nan,0.0,3,0,1,8,0
427697123,1627401636200099,386218971,-91533243,53262,101488,1.5100001,0.25283763,6.2530003,14.626,1.17,2.44,83,10,6.2200003,5.6860003,-2.5210001,1.1550001,5.876238,0,nan,0.0,3,0,1,8,0
427893469,1627401636400099,386219077,-91533300,52947,101173,1.524,0.23894046,6.2520003,14.615001,1.17,2.44,83,15,6.4730005,6.0680003,-2.2540002,1.1140001,5.903428,0,nan,0.0,3,0,1,8,0
428093506,1627401636600099,386219194,-91533347,52953,101179,1.5120001,0.23897885,6.2510004,14.606001,1.17,2.44,83,15,6.8580003,6.5030003,-2.1790001,0.82400006,5.9317617,0,nan,0.0,3,0,1,8,0
428292460,1627401636800099,386219316,-91533401,53298,101524,1.667,0.2357692,6.2510004,14.619,1.17,2.44,83,15,7.2590003,6.5680003,-3.091,0.51500005,5.8868275,0,nan,0.0,3,0,1,8,0
428497445,1627401637000099,386219436,-91533457,53865,102091,1.6190001,0.23581824,6.255,14.629001,1.17,2.44,83,15,6.965,6.3290005,-2.907,0.15100001,5.8696423,0,nan,0.0,3,0,1,8,0
428697598,1627401637200099,386219575,-91533535,54427,102653,2.005,0.19005223,6.2700005,14.659,1.17,2.44,83,15,9.113001,8.185,-4.007,-1.478,5.827985,0,nan,0.0,3,0,1,8,0
428893608,1627401637400099,386219736,-91533632,55067,103293,1.7580001,0.16847418,6.2890005,14.694,1.17,2.44,83,13,10.186001,9.141001,-4.4940004,-2.4740002,5.826216,0,nan,0.0,3,0,1,8,0
429087744,1627401637600099,386219900,-91533747,55249,103475,2.061,0.18633343,6.314,14.747001,1.17,2.44,83,13,10.476001,9.385,-4.655,-2.9970002,5.8227415,0,nan,0.0,3,0,1,8,0
429289492,1627401637800099,386220041,-91533864,55917,104143,2.1780002,0.24868096,6.347,14.795001,1.17,2.44,83,13,9.024,7.2750006,-5.34,-3.0000002,5.650017,0,nan,0.0,3,0,1,8,0
429493591,1627401638000099,386220183,-91533979,56924,105150,2.2510002,0.22810283,6.3830004,14.837001,1.17,2.44,83,13,9.627001,8.044001,-5.289,-3.3320003,5.701592,0,nan,0.0,3,0,1,8,0
429692785,1627401638200099,386220336,-91534124,57919,106145,2.0300002,0.17041203,6.4150004,14.887001,1.17,2.44,83,13,10.929001,8.5130005,-6.854,-3.0110002,5.6053305,0,nan,0.0,3,0,1,8,0
430090196,1627401638600099,386220604,-91534473,58205,106430,2.127,0.2167603,6.4690003,14.966001,1.17,2.44,83,8,10.453,5.6940002,-8.766001,-1.5220001,5.2884755,0,nan,0.0,3,0,1,8,0
430294196,1627401638800099,386220716,-91534610,58774,107000,2.114,0.24370712,6.5070004,15.02,1.42,3.1999998,83,8,8.082001,6.313,-5.0470004,-3.1380002,5.608756,0,nan,0.0,3,0,1,7,0
430488827,1627401639000099,386220826,-91534719,59781,108007,2.1880002,0.24182251,6.543,15.082001,1.42,3.1999998,83,8,7.8960004,6.0140004,-5.116,-2.513,5.578375,0,nan,0.0,3,0,1,7,0
430694423,1627401639200099,386220959,-91534821,61431,109657,1.9030001,0.17653586,6.5610003,15.093,1.17,2.44,83,8,9.339001,7.7230005,-5.2510004,-3.3000002,5.686052,0,nan,0.0,3,0,1,8,0
430889662,1627401639400099,386221110,-91534907,63331,111557,1.8610001,0.18025133,6.5690002,15.097001,1.17,2.44,83,21,9.579,8.400001,-4.604,-3.2480001,5.7817574,0,nan,0.0,3,0,1,8,0
431095714,1627401639600100,386221227,-91534997,64636,112862,1.8950001,0.29328722,6.5820003,15.110001,1.17,2.44,83,21,7.175,5.466,-4.6480002,-2.9620001,5.725503,0,nan,0.0,3,0,1,8,0
431290888,1627401639800100,386221360,-91535110,65316,113542,1.7190001,0.16479084,6.589,15.115001,1.17,2.44,83,21,9.646001,8.024,-5.354,-1.8730001,5.694731,0,nan,0.0,3,0,1,8,0
431495099,1627401640000100,386221507,-91535199,66082,114308,1.7300001,0.19390275,6.596,15.126,1.17,2.44,83,21,8.912001,8.054001,-3.8150003,-1.8920001,5.8408284,0,nan,0.0,3,0,1,8,0
431691189,1627401640200100,386221678,-91535280,67234,115460,2.0340002,0.16217704,6.6050005,15.176001,1.17,2.44,83,21,10.759001,9.88,-4.26,-2.4840002,5.876139,0,nan,0.0,3,0,1,8,0
431895257,1627401640400100,386221853,-91535385,67724,115950,2.059,0.15554687,6.6010003,15.212001,1.17,2.44,83,18,10.417001,9.193001,-4.899,-2.249,5.793559,0,nan,0.0,3,0,1,8,0
432090499,1627401640600100,386222044,-91535472,69078,117304,1.6710001,0.13304976,6.5930004,15.212001,1.17,2.44,83,18,11.626,10.749001,-4.4290004,-1.6940001,5.8923044,0,nan,0.0,3,0,1,8,0
432290541,1627401640800100,386222235,-91535567,69481,117707,1.452,0.12477114,6.5790005,15.191001,1.17,2.44,83,18,11.044001,10.271001,-4.059,-2.144,5.9068193,0,nan,0.0,3,0,1,8,0
432490458,1627401641000100,386222413,-91535689,69378,117604,1.5830001,0.12782599,6.5680003,15.186001,1.17,2.44,83,18,11.136001,9.814,-5.262,-1.7800001,5.791038,0,nan,0.0,3,0,1,8,0
432695841,1627401641200100,386222608,-91535799,70076,118302,1.5790001,0.11985909,6.5610003,15.193001,1.17,2.44,83,18,12.188001,11.195001,-4.8180003,-2.4420002,5.8767786,0,nan,0.0,3,0,1,8,0
432890793,1627401641400100,386222815,-91535905,71003,119229,1.5940001,0.12129793,6.5540004,15.188001,1.17,2.44,83,7,12.460001,11.378,-5.078,-2.4580002,5.863435,0,nan,0.0,3,0,1,8,0
433096059,1627401641600100,386223021,-91536030,71443,119669,1.6580001,0.12599479,6.556,15.215001,1.17,2.44,83,7,12.870001,11.547001,-5.6840005,-1.8080001,5.825725,0,nan,0.0,3,0,1,8,0
433291010,1627401641800100,386223265,-91536144,71153,119379,2.0070002,0.111727595,6.5600004,15.254001,1.17,2.44,83,7,15.700001,15.170001,-4.046,0.149,6.022549,0,nan,0.0,3,0,1,8,0
433496397,1627401642000100,386223504,-91536232,70598,118825,2.236,0.1500374,6.576,15.294001,1.17,2.44,83,7,13.540001,13.195001,-3.0360003,-1.531,6.0570455,0,nan,0.0,3,0,1,8,0
433691663,1627401642200100,386223728,-91536288,71365,119591,2.1780002,0.15881744,6.6000004,15.340001,1.17,2.44,83,7,12.499001,12.153001,-2.924,-1.6860001,6.047099,0,nan,0.0,3,0,1,8,0
433896665,1627401642400100,386223929,-91536355,71973,120199,2.237,0.18898825,6.629,15.386001,1.17,2.44,83,7,11.405001,10.882001,-3.4140003,-1.72,5.9791985,0,nan,0.0,3,0,1,8,0
434095901,1627401642600100,386224169,-91536442,73910,122136,1.8900001,0.12508878,6.6470003,15.398001,1.17,2.44,83,7,14.444,13.427001,-5.3230004,-3.482,5.9057693,0,nan,0.0,3,0,1,8,0
434289448,1627401642800100,386224391,-91536542,76000,124226,1.8240001,0.14000228,6.6600003,15.415001,1.17,2.44,83,7,12.895,11.477,-5.8780003,-3.1380002,5.8098454,0,nan,0.0,3,0,1,8,0
434492935,1627401643000100,386224618,-91536664,77060,125286,1.7470001,0.12152029,6.669,15.438001,1.17,2.44,83,7,14.375001,13.142,-5.826,-2.894,5.8659043,0,nan,0.0,3,0,1,8,0
434688766,1627401643200100,386224855,-91536787,78060,126286,1.7680001,0.12766297,6.682,15.47,1.17,2.44,83,7,14.498001,13.266001,-5.8500004,-3.466,5.867822,0,nan,0.0,3,0,1,8,0
434893427,1627401643400100,386225098,-91536917,79076,127303,1.6750001,0.113755144,6.688,15.4800005,1.17,2.44,82,10,14.957001,13.562,-6.308,-2.8400002,5.847825,0,nan,0.0,3,0,1,8,0
435097560,1627401643600100,386225347,-91537055,80003,128229,1.6150001,0.107064255,6.689,15.479001,1.17,2.44,82,10,15.601001,14.097001,-6.6840005,-2.0990002,5.840428,0,nan,0.0,3,0,1,8,0
435287833,1627401643800100,386225613,-91537193,81329,129555,1.6700001,0.10218588,6.689,15.481001,1.17,2.44,82,10,16.582,15.010001,-7.0460005,-2.5270002,5.844305,0,nan,0.0,3,0,1,8,0
435497672,1627401644000100,386225869,-91537317,82615,130842,1.9480001,0.1347717,6.6990004,15.519001,1.17,2.44,82,10,14.926001,13.723001,-5.872,-3.1330001,5.8788724,0,nan,0.0,3,0,1,8,0
435697450,1627401644200100,386226103,-91537428,82948,131174,1.909,0.13873954,6.7170005,15.545001,1.17,2.44,82,10,13.846001,13.116,-4.438,-1.5630001,5.9569407,0,nan,0.0,3,0,1,8,0
435889455,1627401644400100,386226377,-91537551,83485,131711,1.9940001,0.11460966,6.729,15.580001,1.17,2.44,82,10,17.272001,16.094,-6.2690005,-0.647,5.91175,0,nan,0.0,3,0,1,8,0
436088401,1627401644600100,386226668,-91537716,83521,131747,1.7600001,0.10184624,6.7380004,15.590001,1.17,2.44,82,10,18.147001,16.498001,-7.5580006,-1.092,5.853589,0,nan,0.0,3,0,1,8,0
436292790,1627401644800100,386226956,-91537871,83894,132121,1.6890001,0.0982458,6.7430005,15.582001,1.17,2.44,82,10,17.518002,16.062,-6.9930005,-0.047000002,5.8725348,0,nan,0.0,3,0,1,8,0
436498578,1627401645000100,386227254,-91538025,83853,132080,1.8280001,0.100440376,6.747,15.584001,1.17,2.44,82,10,18.452002,17.225,-6.617,-0.93000007,5.9164386,0,nan,0.0,3,0,1,8,0
436693453,1627401645200100,386227574,-91538155,83825,132051,1.595,0.09244432,6.7450004,15.559001,1.17,2.44,82,10,19.183,18.371,-5.5220003,0.66200006,5.9911847,0,nan,0.0,3,0,1,8,0
436889680,1627401645400100,386227902,-91538280,84107,132333,1.886,0.10614725,6.7500005,15.556001,1.17,2.44,82,6,19.238,18.244001,-6.103,-0.15300001,5.9603662,0,nan,0.0,3,0,1,8,0
437093743,1627401645600100,386228231,-91538367,84757,132984,2.061,0.105835885,6.7580004,15.564001,1.17,2.44,82,6,18.704,18.328001,-3.7300003,-1.914,6.0824327,0,nan,0.0,3,0,1,8,0
437289720,1627401645800100,386228556,-91538407,86148,134374,2.0110002,0.10918413,6.7690005,15.579,1.17,2.44,82,6,18.228,18.091002,-2.226,-3.6970003,6.1607394,0,nan,0.0,3,0,1,8,0
437499843,1627401646000100,386228878,-91538444,87196,135423,2.102,0.11149302,6.787,15.607,1.17,2.44,82,6,18.308,18.220001,-1.7930001,-4.8830004,6.1851187,0,nan,0.0,3,0,1,8,0
437689182,1627401646200100,386229164,-91538468,88107,136334,1.9840001,0.1301485,6.8050003,15.644001,1.17,2.44,82,6,15.864,15.845001,-0.768,-6.42,6.234736,0,nan,0.0,3,0,1,8,0
437889428,1627401646400100,386229417,-91538426,89905,138132,1.853,0.12749264,6.813,15.648001,1.17,2.44,82,27,14.646001,14.535001,1.7980001,-9.333,0.12308637,0,nan,0.0,3,0,1,8,0
438089617,1627401646600100,386229640,-91538381,92163,140390,1.8600001,0.13747434,6.8090005,15.625001,1.17,2.44,82,27,12.236001,12.1970005,0.97,-8.666,0.07936448,0,nan,0.0,3,0,1,8,0
438292427,1627401646800100,386229838,-91538358,93080,141307,1.616,0.14254993,6.7980003,15.598001,1.17,2.44,82,27,11.858001,11.791,1.251,-7.8560004,0.10572716,0,nan,0.0,3,0,1,8,0
438489777,1627401647000100,386230073,-91538311,93475,141702,1.871,0.10857518,6.7850003,15.568001,1.17,2.44,82,27,15.231001,14.927001,3.025,-6.3440003,0.19992013,0,nan,0.0,3,0,1,8,0
438692420,1627401647200100,386230346,-91538237,94083,142310,2.1000001,0.1037792,6.7860003,15.558001,1.17,2.44,82,27,16.493,16.126001,3.4600003,-5.545,0.21138084,0,nan,0.0,3,0,1,8,0
438894864,1627401647400100,386230611,-91538149,94856,143083,2.154,0.125955,6.801,15.589001,1.17,2.44,82,8,15.22,14.587001,4.3440003,-5.1990004,0.28940576,0,nan,0.0,3,0,1,8,0
439090467,1627401647600100,386230875,-91537999,96558,144785,2.114,0.13075377,6.8160005,15.613001,1.17,2.44,82,8,15.820001,14.428,6.4880004,-4.03,0.4225681,0,nan,0.0,3,0,1,8,0
439291764,1627401647800100,386231106,-91537865,96235,144461,1.8840001,0.108629815,6.7950006,15.574,1.17,2.44,82,8,15.014001,13.580001,6.4030004,-2.0900002,0.44062737,0,nan,0.0,3,0,1,8,0
439691415,1627401648200100,386231568,-91537518,94570,142797,2.167,0.10432059,6.78,15.555,1.17,2.44,82,8,16.730001,13.132001,10.365001,-2.23,0.6681946,0,nan,0.0,3,0,1,8,0
439889971,1627401648400100,386231799,-91537263,94256,142483,2.003,0.08967152,6.775,15.540001,1.17,2.44,82,32,18.007,13.264001,12.179001,-2.832,0.7427664,0,nan,0.0,3,0,1,8,0
440092456,1627401648600100,386232024,-91537019,93381,141607,1.7600001,0.091087505,6.755,15.511001,1.17,2.44,82,32,17.380001,13.088,11.436001,-2.0470002,0.7181129,0,nan,0.0,3,0,1,8,0
440286065,1627401648800100,386232242,-91536773,92619,140846,1.835,0.09823464,6.734,15.482,1.31,2.44,82,32,17.109001,12.51,11.6710005,-1.312,0.75071615,0,nan,0.0,3,0,1,7,0
440490455,1627401649000100,386232438,-91536501,92457,140684,1.8270001,0.10837394,6.729,15.467001,1.31,2.44,82,32,16.388,10.650001,12.456,-1.246,0.86340004,0,nan,0.0,3,0,1,7,0
440690296,1627401649200100,386232620,-91536233,92508,140734,1.9310001,0.11332335,6.7250004,15.468,1.31,2.44,82,32,15.346001,10.200001,11.465,-0.54300004,0.8437608,0,nan,0.0,3,0,1,7,0
440890775,1627401649400100,386232810,-91535949,92970,141196,2.196,0.12824155,6.7330003,15.508,1.31,2.44,82,21,16.326,10.522,12.484,-0.75200003,0.870473,0,nan,0.0,3,0,1,7,0
441091415,1627401649600100,386232994,-91535672,93246,141473,1.7500001,0.108017206,6.7190003,15.503001,1.31,2.44,82,21,16.053001,10.1640005,12.426001,0.047000002,0.88521266,0,nan,0.0,3,0,1,7,0
441491597,1627401650000100,386233316,-91535151,92794,141021,1.871,0.11411416,6.688,15.484001,1.31,2.44,82,21,14.661,9.097,11.497001,0.51500005,0.9014456,0,nan,0.0,3,0,1,7,0
441688626,1627401650200100,386233486,-91534889,93113,141340,1.84,0.12197425,6.6910005,15.515,1.31,2.44,82,21,14.551001,9.369,11.134001,0.087000005,0.8712704,0,nan,0.0,3,0,1,7,0
441888598,1627401650400100,386233640,-91534650,92561,140787,1.8010001,0.13083564,6.6930003,15.532001,1.31,2.44,83,6,13.813001,8.758,10.681001,0.21200001,0.88398826,0,nan,0.0,3,0,1,7,0
442088612,1627401650600100,386233784,-91534418,92971,141197,2.407,0.19254035,6.7130003,15.575001,1.31,2.44,83,6,12.321001,7.6040006,9.695001,-1.1680001,0.90569234,0,nan,0.0,3,0,1,7,0
442292518,1627401650800100,386233928,-91534182,92675,140902,2.1790001,0.15745331,6.741,15.592001,1.31,2.44,83,6,13.9210005,8.422,11.084001,-0.128,0.9210082,0,nan,0.0,3,0,1,7,0
442492582,1627401651000101,386234077,-91533934,91710,139937,1.8050001,0.13605173,6.742,15.588,1.31,2.44,83,6,14.774001,8.971001,11.739,0.201,0.91824245,0,nan,0.0,3,0,1,7,0
442692431,1627401651200101,386234246,-91533661,91291,139518,1.7780001,0.123752564,6.7390003,15.581,1.31,2.44,83,6,15.693001,9.632001,12.3880005,0.98100007,0.90990055,0,nan,0.0,3,0,1,7,0
442893665,1627401651400101,386234415,-91533375,90518,138745,2.161,0.11190073,6.7430005,15.587001,1.31,2.44,83,9,16.238,9.846001,12.912001,0.41900003,0.919305,0,nan,0.0,3,0,1,7,0
443087971,1627401651600101,386234568,-91533069,89967,138194,2.184,0.12487184,6.7560005,15.611001,1.31,2.44,83,9,16.221,8.606,13.750001,1.269,1.0115601,0,nan,0.0,3,0,1,7,0
443293215,1627401651800101,386234730,-91532685,90093,138320,2.213,0.08939908,6.7690005,15.614,1.31,2.44,83,9,19.730001,8.571,17.771,1.6990001,1.1213946,0,nan,0.0,3,0,1,7,0
443493455,1627401652000101,386234871,-91532292,89505,137732,2.039,0.096640445,6.7790003,15.604001,1.31,2.44,83,9,18.910002,7.8970003,17.182001,0.587,1.1399549,0,nan,0.0,3,0,1,7,0
443694245,1627401652200101,386234966,-91531875,88325,136552,1.866,0.09407499,6.7860003,15.620001,1.31,2.44,83,9,19.783,5.116,19.11,0.99700004,1.3092421,0,nan,0.0,3,0,1,7,0
444094812,1627401652600101,386235010,-91530953,86604,134831,1.6580001,0.08587247,6.7710004,15.56,1.31,2.44,83,6,20.327002,-0.735,20.314001,-1.6860001,1.6069773,0,nan,0.0,3,0,1,7,0
444290100,1627401652800101,386234993,-91530495,86057,134284,1.6450001,0.08379029,6.7240005,15.454,1.31,2.44,83,6,21.069,-0.19000001,21.068,-3.1000001,1.579791,0,nan,0.0,3,0,1,7,0
444493965,1627401653000101,386234983,-91530018,86717,134944,1.825,0.11510499,6.7250004,15.427001,1.31,2.44,83,6,21.004002,-0.83000004,20.988,-3.2800002,1.6103021,0,nan,0.0,3,0,1,7,0
444688720,1627401653200101,386234934,-91529562,87572,135799,1.8900001,0.121812105,6.742,15.423,1.31,2.44,83,6,20.207,-3.282,19.939001,-5.0330005,1.7339476,0,nan,0.0,3,0,1,7,0
444894319,1627401653400101,386234863,-91529108,87857,136084,1.6980001,0.101355456,6.7440004,15.372001,1.31,2.44,83,27,21.496,-3.6720002,21.18,-5.8490005,1.7424806,0,nan,0.0,3,0,1,7,0
445089475,1627401653600101,386234807,-91528604,88211,136438,1.702,0.094851315,6.7500005,15.333001,1.31,2.44,83,27,23.298,-2.743,23.136002,-5.214,1.6888014,0,nan,0.0,3,0,1,7,0
445295274,1627401653800101,386234731,-91528103,89095,137322,1.4990001,0.08275042,6.7200003,15.199,1.17,2.44,83,27,23.043001,-4.8650002,22.523,-6.8180003,1.7835456,0,nan,0.0,3,0,1,8,0
445495754,1627401654000101,386234634,-91527600,89732,137959,1.4940001,0.08995776,6.721,15.148001,1.31,2.44,83,27,23.066002,-5.208,22.470001,-6.5390005,1.798542,0,nan,0.0,3,0,1,7,0
445695200,1627401654200101,386234529,-91527098,90492,138719,1.7310001,0.105237596,6.7230005,15.135001,1.17,2.44,83,27,23.077002,-6.202,22.228,-5.617,1.8428859,0,nan,0.0,3,0,1,8,0
445890535,1627401654400101,386234406,-91526610,91383,139610,1.598,0.090036824,6.7130003,15.108001,1.17,2.44,83,7,22.832,-7.385,21.604,-4.8960004,1.9001714,0,nan,0.0,3,0,1,8,0
446094974,1627401654600101,386234280,-91526114,92214,140441,1.7030001,0.106304154,6.7170005,15.088,1.3399999,2.55,83,7,23.146002,-7.1730003,22.006,-4.1060004,1.8859065,0,nan,0.0,3,0,1,7,0
446289626,1627401654800101,386234144,-91525616,92033,140260,1.7540001,0.098800294,6.7190003,15.047001,1.3399999,2.55,83,7,24.089,-7.906,22.755001,-2.2250001,1.9051731,0,nan,0.0,3,0,1,7,0
446496083,1627401655000101,386233988,-91525107,91953,140180,1.8460001,0.108529285,6.7390003,15.053,1.3399999,2.55,83,7,24.188002,-8.954,22.470001,-1.743,1.9500171,0,nan,0.0,3,0,1,7,0
446690091,1627401655200101,386233772,-91524620,92387,140613,1.6730001,0.09067178,6.7530003,15.033001,1.3399999,2.55,83,7,24.488,-12.689,20.944,-1.3720001,2.1154914,0,nan,0.0,3,0,1,7,0
446895609,1627401655400101,386233515,-91524155,91628,139854,1.6010001,0.08379535,6.7580004,15.011001,1.3399999,2.55,83,6,25.091002,-14.049001,20.789001,-0.79,2.165085,0,nan,0.0,3,0,1,7,0
447090462,1627401655600101,386233254,-91523675,91398,139625,1.5070001,0.07733624,6.7590003,14.983001,1.3399999,2.55,83,6,25.929,-14.339001,21.603,-1.182,2.1567583,0,nan,0.0,3,0,1,7,0
447295858,1627401655800101,386233020,-91523199,91312,139539,1.5970001,0.07518966,6.7330003,14.905001,1.3399999,2.55,83,6,24.720001,-12.705001,21.205002,-1.616,2.110595,0,nan,0.0,3,0,1,7,0
447490540,1627401656000101,386232766,-91522725,91910,140137,1.7750001,0.08182871,6.7370005,14.910001,1.3399999,2.55,83,6,25.353,-15.066001,20.391,-1.6040001,2.2071152,0,nan,0.0,3,0,1,7,0
447696010,1627401656200101,386232489,-91522269,92667,140894,1.817,0.08427426,6.7440004,14.908001,1.3399999,2.55,83,6,25.488,-16.132,19.734001,-1.6500001,2.2561057,0,nan,0.0,3,0,1,7,0
447891974,1627401656400101,386232165,-91521829,92834,141060,2.072,0.08592029,6.7520003,14.900001,1.3399999,2.55,83,15,27.042002,-18.625,19.606,-1.9750001,2.3305464,0,nan,0.0,3,0,1,7,0
448100804,1627401656600101,386231846,-91521394,92857,141084,1.577,0.06938888,6.7320004,14.845,1.17,2.4299998,83,15,26.924002,-17.803001,20.197,-1.6040001,2.2932782,0,nan,0.0,3,0,1,8,0
448286321,1627401656800101,386231533,-91520962,92441,140668,1.6,0.066511706,6.7030005,14.783001,1.17,2.4299998,83,15,26.033,-17.192001,19.548,-1.5690001,2.2921603,0,nan,0.0,3,0,1,8,0
448696538,1627401657200101,386230913,-91520067,92885,141112,1.58,0.07348133,6.6730003,14.678,1.17,2.4299998,83,15,26.738,-16.995,20.642,-1.6630001,2.2595873,0,nan,0.0,3,0,1,8,0
448891570,1627401657400101,386230570,-91519625,92425,140652,1.429,0.062390804,6.663,14.641001,1.17,2.4299998,83,9,28.334002,-19.907001,20.162,-2.505,2.349845,0,nan,0.0,3,0,1,8,0
449091563,1627401657600101,386230181,-91519180,92160,140387,1.8310001,0.061993223,6.6640005,14.644001,1.17,2.4299998,83,9,29.371002,-21.701,19.792002,-3.045,2.4021769,0,nan,0.0,3,0,1,8,0
449289445,1627401657800101,386229782,-91518761,92340,140567,1.7910001,0.07049035,6.668,14.635,1.17,2.4299998,83,9,28.857002,-22.331001,18.277,-2.6850002,2.4556847,0,nan,0.0,3,0,1,8,0
449491752,1627401658000101,386229369,-91518377,92627,140854,1.868,0.06652863,6.675,14.626,1.17,2.4299998,83,9,28.79,-23.300001,16.911001,-1.863,2.5137808,0,nan,0.0,3,0,1,8,0
449697229,1627401658200101,386228918,-91518037,92240,140467,1.8920001,0.0760522,6.6870003,14.607,1.17,2.4299998,83,9,29.034002,-25.077002,14.632001,-2.535,2.6134067,0,nan,0.0,3,0,1,8,0
449891867,1627401658400101,386228500,-91517662,91324,139551,1.5790001,0.09200607,6.6910005,14.516001,1.17,2.4299998,83,8,28.949001,-22.501001,18.214,-2.0080001,2.4611104,0,nan,0.0,3,0,1,8,0
450097480,1627401658600101,386228081,-91517271,90870,139096,1.774,0.08918894,6.7100005,14.475,1.17,2.4299998,83,8,28.257002,-22.506,17.087,-2.0410001,2.4922283,0,nan,0.0,3,0,1,8,0
450292090,1627401658800101,386227668,-91516892,89803,138029,2.102,0.0890439,6.7320004,14.468,1.17,2.4299998,83,8,27.213001,-21.515001,16.663,-1.8280001,2.482616,0,nan,0.0,3,0,1,8,0
450497484,1627401659000101,386227249,-91516519,90045,138271,2.1220002,0.071844384,6.7490005,14.460001,1.17,2.4299998,83,8,29.140001,-23.871,16.713001,-1.5710001,2.5307744,0,nan,0.0,3,0,1,8,0
450697522,1627401659200101,386226800,-91516154,90256,138482,2.0630002,0.06941751,6.7580004,14.446001,1.17,2.4299998,83,8,29.818,-25.272001,15.827001,-2.278,2.582089,0,nan,0.0,3,0,1,8,0
450888769,1627401659400101,386226325,-91515798,90418,138645,2.0240002,0.0630104,6.762,14.427001,1.17,2.4299998,83,16,30.616001,-26.357,15.577001,-3.0240002,2.6078131,0,nan,0.0,3,0,1,8,0
451092646,1627401659600101,386225844,-91515450,89802,138028,2.0110002,0.064413115,6.767,14.408001,1.17,2.4299998,83,16,30.257002,-26.087002,15.329,-2.1560001,2.6103258,0,nan,0.0,3,0,1,8,0
451289506,1627401659800101,386225370,-91515116,88825,137051,1.8040001,0.05714871,6.7440004,14.342001,1.17,2.4299998,83,16,30.019001,-26.105001,14.8220005,-2.14,2.62519,0,nan,0.0,3,0,1,8,0
451492964,1627401660000101,386224922,-91514802,88495,136721,2.02,0.061034687,6.7460003,14.332001,1.17,2.4299998,83,16,27.968,-24.565,13.370001,-1.36,2.6431584,0,nan,0.0,3,0,1,8,0
451698274,1627401660200101,386224467,-91514513,88238,136464,2.174,0.05686492,6.7500005,14.335001,1.17,2.4299998,83,16,28.418001,-25.462002,12.619,-1.2420001,2.6814637,0,nan,0.0,3,0,1,8,0
452098184,1627401660600101,386223567,-91513928,88312,136538,2.029,0.048071254,6.729,14.327001,1.17,2.4299998,83,8,28.482002,-25.398,12.89,-1.095,2.671954,0,nan,0.0,3,0,1,8,0
452293495,1627401660800102,386223121,-91513649,88162,136388,2.1130002,0.054612227,6.7260003,14.328001,1.17,2.4299998,83,8,27.766,-24.905,12.275001,-0.45600003,2.683664,0,nan,0.0,3,0,1,8,0
452498754,1627401661000102,386222655,-91513353,87702,135928,2.1200001,0.055342294,6.727,14.335001,1.17,2.4299998,83,8,29.184002,-25.911001,13.427001,-0.179,2.6634865,0,nan,0.0,3,0,1,8,0
452693499,1627401661200102,386222186,-91513047,87694,135920,2.055,0.05688918,6.728,14.338,1.17,2.4299998,83,8,29.44,-26.241001,13.348001,-0.89900005,2.6710346,0,nan,0.0,3,0,1,8,0
452899159,1627401661400102,386221713,-91512755,87322,135548,2.0760002,0.06337011,6.728,14.334001,1.17,2.4299998,83,9,28.840002,-25.789001,12.910001,-1.113,2.6774747,0,nan,0.0,3,0,1,8,0
453095611,1627401661600102,386221223,-91512493,87413,135639,2.331,0.06656982,6.7390003,14.358001,1.17,2.4299998,83,9,29.622002,-27.491001,11.033001,-1.187,2.7599416,0,nan,0.0,3,0,1,8,0
453299339,1627401661800102,386220746,-91512211,87712,135938,2.226,0.06432376,6.7500005,14.370001,1.17,2.4299998,83,9,29.725002,-26.7,13.065001,-0.9250001,2.686524,0,nan,0.0,3,0,1,8,0
453490491,1627401662000102,386220249,-91511933,87807,136033,2.3200002,0.0653076,6.7650003,14.386001,1.17,2.4299998,83,9,30.284002,-27.774002,12.070001,-1.0660001,2.731647,0,nan,0.0,3,0,1,8,0
453699612,1627401662200102,386219777,-91511651,87989,136215,2.088,0.0636265,6.7690005,14.378,1.17,2.4299998,83,9,29.141,-26.142002,12.877001,-0.827,2.6838806,0,nan,0.0,3,0,1,8,0
453894434,1627401662400102,386219315,-91511345,88557,136783,2.141,0.06350276,6.7780004,14.385,1.17,2.4299998,83,27,29.405,-26.029001,13.681001,-1.5000001,2.6576755,0,nan,0.0,3,0,1,8,0
454094456,1627401662600102,386218824,-91511081,88294,136520,2.0970001,0.054768607,6.7770004,14.374001,1.17,2.4299998,83,27,29.398,-27.113,11.363001,-1.514,2.744724,0,nan,0.0,3,0,1,8,0
454289452,1627401662800102,386218353,-91510844,88436,136662,2.377,0.06578163,6.7900004,14.385,1.17,2.4299998,83,27,27.884,-26.003002,10.068001,-2.0830002,2.7721684,0,nan,0.0,3,0,1,8,0
454490129,1627401663000102,386217879,-91510607,88701,136927,2.1100001,0.06037006,6.8,14.370001,1.17,2.4299998,83,27,28.941002,-26.882002,10.719001,-1.1010001,2.7621746,0,nan,0.0,3,0,1,8,0
454690830,1627401663200102,386217411,-91510358,88757,136983,2.0600002,0.056292627,6.8020005,14.356001,1.17,2.4299998,83,27,28.552002,-26.235,11.265,-0.70000005,2.7360113,0,nan,0.0,3,0,1,8,0
454891165,1627401663400102,386216948,-91510111,89120,137346,2.0760002,0.059476107,6.8030005,14.342001,1.17,2.4299998,83,7,28.281002,-26.232,10.570001,-0.98,2.7585557,0,nan,0.0,3,0,1,8,0
455101451,1627401663600102,386216454,-91509895,88645,136871,2.055,0.046513196,6.793,14.314001,1.17,2.4299998,83,7,29.210001,-27.525002,9.778001,-1.169,2.8002558,0,nan,0.0,3,0,1,8,0
455291173,1627401663800102,386215974,-91509690,88915,137141,2.0340002,0.041633785,6.774,14.26,1.17,2.4299998,83,7,28.583002,-27.171001,8.872001,-1.2830001,2.8259706,0,nan,0.0,3,0,1,8,0
455491607,1627401664000102,386215501,-91509491,89413,137638,2.14,0.045239802,6.7640004,14.238001,1.17,2.4299998,83,7,28.45,-27.169,8.438001,-0.698,2.8404565,0,nan,0.0,3,0,1,8,0
455692056,1627401664200102,386215001,-91509323,88770,136995,2.079,0.045392524,6.7590003,14.215001,1.17,2.4299998,83,7,28.768002,-27.862001,7.163,-0.462,2.8899672,0,nan,0.0,3,0,1,8,0
455900897,1627401664400102,386214494,-91509181,87712,135938,2.089,0.04421495,6.754,14.1970005,1.17,2.4299998,83,7,28.459002,-27.714,6.4680004,0.028,2.912318,0,nan,0.0,3,0,1,8,0
456101456,1627401664600102,386213980,-91509052,87101,135327,2.066,0.0419907,6.7490005,14.174001,1.17,2.4299998,83,7,29.335001,-28.833002,5.4030004,-0.16600001,2.9563627,0,nan,0.0,3,0,1,8,0
456301524,1627401664800102,386213475,-91508931,87461,135687,1.8490001,0.037977315,6.715,14.099001,1.17,2.4299998,83,7,29.997002,-29.682001,4.3310003,0.337,2.9966986,0,nan,0.0,3,0,1,8,0
456499982,1627401665000102,386212948,-91508841,86928,135153,1.7880001,0.03603651,6.681,14.040001,1.17,2.4299998,83,7,29.958002,-29.761002,3.4350002,0.71900004,3.0266736,0,nan,0.0,3,0,1,8,0
456701360,1627401665200102,386212406,-91508781,86192,134417,1.7800001,0.038147837,6.6610003,13.981001,1.17,2.4299998,83,7,30.251001,-30.157001,2.3820002,1.07,3.062785,0,nan,0.0,3,0,1,8,0
456895922,1627401665400102,386211875,-91508749,85769,133994,1.8850001,0.039715663,6.649,13.943001,1.17,2.4299998,83,28,29.792002,-29.785002,0.652,1.9740001,3.119717,0,nan,0.0,3,0,1,8,0
457101597,1627401665600102,386211327,-91508748,84057,132283,1.6930001,0.037587583,6.623,13.845,1.17,2.4299998,83,28,29.904001,-29.898,0.61800003,2.709,3.1209142,0,nan,0.0,3,0,1,8,0
457296444,1627401665800102,386210775,-91508756,82897,131123,1.577,0.03470657,6.5880003,13.729001,1.17,2.4299998,83,28,30.756,-30.748001,-0.68,2.6190002,3.1637144,0,nan,0.0,3,0,1,8,0
457501743,1627401666000102,386210238,-91508786,82680,130905,1.7450001,0.03693518,6.57,13.679001,1.17,2.4299998,83,28,30.326002,-30.253002,-2.112,2.6230001,3.2112746,0,nan,0.0,3,0,1,8,0
457696578,1627401666200102,386209721,-91508825,82645,130871,1.7450001,0.039589826,6.5550003,13.6380005,1.17,2.4299998,83,28,28.942001,-28.887001,-1.7780001,1.6110001,3.203065,0,nan,0.0,3,0,1,8,0
457896820,1627401666400102,386209189,-91508882,82309,130534,1.6450001,0.04419051,6.5350003,13.603001,1.17,2.4299998,83,6,29.936,-29.786001,-2.996,-0.56200004,3.2418385,0,nan,0.0,3,0,1,8,0
458107001,1627401666600102,386208670,-91508959,82856,131081,1.838,0.05093918,6.5220003,13.569,1.17,2.4299998,83,6,29.412,-29.158,-3.851,-1.2570001,3.2729197,0,nan,0.0,3,0,1,8,0
458294466,1627401666800102,386208139,-91509109,82699,130924,1.4580001,0.05122698,6.479,13.530001,1.17,2.4299998,83,6,29.374,-28.449001,-7.313,-3.5560002,3.393213,0,nan,0.0,3,0,1,8,0
458493467,1627401667000102,386207616,-91509310,82367,130592,2.094,0.05287859,6.4730005,13.521001,1.17,2.4299998,83,6,29.355001,-28.019001,-8.757,-3.4290001,3.4445045,0,nan,0.0,3,0,1,8,0
458692436,1627401667200102,386207130,-91509530,82599,130824,2.3140001,0.056370642,6.4760003,13.517,1.17,2.4299998,83,6,27.549002,-25.920002,-9.331,-5.1530004,3.4871569,0,nan,0.0,3,0,1,8,0
458903081,1627401667400102,386206681,-91509817,82979,131204,2.467,0.07350576,6.4950004,13.528001,1.17,2.4299998,83,9,27.572,-23.977001,-13.613001,-4.511,3.6579564,0,nan,0.0,3,0,1,8,0
459097688,1627401667600102,386206258,-91510170,83959,132184,2.249,0.06421817,6.511,13.528001,1.17,2.4299998,83,9,28.272001,-23.399,-15.868001,-4.6940002,3.7374973,0,nan,0.0,3,0,1,8,0
459292863,1627401667800102,386205859,-91510543,84288,132513,1.8100001,0.060899597,6.511,13.522,1.17,2.4299998,83,9,26.709002,-21.476002,-15.8810005,-4.0340004,3.778322,0,nan,0.0,3,0,1,8,0
459493520,1627401668000102,386205479,-91510939,84689,132914,1.8960001,0.070960544,6.5140004,13.529,1.17,2.4299998,83,9,27.232,-20.687,-17.709002,-4.0870004,3.8495889,0,nan,0.0,3,0,1,8,0
459697452,1627401668200102,386205140,-91511343,85244,133469,2.1720002,0.0845352,6.5270004,13.542001,1.17,2.4299998,83,9,25.159,-18.381,-17.178001,-3.1840003,3.8931687,0,nan,0.0,3,0,1,8,0
459893625,1627401668400102,386204826,-91511769,85891,134116,2.002,0.06819333,6.537,13.537001,1.17,2.4299998,83,8,25.920002,-17.645,-18.987001,-2.5770001,3.9636056,0,nan,0.0,3,0,1,8,0
460093304,1627401668600102,386204523,-91512197,86521,134746,1.6200001,0.06362668,6.5210004,13.528001,1.17,2.4299998,83,8,25.688002,-17.603,-18.708,-1.6800001,3.9573936,0,nan,0.0,3,0,1,8,0
460303157,1627401668800102,386204226,-91512628,86478,134703,1.373,0.06420281,6.4760003,13.504001,1.17,2.4299998,83,8,24.053001,-15.841001,-18.101002,-0.67,3.9934852,0,nan,0.0,3,0,1,8,0
460497971,1627401669000102,386203941,-91513064,86579,134804,1.371,0.061666146,6.451,13.472001,1.17,2.4299998,83,8,25.334002,-16.197,-19.480001,-0.314,4.0187573,0,nan,0.0,3,0,1,8,0
460694416,1627401669200102,386203650,-91513505,86284,134509,1.373,0.06617677,6.4290004,13.434001,1.17,2.4299998,83,8,24.665,-16.137001,-18.654001,0.61700004,3.999232,0,nan,0.0,3,0,1,8,0
460892504,1627401669400102,386203358,-91513955,85748,133973,1.1750001,0.065096065,6.4,13.406001,1.17,2.4299998,83,24,25.099,-15.908001,-19.414001,0.39200002,4.0259085,0,nan,0.0,3,0,1,8,0
461093650,1627401669600102,386203102,-91514416,84678,132902,1.148,0.06785421,6.3750005,13.371,1.17,2.4299998,83,24,23.508001,-13.036,-19.563002,2.9910002,4.1245966,0,nan,0.0,3,0,1,8,0
461288881,1627401669800102,386202836,-91514898,82248,130473,1.4660001,0.064926945,6.3620005,13.323001,1.17,2.4299998,83,24,24.336,-13.896001,-19.979,3.164,4.104668,0,nan,0.0,3,0,1,8,0
461494114,1627401670000102,386202584,-91515386,78919,127144,1.4890001,0.07029435,6.3560004,13.284,1.17,2.4299998,83,24,22.84,-11.790001,-19.561,5.9140005,4.169958,0,nan,0.0,3,0,1,8,0
461693537,1627401670200103,386202375,-91515885,76017,124242,1.327,0.068594575,6.3480005,13.2560005,1.17,2.4299998,83,24,23.51,-10.097,-21.232,6.7060003,4.2684975,0,nan,0.0,3,0,1,8,0
461892800,1627401670400103,386202192,-91516363,74669,122894,1.3100001,0.07848815,6.34,13.245001,1.17,2.4299998,83,14,22.658,-10.286,-20.188002,5.168,4.2411504,0,nan,0.0,3,0,1,8,0
462094430,1627401670600103,386202014,-91516845,72935,121160,1.3720001,0.087839626,6.3370004,13.257001,1.17,2.4299998,83,14,22.702002,-9.349,-20.688002,5.761,4.287973,0,nan,0.0,3,0,1,8,0
462294252,1627401670800103,386201871,-91517315,71679,119904,1.273,0.08828154,6.3240004,13.216001,1.17,2.4299998,83,14,21.159,-7.497,-19.787,6.1740003,4.350224,0,nan,0.0,3,0,1,8,0
462491214,1627401671000103,386201759,-91517810,70475,118700,1.3610001,0.07393354,6.3150005,13.1970005,1.17,2.4299998,83,14,22.816002,-5.8300004,-22.058,4.8980002,4.4539814,0,nan,0.0,3,0,1,8,0
462694406,1627401671200103,386201710,-91518290,70290,118515,1.3330001,0.081459746,6.306,13.1640005,1.17,2.4299998,83,14,20.689001,-2.125,-20.579,4.2770004,4.6094913,0,nan,0.0,3,0,1,8,0
462895418,1627401671400103,386201724,-91518719,70378,118602,1.4410001,0.092089854,6.2970004,13.133,1.17,2.4299998,83,9,18.139,0.99100006,-18.112001,3.2700002,4.767026,0,nan,0.0,3,0,1,8,0
463094778,1627401671600103,386201772,-91519160,70235,118460,1.452,0.07219275,6.2640004,13.098001,1.17,2.4299998,83,9,20.410002,2.308,-20.279001,2.7900002,4.8257084,0,nan,0.0,3,0,1,8,0
463294432,1627401671800103,386201837,-91519590,69900,118125,1.5860001,0.088466026,6.242,13.078001,1.17,2.4299998,83,9,18.056002,4.6210003,-17.454,1.5100001,4.9712076,0,nan,0.0,3,0,1,8,0
463495179,1627401672000103,386201933,-91519975,69843,118068,1.978,0.11709152,6.2430005,13.082001,1.17,2.4299998,83,9,17.262001,5.6790004,-16.302,0.69100004,5.047586,0,nan,0.0,3,0,1,8,0
463694434,1627401672200103,386202057,-91520341,70090,118315,1.6730001,0.08610722,6.2300005,13.077001,1.17,2.4299998,83,9,17.632,7.5010004,-15.957001,1.154,5.1518216,0,nan,0.0,3,0,1,8,0
