timestamp,timestamp_sample,gps_hvel[0],gps_hvel[1],gps_vvel,gps_hpos[0],gps_hpos[1],gps_vpos,ev_hvel[0],ev_hvel[1],ev_vvel,ev_hpos[0],ev_hpos[1],ev_vpos,rng_vpos,baro_vpos,aux_hvel[0],aux_hvel[1],aux_vvel,flow[0],flow[1],heading,mag_field[0],mag_field[1],mag_field[2],drag[0],drag[1],airspeed,beta,hagl
394709492,394707136,0.0,0.0,0.0,0.00031331994,0.0,0.0,0.0,0.0,0.0,0.0,0.0,0.0,0.0,0.00044498107,0.0,0.0,nan,0.0,0.0,4.944178e-05,0.0,0.0,0.0,0.0,0.0,0.0,0.0,0.0
395220150,395217553,0.0,0.0,0.0,0.00026110542,0.0,0.0,0.0,0.0,0.0,0.0,0.0,0.0,0.0,0.00010064033,0.0,0.0,nan,0.0,0.0,4.205645e-05,0.0,0.0,0.0,0.0,0.0,0.0,0.0,0.0
395710531,395707950,0.0,0.0,0.0,0.0002054008,0.0,0.0,0.0,0.0,0.0,0.0,0.0,0.0,0.0,0.00010686341,0.0,0.0,nan,0.0,0.0,5.837999e-05,0.0,0.0,0.0,0.0,0.0,0.0,0.0,0.0
396210431,396208362,0.0,0.0,0.0,0.00016233558,0.0,0.0,0.0,0.0,0.0,0.0,0.0,0.0,0.0,0.0001630844,0.0,0.0,nan,0.0,0.0,4.50978e-05,0.0,0.0,0.0,0.0,0.0,0.0,0.0,0.0
396710910,396708770,0.0,0.0,0.0,1.1517028e-05,0.0,0.0,0.0,0.0,0.0,0.0,0.0,0.0,0.0,0.0006004049,0.0,0.0,nan,0.0,0.0,2.712943e-05,0.0,0.0,0.0,0.0,0.0,0.0,0.0,0.0
397711480,397709593,0.0,0.0,0.0,0.00010795203,0.0,0.0,0.0,0.0,0.0,0.0,0.0,0.0,0.0,4.0764236e-05,0.0,0.0,nan,0.0,0.0,1.806735e-06,0.0,0.0,0.0,0.0,0.0,0.0,0.0,0.0
398211857,398209999,0.0,0.0,0.0,0.00030699553,0.0,0.0,0.0,0.0,0.0,0.0,0.0,0.0,0.0,5.650506e-05,0.0,0.0,nan,0.0,0.0,9.979303e-05,0.0,0.0,0.0,0.0,0.0,0.0,0.0,0.0
398713116,398710409,0.0,0.0,0.0,0.0002677576,0.0,0.0,0.0,0.0,0.0,0.0,0.0,0.0,0.0,0.0002055062,0.0,0.0,nan,0.0,0.0,6.075757e-05,0.0,0.0,0.0,0.0,0.0,0.0,0.0,0.0
399212896,399210818,0.0,0.0,0.0,0.00032127107,0.0,0.0,0.0,0.0,0.0,0.0,0.0,0.0,0.0,0.00025617957,0.0,0.0,nan,0.0,0.0,9.508753e-05,0.0,0.0,0.0,0.0,0.0,0.0,0.0,0.0
399713415,399711228,0.0,0.0,0.0,1.7535604e-05,0.0,0.0,0.0,0.0,0.0,0.0,0.0,0.0,0.0,6.3428546e-05,0.0,0.0,nan,0.0,0.0,2.3239594e-05,0.0,0.0,0.0,0.0,0.0,0.0,0.0,0.0
400213985,400211643,0.0,0.0,0.0,5.8877704e-05,0.0,0.0,0.0,0.0,0.0,0.0,0.0,0.0,0.0,2.4037186e-05,0.0,0.0,nan,0.0,0.0,0.00025274948,0.0,0.0,0.0,0.0,0.0,0.0,0.0,0.0
400714449,400712048,0.0,0.0,0.0,9.4137766e-05,0.0,0.0,0.0,0.0,0.0,0.0,0.0,0.0,0.0,5.2613006e-05,0.0,0.0,nan,0.0,0.0,2.3134438e-05,0.0,0.0,0.0,0.0,0.0,0.0,0.0,0.0
401214785,401212510,0.0,0.0,0.0,0.00014990507,0.0,0.0,0.0,0.0,0.0,0.0,0.0,0.0,0.0,8.470511e-06,0.0,0.0,nan,0.0,0.0,2.355426e-05,0.0,0.0,0.0,0.0,0.0,0.0,0.0,0.0
401715000,401712873,0.0,0.0,0.0,0.00016186116,0.0,0.0,0.0,0.0,0.0,0.0,0.0,0.0,0.0,1.7006471e-06,0.0,0.0,nan,0.0,0.0,0.0001349225,0.0,0.0,0.0,0.0,0.0,0.0,0.0,0.0
402215695,402213275,0.0,0.0,0.0,0.00015061688,0.0,0.0,0.0,0.0,0.0,0.0,0.0,0.0,0.0,0.00020033553,0.0,0.0,nan,0.0,0.0,1.3708036e-07,0.0,0.0,0.0,0.0,0.0,0.0,0.0,0.0
402716810,402713689,0.0,0.0,0.0,7.832855e-05,0.0,0.0,0.0,0.0,0.0,0.0,0.0,0.0,0.0,0.00016723986,0.0,0.0,nan,0.0,0.0,2.5982301e-05,0.0,0.0,0.0,0.0,0.0,0.0,0.0,0.0
403216470,403214093,0.0,0.0,0.0,7.518695e-05,0.0,0.0,0.0,0.0,0.0,0.0,0.0,0.0,0.0,1.9323277e-05,0.0,0.0,nan,0.0,0.0,3.4757304e-07,0.0,0.0,0.0,0.0,0.0,0.0,0.0,0.0
403716909,403714502,0.0,0.0,0.0,5.8911653e-05,0.0,0.0,0.0,0.0,0.0,0.0,0.0,0.0,0.0,0.0,0.0,0.0,nan,0.0,0.0,4.411212e-06,0.0,0.0,0.0,0.0,0.0,0.0,0.0,0.0
404207183,404204910,0.0,0.0,0.0,4.1312993e-05,0.0,0.0,0.0,0.0,0.0,0.0,0.0,0.0,0.0,0.0,0.0,0.0,nan,0.0,0.0,0.0001770178,0.0,0.0,0.0,0.0,0.0,0.0,0.0,0.0
404707179,404705311,0.0,0.0,0.0,2.4799687e-05,0.0,0.0,0.0,0.0,0.0,0.0,0.0,0.0,0.0,0.0,0.0,0.0,nan,0.0,0.0,9.22372e-05,0.0,0.0,0.0,0.0,0.0,0.0,0.0,0.0
405207548,405205731,0.0,0.0,0.0,4.456891e-05,0.0,0.0,0.0,0.0,0.0,0.0,0.0,0.0,0.0,0.00030629247,0.0,0.0,nan,0.0,0.0,5.1380306e-05,0.0,0.0,0.0,0.0,0.0,0.0,0.0,0.0
405708606,405706127,0.0,0.0,0.0,8.88739e-05,0.0,0.0,0.0,0.0,0.0,0.0,0.0,0.0,0.0,0.0,0.0,0.0,nan,0.0,0.0,8.3983804e-07,0.0,0.0,0.0,0.0,0.0,0.0,0.0,0.0
406208399,406206536,0.0,0.0,0.0,0.00017638704,0.0,0.0,0.0,0.0,0.0,0.0,0.0,0.0,0.0,8.320329e-06,0.0,0.0,nan,0.0,0.0,6.08728e-07,0.0,0.0,0.0,0.0,0.0,0.0,0.0,0.0
406708915,406706943,0.0,0.0,0.0,2.155437e-05,0.0,0.0,0.0,0.0,0.0,0.0,0.0,0.0,0.0,1.2759095e-05,0.0,0.0,nan,0.0,0.0,2.089115e-05,0.0,0.0,0.0,0.0,0.0,0.0,0.0,0.0
407209298,407207351,0.0,0.0,0.0,8.183219e-05,0.0,0.0,0.0,0.0,0.0,0.0,0.0,0.0,0.0,0.00012602605,0.0,0.0,nan,0.0,0.0,5.769255e-08,0.0,0.0,0.0,0.0,0.0,0.0,0.0,0.0
407710035,407707778,0.0,0.0,0.0,0.0004143676,0.0,0.0,0.0,0.0,0.0,0.0,0.0,0.0,0.0,0.0001399311,0.0,0.0,nan,0.0,0.0,3.8090013e-05,0.0,0.0,0.0,0.0,0.0,0.0,0.0,0.0
408210017,408208166,0.0,0.0,0.0,0.00024393458,0.0,0.0,0.0,0.0,0.0,0.0,0.0,0.0,0.0,0.0,0.0,0.0,nan,0.0,0.0,4.487221e-05,0.0,0.0,0.0,0.0,0.0,0.0,0.0,0.0
408710917,408708573,0.0,0.0,0.0,0.00026999335,0.0,0.0,0.0,0.0,0.0,0.0,0.0,0.0,0.0,0.0,0.0,0.0,nan,0.0,0.0,5.3595663e-08,0.0,0.0,0.0,0.0,0.0,0.0,0.0,0.0
409211044,409209012,0.0,0.0,0.0,0.00029246724,0.0,0.0,0.0,0.0,0.0,0.0,0.0,0.0,0.0,0.0,0.0,0.0,nan,0.0,0.0,2.2464733e-06,0.0,0.0,0.0,0.0,0.0,0.0,0.0,0.0
409711599,409709402,0.0,0.0,0.0,0.00028531527,0.0,0.0,0.0,0.0,0.0,0.0,0.0,0.0,0.0,0.0,0.0,0.0,nan,0.0,0.0,0.0003137884,0.0,0.0,0.0,0.0,0.0,0.0,0.0,0.0
410211837,410209806,0.0,0.0,0.0,0.0002364687,0.0,0.0,0.0,0.0,0.0,0.0,0.0,0.0,0.0,0.0,0.0,0.0,nan,0.0,0.0,4.605502e-06,0.0,0.0,0.0,0.0,0.0,0.0,0.0,0.0
410712559,410710202,0.0,0.0,0.0,0.00019925092,0.0,0.0,0.0,0.0,0.0,0.0,0.0,0.0,0.0,1.7346159e-06,0.0,0.0,nan,0.0,0.0,1.5683592e-05,0.0,0.0,0.0,0.0,0.0,0.0,0.0,0.0
411212929,411210614,0.0,0.0,0.0,0.00015910518,0.0,0.0,0.0,0.0,0.0,0.0,0.0,0.0,0.0,0.0,0.0,0.0,nan,0.0,0.0,2.7676231e-05,0.0,0.0,0.0,0.0,0.0,0.0,0.0,0.0
411713303,411711017,0.0,0.0,0.0,0.000120632205,0.0,0.0,0.0,0.0,0.0,0.0,0.0,0.0,0.0,0.0,0.0,0.0,nan,0.0,0.0,2.8813165e-05,0.0,0.0,0.0,0.0,0.0,0.0,0.0,0.0
412213647,412211425,0.0,0.0,0.0,7.968205e-05,0.0,0.0,0.0,0.0,0.0,0.0,0.0,0.0,0.0,0.0,0.0,0.0,nan,0.0,0.0,0.00010542376,0.0,0.0,0.0,0.0,0.0,0.0,0.0,0.0
412713849,412711832,0.0,0.0,0.0,6.579808e-05,0.0,0.0,0.0,0.0,0.0,0.0,0.0,0.0,0.0,0.0,0.0,0.0,nan,0.0,0.0,1.7640541e-05,0.0,0.0,0.0,0.0,0.0,0.0,0.0,0.0
413214914,413212239,0.0,0.0,0.0,3.4552235e-05,0.0,0.0,0.0,0.0,0.0,0.0,0.0,0.0,0.0,0.0,0.0,0.0,nan,0.0,0.0,0.0003213018,0.0,0.0,0.0,0.0,0.0,0.0,0.0,0.0
413714846,413712646,0.0,0.0,0.0,2.8050765e-05,0.0,0.0,0.0,0.0,0.0,0.0,0.0,0.0,0.0,0.0,0.0,0.0,nan,0.0,0.0,0.00097086985,0.0,0.0,0.0,0.0,0.0,0.0,0.0,0.0
414215693,414213057,0.0,0.0,0.0,4.4084805e-05,0.0,0.0,0.0,0.0,0.0,0.0,0.0,0.0,0.0,0.0,0.0,0.0,nan,0.0,0.0,0.0002076525,0.0,0.0,0.0,0.0,0.0,0.0,0.0,0.0
414716039,414713461,0.0,0.0,0.0,8.5897234e-05,0.0,0.0,0.0,0.0,0.0,0.0,0.0,0.0,0.0,0.00010611873,0.0,0.0,nan,0.0,0.0,0.00027556365,0.0,0.0,0.0,0.0,0.0,0.0,0.0,0.0
415215917,415213875,0.0,0.0,0.0,8.722692e-05,0.0,0.0,0.0,0.0,0.0,0.0,0.0,0.0,0.0,0.0,0.0,0.0,nan,0.0,0.0,0.0005789582,0.0,0.0,0.0,0.0,0.0,0.0,0.0,0.0
415717251,415714280,0.0,0.0,0.0,8.022889e-05,0.0,0.0,0.0,0.0,0.0,0.0,0.0,0.0,0.0,0.0,0.0,0.0,nan,0.0,0.0,0.00021879113,0.0,0.0,0.0,0.0,0.0,0.0,0.0,0.0
416707421,416705101,0.0,0.0,0.0,0.00010573254,0.0,0.0,0.0,0.0,0.0,0.0,0.0,0.0,0.0,0.0004388984,0.0,0.0,nan,0.0,0.0,0.0009250386,0.0,0.0,0.0,0.0,0.0,0.0,0.0,0.0
417207348,417205492,0.0,0.0,0.0,1.9167215e-05,0.0,0.0,0.0,0.0,0.0,0.0,0.0,0.0,0.0,0.00014396493,0.0,0.0,nan,0.0,0.0,0.0010175847,0.0,0.0,0.0,0.0,0.0,0.0,0.0,0.0
417707879,417705900,0.0,0.0,0.0,3.726105e-05,0.0,0.0,0.0,0.0,0.0,0.0,0.0,0.0,0.0,0.0,0.0,0.0,nan,0.0,0.0,0.0020577752,0.0,0.0,0.0,0.0,0.0,0.0,0.0,0.0
418208996,418206308,0.0,0.0,0.0,6.748789e-05,0.0,0.0,0.0,0.0,0.0,0.0,0.0,0.0,0.0,1.8468429e-05,0.0,0.0,nan,0.0,0.0,0.0007354771,0.0,0.0,0.0,0.0,0.0,0.0,0.0,0.0
418708765,418706717,0.0,0.0,0.0,7.2739436e-05,0.0,0.0,0.0,0.0,0.0,0.0,0.0,0.0,0.0,4.695173e-06,0.0,0.0,nan,0.0,0.0,0.00081755524,0.0,0.0,0.0,0.0,0.0,0.0,0.0,0.0
419209036,419207125,0.0,0.0,0.0,5.9879123e-05,0.0,0.0,0.0,0.0,0.0,0.0,0.0,0.0,0.0,1.952958e-05,0.0,0.0,nan,0.0,0.0,0.00087368477,0.0,0.0,0.0,0.0,0.0,0.0,0.0,0.0
419709736,419707534,0.0,0.0,0.0,5.0382514e-05,0.0,0.0,0.0,0.0,0.0,0.0,0.0,0.0,0.0,0.0001355095,0.0,0.0,nan,0.0,0.0,0.0002473065,0.0,0.0,0.0,0.0,0.0,0.0,0.0,0.0
420209784,420207943,0.0,0.0,0.0,3.634765e-05,0.0,0.0,0.0,0.0,0.0,0.0,0.0,0.0,0.0,0.0002501681,0.0,0.0,nan,0.0,0.0,0.0004199512,0.0,0.0,0.0,0.0,0.0,0.0,0.0,0.0
420710709,420708370,0.0,0.0,0.0,0.0001181082,0.0,0.0,0.0,0.0,0.0,0.0,0.0,0.0,0.0,0.0,0.0,0.0,nan,0.0,0.0,8.91713e-05,0.0,0.0,0.0,0.0,0.0,0.0,0.0,0.0
421210584,421208759,0.0,0.0,0.0,3.1256837e-05,0.0,0.0,0.0,0.0,0.0,0.0,0.0,0.0,0.0,4.922633e-06,0.0,0.0,nan,0.0,0.0,0.0004262152,0.0,0.0,0.0,0.0,0.0,0.0,0.0,0.0
421711351,421709167,0.0,0.0,0.0,1.7101246e-06,0.0,0.0,0.0,0.0,0.0,0.0,0.0,0.0,0.0,7.08877e-05,0.0,0.0,nan,0.0,0.0,0.00086225354,0.0,0.0,0.0,0.0,0.0,0.0,0.0,0.0
422211613,422209576,0.0,0.0,0.0,7.423354e-06,0.0,0.0,0.0,0.0,0.0,0.0,0.0,0.0,0.0,4.0447292e-05,0.0,0.0,nan,0.0,0.0,0.00032370473,0.0,0.0,0.0,0.0,0.0,0.0,0.0,0.0
422712121,422709984,0.0,0.0,0.0,1.3188631e-05,0.0,0.0,0.0,0.0,0.0,0.0,0.0,0.0,0.0,0.00018312044,0.0,0.0,nan,0.0,0.0,0.0003763254,0.0,0.0,0.0,0.0,0.0,0.0,0.0,0.0
423212671,423210408,0.0,0.0,0.0,1.9895046e-05,0.0,0.0,0.0,0.0,0.0,0.0,0.0,0.0,0.0,0.0,0.0,0.0,nan,0.0,0.0,0.00028971868,0.0,0.0,0.0,0.0,0.0,0.0,0.0,0.0
423713130,423710818,0.0,0.0,0.0,2.6688636e-05,0.0,0.0,0.0,0.0,0.0,0.0,0.0,0.0,0.0,3.697558e-05,0.0,0.0,nan,0.0,0.0,8.6584005e-05,0.0,0.0,0.0,0.0,0.0,0.0,0.0,0.0
424213137,424211216,0.0,0.0,0.0,5.350647e-06,0.0,0.0,0.0,0.0,0.0,0.0,0.0,0.0,0.0,2.055293e-08,0.0,0.0,nan,0.0,0.0,0.0012088561,0.0,0.0,0.0,0.0,0.0,0.0,0.0,0.0
424713637,424711648,0.0,0.0,0.0,1.5486921e-05,0.0,0.0,0.0,0.0,0.0,0.0,0.0,0.0,0.0,0.0,0.0,0.0,nan,0.0,0.0,0.0017847068,0.0,0.0,0.0,0.0,0.0,0.0,0.0,0.0
425214497,425212023,0.0,0.0,0.0,2.3962873e-05,0.0,0.0,0.0,0.0,0.0,0.0,0.0,0.0,0.0,0.0,0.0,0.0,nan,0.0,0.0,0.0029422895,0.0,0.0,0.0,0.0,0.0,0.0,0.0,0.0
425715038,425712429,0.0,0.0,0.0,0.0018445334,0.0,0.0,0.0,0.0,0.0,0.0,0.0,0.0,0.0,0.0,0.0,0.0,nan,0.0,0.0,0.005667999,0.0,0.0,0.0,0.0,0.0,0.0,0.0,0.0
426214943,426212833,0.0,0.0,0.0,0.044803515,0.0,0.0,0.0,0.0,0.0,0.0,0.0,0.0,0.0,0.0,0.0,0.0,nan,0.0,0.0,0.008512959,0.0,0.0,0.0,0.0,0.0,0.0,0.0,0.0
426715360,426713235,0.0,0.0,0.0,0.1754165,0.0,0.0,0.0,0.0,0.0,0.0,0.0,0.0,0.0,0.0,0.0,0.0,nan,0.0,0.0,0.04561025,0.0,0.0,0.0,0.0,0.0,0.0,0.0,0.0
427216113,427213635,0.0,0.0,0.0,0.0035874415,0.0,0.0,0.0,0.0,0.0,0.0,0.0,0.0,0.0,0.0008881757,0.0,0.0,nan,0.0,0.0,0.06986625,0.0,0.0,0.0,0.0,0.0,0.0,0.0,0.0
427716753,427714031,0.0,0.0,0.0,0.01353851,0.0,0.0,0.0,0.0,0.0,0.0,0.0,0.0,0.0,0.0038634297,0.0,0.0,nan,0.0,0.0,0.13678122,0.0,0.0,0.0,0.0,0.0,0.0,0.0,0.0
428216495,428214437,0.0,0.0,0.0,0.060347877,0.0,0.0,0.0,0.0,0.0,0.0,0.0,0.0,0.0,0.012843509,0.0,0.0,nan,0.0,0.0,0.23789284,0.0,0.0,0.0,0.0,0.0,0.0,0.0,0.0
428717284,428714821,0.0,0.0,0.0,0.12822631,0.0,0.0,0.0,0.0,0.0,0.0,0.0,0.0,0.0,0.078511275,0.0,0.0,nan,0.0,0.0,0.33086464,0.0,0.0,0.0,0.0,0.0,0.0,0.0,0.0
429207353,429205195,0.0,0.0,0.0,0.28784636,0.0,0.0,0.0,0.0,0.0,0.0,0.0,0.0,0.0,0.055823725,0.0,0.0,nan,0.0,0.0,0.23140675,0.0,0.0,0.0,0.0,0.0,0.0,0.0,0.0
429708364,429705579,0.0,0.0,0.0,0.421248,0.0,0.0,0.0,0.0,0.0,0.0,0.0,0.0,0.0,0.041845404,0.0,0.0,nan,0.0,0.0,0.0,0.008032192,0.0,0.0,0.0,0.0,0.0,0.0,0.0
430208280,430205977,0.0,0.0,0.0,0.6245954,0.0,0.0,0.0,0.0,0.0,0.0,0.0,0.0,0.0,0.015335154,0.0,0.0,nan,0.0,0.0,0.0,0.0076170447,0.0,0.0,0.0,0.0,0.0,0.0,0.0
430712856,430706341,0.0,0.0,0.0,0.7290258,0.0,0.0,0.0,0.0,0.0,0.0,0.0,0.0,0.0,0.02670197,0.0,0.0,nan,0.0,0.0,0.0,0.011616836,0.0,0.0,0.0,0.0,0.0,0.0,0.0
431709557,431707095,0.0,0.0,0.0,0.7979943,0.0,0.0,0.0,0.0,0.0,0.0,0.0,0.0,0.0,0.0034581448,0.0,0.0,nan,0.0,0.0,0.0,0.054256633,0.0,0.0,0.0,0.0,0.0,0.0,0.0
432214235,432207464,0.0,0.0,0.0,0.7254294,0.0,0.0,0.0,0.0,0.0,0.0,0.0,0.0,0.0,0.00047264236,0.0,0.0,nan,0.0,0.0,0.0,0.059909787,0.0,0.0,0.0,0.0,0.0,0.0,0.0
432714585,432707833,0.0,0.0,0.0,0.6552205,0.0,0.0,0.0,0.0,0.0,0.0,0.0,0.0,0.0,0.0044577895,0.0,0.0,nan,0.0,0.0,0.0,0.05153313,0.0,0.0,0.0,0.0,0.0,0.0,0.0
433214802,433208210,0.0,0.0,0.0,0.5486899,0.0,0.0,0.0,0.0,0.0,0.0,0.0,0.0,0.0,0.0085185105,0.0,0.0,nan,0.0,0.0,0.0,0.023395114,0.0,0.0,0.0,0.0,0.0,0.0,0.0
433710580,433708564,0.0,0.0,0.0,0.4793338,0.0,0.0,0.0,0.0,0.0,0.0,0.0,0.0,0.0,0.012855479,0.0,0.0,nan,0.0,0.0,0.0,0.017911742,0.0,0.0,0.0,0.0,0.0,0.0,0.0
434210936,434208929,0.0,0.0,0.0,0.3930938,0.0,0.0,0.0,0.0,0.0,0.0,0.0,0.0,0.0,0.019582748,0.0,0.0,nan,0.0,0.0,0.0,0.0070579746,0.0,0.0,0.0,0.0,0.0,0.0,0.0
434716217,434709295,0.0,0.0,0.0,0.35589853,0.0,0.0,0.0,0.0,0.0,0.0,0.0,0.0,0.0,0.011164193,0.0,0.0,nan,0.0,0.0,0.0,0.05271758,0.0,0.0,0.0,0.0,0.0,0.0,0.0
435211609,435209641,0.0,0.0,0.0,0.30894452,0.0,0.0,0.0,0.0,0.0,0.0,0.0,0.0,0.0,0.016368985,0.0,0.0,nan,0.0,0.0,0.0,0.120259665,0.0,0.0,0.0,0.0,0.0,0.0,0.0
435712096,435709994,0.0,0.0,0.0,0.2851142,0.0,0.0,0.0,0.0,0.0,0.0,0.0,0.0,0.0,0.018383518,0.0,0.0,nan,0.0,0.0,0.0,0.10956247,0.0,0.0,0.0,0.0,0.0,0.0,0.0
436217291,436210352,0.0,0.0,0.0,0.25305656,0.0,0.0,0.0,0.0,0.0,0.0,0.0,0.0,0.0,0.01854532,0.0,0.0,nan,0.0,0.0,0.0,0.15706268,0.0,0.0,0.0,0.0,0.0,0.0,0.0
436712772,436710700,0.0,0.0,0.0,0.22715618,0.0,0.0,0.0,0.0,0.0,0.0,0.0,0.0,0.0,0.029685615,0.0,0.0,nan,0.0,0.0,0.0,0.07147067,0.0,0.0,0.0,0.0,0.0,0.0,0.0
437217865,437211039,0.0,0.0,0.0,0.17717658,0.0,0.0,0.0,0.0,0.0,0.0,0.0,0.0,0.0,0.029789189,0.0,0.0,nan,0.0,0.0,0.0,0.07365905,0.0,0.0,0.0,0.0,0.0,0.0,0.0
437718159,437711404,0.0,0.0,0.0,0.12842785,0.0,0.0,0.0,0.0,0.0,0.0,0.0,0.0,0.0,0.018434301,0.0,0.0,nan,0.0,0.0,0.0,0.033441238,0.0,0.0,0.0,0.0,0.0,0.0,0.0
438213818,438211724,0.0,0.0,0.0,0.057967257,0.0,0.0,0.0,0.0,0.0,0.0,0.0,0.0,0.0,0.017820233,0.0,0.0,nan,0.0,0.0,0.0,0.032744482,0.0,0.0,0.0,0.0,0.0,0.0,0.0
438718925,438712058,0.0,0.0,0.0,0.102098145,0.0,0.0,0.0,0.0,0.0,0.0,0.0,0.0,0.0,0.003782089,0.0,0.0,nan,0.0,0.0,0.0,0.065303236,0.0,0.0,0.0,0.0,0.0,0.0,0.0
439214491,439212417,0.0,0.0,0.0,0.20971829,0.0,0.0,0.0,0.0,0.0,0.0,0.0,0.0,0.0,0.006212258,0.0,0.0,nan,0.0,0.0,0.0,0.07088348,0.0,0.0,0.0,0.0,0.0,0.0,0.0
439719862,439712735,0.0,0.0,0.0,0.31639782,0.0,0.0,0.0,0.0,0.0,0.0,0.0,0.0,0.0,0.00080456096,0.0,0.0,nan,0.0,0.0,0.0,0.08138976,0.0,0.0,0.0,0.0,0.0,0.0,0.0
440215245,440213068,0.0,0.0,0.0,0.5487042,0.0,0.0,0.0,0.0,0.0,0.0,0.0,0.0,0.0,0.0020874485,0.0,0.0,nan,0.0,0.0,0.0,1.8976164,0.0,0.0,0.0,0.0,0.0,0.0,0.0
440715606,440713405,0.0,0.0,0.0,0.6920298,0.0,0.0,0.0,0.0,0.0,0.0,0.0,0.0,0.0,0.008984407,0.0,0.0,nan,0.0,0.0,0.0,1.8166746,0.0,0.0,0.0,0.0,0.0,0.0,0.0
441216202,441213730,0.0,0.0,0.0,0.8613016,0.0,0.0,0.0,0.0,0.0,0.0,0.0,0.0,0.0,0.005574535,0.0,0.0,nan,0.0,0.0,0.0,1.9695106,0.0,0.0,0.0,0.0,0.0,0.0,0.0
441716242,441714110,0.0,0.0,0.0,0.9287075,0.0,0.0,0.0,0.0,0.0,0.0,0.0,0.0,0.0,0.0010094113,0.0,0.0,nan,0.0,0.0,0.0,1.9789889,0.0,0.0,0.0,0.0,0.0,0.0,0.0
442216651,442214405,0.0,0.0,0.0,0.9727201,0.0,0.0,0.0,0.0,0.0,0.0,0.0,0.0,0.0,0.0012010052,0.0,0.0,nan,0.0,0.0,0.0,0.1526412,0.0,0.0,0.0,0.0,0.0,0.0,0.0
442721565,442714747,0.0,0.0,0.0,1.0228815,0.0,0.0,0.0,0.0,0.0,0.0,0.0,0.0,0.0,0.059037432,0.0,0.0,nan,0.0,0.0,0.0,0.103165604,0.0,0.0,0.0,0.0,0.0,0.0,0.0
443212035,443205039,0.0,0.0,0.0,1.1193191,0.0,0.0,0.0,0.0,0.0,0.0,0.0,0.0,0.0,0.03758342,0.0,0.0,nan,0.0,0.0,0.0,0.14328174,0.0,0.0,0.0,0.0,0.0,0.0,0.0
443707344,443705363,0.0,0.0,0.0,1.2624882,0.0,0.0,0.0,0.0,0.0,0.0,0.0,0.0,0.0,0.045419093,0.0,0.0,nan,0.0,0.0,0.0,0.07721268,0.0,0.0,0.0,0.0,0.0,0.0,0.0
444208258,444205716,0.0,0.0,0.0,1.5708094,0.0,0.0,0.0,0.0,0.0,0.0,0.0,0.0,0.0,0.04314718,0.0,0.0,nan,0.0,0.0,0.0,0.04952178,0.0,0.0,0.0,0.0,0.0,0.0,0.0
444708131,444706006,0.0,0.0,0.0,1.769654,0.0,0.0,0.0,0.0,0.0,0.0,0.0,0.0,0.0,0.034635972,0.0,0.0,nan,0.0,0.0,0.0,0.100450024,0.0,0.0,0.0,0.0,0.0,0.0,0.0
445213325,445206325,0.0,0.0,0.0,1.9421954,0.0,0.0,0.0,0.0,0.0,0.0,0.0,0.0,0.0,0.03277602,0.0,0.0,nan,0.0,0.0,0.0,0.0614226,0.0,0.0,0.0,0.0,0.0,0.0,0.0
445713191,445706643,0.0,0.0,0.0,1.9695592,0.0,0.0,0.0,0.0,0.0,0.0,0.0,0.0,0.0,0.030489454,0.0,0.0,nan,0.0,0.0,0.0,0.016822372,0.0,0.0,0.0,0.0,0.0,0.0,0.0
446214131,446206958,0.0,0.0,0.0,2.4648263,0.0,0.0,0.0,0.0,0.0,0.0,0.0,0.0,0.0,0.03420301,0.0,0.0,nan,0.0,0.0,0.0,0.065562755,0.0,0.0,0.0,0.0,0.0,0.0,0.0
446709420,446707271,0.0,0.0,0.0,2.7751307,0.0,0.0,0.0,0.0,0.0,0.0,0.0,0.0,0.0,0.043924954,0.0,0.0,nan,0.0,0.0,0.0,0.024861509,0.0,0.0,0.0,0.0,0.0,0.0,0.0
447214668,447207583,0.0,0.0,0.0,3.2344797,0.0,0.0,0.0,0.0,0.0,0.0,0.0,0.0,0.0,0.036013857,0.0,0.0,nan,0.0,0.0,0.0,0.028981945,0.0,0.0,0.0,0.0,0.0,0.0,0.0
447714730,447707893,0.0,0.0,0.0,3.5361302,0.0,0.0,0.0,0.0,0.0,0.0,0.0,0.0,0.0,0.031940237,0.0,0.0,nan,0.0,0.0,0.0,0.022673069,0.0,0.0,0.0,0.0,0.0,0.0,0.0
448210963,448208224,0.0,0.0,0.0,3.9523387,0.0,0.0,0.0,0.0,0.0,0.0,0.0,0.0,0.0,0.031279344,0.0,0.0,nan,0.0,0.0,0.0,0.022794276,0.0,0.0,0.0,0.0,0.0,0.0,0.0
448715140,448708514,0.0,0.0,0.0,4.1899858,0.0,0.0,0.0,0.0,0.0,0.0,0.0,0.0,0.0,0.025714124,0.0,0.0,nan,0.0,0.0,0.0,0.021257762,0.0,0.0,0.0,0.0,0.0,0.0,0.0
449211218,449208813,0.0,0.0,0.0,4.460047,0.0,0.0,0.0,0.0,0.0,0.0,0.0,0.0,0.0,0.0138517255,0.0,0.0,nan,0.0,0.0,0.0,0.039114546,0.0,0.0,0.0,0.0,0.0,0.0,0.0
449715807,449709123,0.0,0.0,0.0,4.583031,0.0,0.0,0.0,0.0,0.0,0.0,0.0,0.0,0.0,0.022906056,0.0,0.0,nan,0.0,0.0,0.0,0.11008119,0.0,0.0,0.0,0.0,0.0,0.0,0.0
450211661,450209418,0.0,0.0,0.0,4.582447,0.0,0.0,0.0,0.0,0.0,0.0,0.0,0.0,0.0,0.019560495,0.0,0.0,nan,0.0,0.0,0.0,0.057726126,0.0,0.0,0.0,0.0,0.0,0.0,0.0
450716273,450709735,0.0,0.0,0.0,4.447241,0.0,0.0,0.0,0.0,0.0,0.0,0.0,0.0,0.0,0.02757161,0.0,0.0,nan,0.0,0.0,0.0,0.043211848,0.0,0.0,0.0,0.0,0.0,0.0,0.0
451217065,451210016,0.0,0.0,0.0,4.0872264,0.0,0.0,0.0,0.0,0.0,0.0,0.0,0.0,0.0,0.022976125,0.0,0.0,nan,0.0,0.0,0.0,0.059883133,0.0,0.0,0.0,0.0,0.0,0.0,0.0
451717130,451710313,0.0,0.0,0.0,3.757875,0.0,0.0,0.0,0.0,0.0,0.0,0.0,0.0,0.0,0.0213802,0.0,0.0,nan,0.0,0.0,0.0,0.056371477,0.0,0.0,0.0,0.0,0.0,0.0,0.0
452213293,452210614,0.0,0.0,0.0,3.1809158,0.0,0.0,0.0,0.0,0.0,0.0,0.0,0.0,0.0,0.013260603,0.0,0.0,nan,0.0,0.0,0.0,0.06631334,0.0,0.0,0.0,0.0,0.0,0.0,0.0
453218600,453211194,0.0,0.0,0.0,2.1209877,0.0,0.0,0.0,0.0,0.0,0.0,0.0,0.0,0.0,0.005597009,0.0,0.0,nan,0.0,0.0,0.0,0.044056527,0.0,0.0,0.0,0.0,0.0,0.0,0.0
453718190,453711485,0.0,0.0,0.0,1.711806,0.0,0.0,0.0,0.0,0.0,0.0,0.0,0.0,0.0,1.2121306e-05,0.0,0.0,nan,0.0,0.0,0.0,0.045807734,0.0,0.0,0.0,0.0,0.0,0.0,0.0
454218764,454211774,0.0,0.0,0.0,1.1615081,0.0,0.0,0.0,0.0,0.0,0.0,0.0,0.0,0.0,0.00055164675,0.0,0.0,nan,0.0,0.0,0.0,0.024692396,0.0,0.0,0.0,0.0,0.0,0.0,0.0
454718829,454712062,0.0,0.0,0.0,0.8489996,0.0,0.0,0.0,0.0,0.0,0.0,0.0,0.0,0.0,1.9383118e-05,0.0,0.0,nan,0.0,0.0,0.0,0.0072975648,0.0,0.0,0.0,0.0,0.0,0.0,0.0
455214809,455212348,0.0,0.0,0.0,0.47691333,0.0,0.0,0.0,0.0,0.0,0.0,0.0,0.0,0.0,0.00021103739,0.0,0.0,nan,0.0,0.0,0.0,0.006214545,0.0,0.0,0.0,0.0,0.0,0.0,0.0
455719405,455712636,0.0,0.0,0.0,0.2943342,0.0,0.0,0.0,0.0,0.0,0.0,0.0,0.0,0.0,0.00040082174,0.0,0.0,nan,0.0,0.0,0.0,0.016108802,0.0,0.0,0.0,0.0,0.0,0.0,0.0
456219992,456212917,0.0,0.0,0.0,0.22521697,0.0,0.0,0.0,0.0,0.0,0.0,0.0,0.0,0.0,0.0035272432,0.0,0.0,nan,0.0,0.0,0.0,0.026070105,0.0,0.0,0.0,0.0,0.0,0.0,0.0
456720179,456713200,0.0,0.0,0.0,0.26431203,0.0,0.0,0.0,0.0,0.0,0.0,0.0,0.0,0.0,0.0028534336,0.0,0.0,nan,0.0,0.0,0.0,0.032140356,0.0,0.0,0.0,0.0,0.0,0.0,0.0
457216355,457213492,0.0,0.0,0.0,0.34381354,0.0,0.0,0.0,0.0,0.0,0.0,0.0,0.0,0.0,0.0016059653,0.0,0.0,nan,0.0,0.0,0.0,0.044388626,0.0,0.0,0.0,0.0,0.0,0.0,0.0
457720473,457713765,0.0,0.0,0.0,0.41364923,0.0,0.0,0.0,0.0,0.0,0.0,0.0,0.0,0.0,0.002663352,0.0,0.0,nan,0.0,0.0,0.0,0.030105865,0.0,0.0,0.0,0.0,0.0,0.0,0.0
458221290,458214040,0.0,0.0,0.0,0.55973595,0.0,0.0,0.0,0.0,0.0,0.0,0.0,0.0,0.0,0.0019404399,0.0,0.0,nan,0.0,0.0,0.0,0.011581538,0.0,0.0,0.0,0.0,0.0,0.0,0.0
458716627,458714325,0.0,0.0,0.0,0.68622947,0.0,0.0,0.0,0.0,0.0,0.0,0.0,0.0,0.0,0.0007018085,0.0,0.0,nan,0.0,0.0,0.0,0.01041217,0.0,0.0,0.0,0.0,0.0,0.0,0.0
459221572,459214607,0.0,0.0,0.0,0.89618117,0.0,0.0,0.0,0.0,0.0,0.0,0.0,0.0,0.0,0.0029291254,0.0,0.0,nan,0.0,0.0,0.0,0.0027472042,0.0,0.0,0.0,0.0,0.0,0.0,0.0
459717046,459714873,0.0,0.0,0.0,1.1819249,0.0,0.0,0.0,0.0,0.0,0.0,0.0,0.0,0.0,0.0054518683,0.0,0.0,nan,0.0,0.0,0.0,0.18858522,0.0,0.0,0.0,0.0,0.0,0.0,0.0
460207400,460205147,0.0,0.0,0.0,1.7037312,0.0,0.0,0.0,0.0,0.0,0.0,0.0,0.0,0.0,0.0008802283,0.0,0.0,nan,0.0,0.0,0.0,0.14849961,0.0,0.0,0.0,0.0,0.0,0.0,0.0
460708064,460705422,0.0,0.0,0.0,2.5649388,0.0,0.0,0.0,0.0,0.0,0.0,0.0,0.0,0.0,0.0009214655,0.0,0.0,nan,0.0,0.0,0.0,0.15372354,0.0,0.0,0.0,0.0,0.0,0.0,0.0
461212447,461205697,0.0,0.0,0.0,3.1778765,0.0,0.0,0.0,0.0,0.0,0.0,0.0,0.0,0.0,0.00040589357,0.0,0.0,nan,0.0,0.0,0.0,0.35074764,0.0,0.0,0.0,0.0,0.0,0.0,0.0
461708354,461705967,0.0,0.0,0.0,4.083075,0.0,0.0,0.0,0.0,0.0,0.0,0.0,0.0,0.0,0.00056097674,0.0,0.0,nan,0.0,0.0,0.0,0.3584016,0.0,0.0,0.0,0.0,0.0,0.0,0.0
462208592,462206247,0.0,0.0,0.0,4.7394333,0.0,0.0,0.0,0.0,0.0,0.0,0.0,0.0,0.0,4.6027104e-05,0.0,0.0,nan,0.0,0.0,0.0,0.38305038,0.0,0.0,0.0,0.0,0.0,0.0,0.0
462713104,462706507,0.0,0.0,0.0,5.907043,0.0,0.0,0.0,0.0,0.0,0.0,0.0,0.0,0.0,0.002718474,0.0,0.0,nan,0.0,0.0,0.0,0.21494934,0.0,0.0,0.0,0.0,0.0,0.0,0.0
463208799,463206784,0.0,0.0,0.0,6.953311,0.0,0.0,0.0,0.0,0.0,0.0,0.0,0.0,0.0,0.0023060008,0.0,0.0,nan,0.0,0.0,0.0,0.25183067,0.0,0.0,0.0,0.0,0.0,0.0,0.0
463709442,463707067,0.0,0.0,0.0,8.717542,0.0,0.0,0.0,0.0,0.0,0.0,0.0,0.0,0.0,0.0057024136,0.0,0.0,nan,0.0,0.0,0.0,0.29239637,0.0,0.0,0.0,0.0,0.0,0.0,0.0
464209597,464207324,0.0,0.0,0.0,9.770205,0.0,0.0,0.0,0.0,0.0,0.0,0.0,0.0,0.0,0.0026718846,0.0,0.0,nan,0.0,0.0,0.0,0.31429744,0.0,0.0,0.0,0.0,0.0,0.0,0.0
464714173,464707586,0.0,0.0,0.0,11.078114,0.0,0.0,0.0,0.0,0.0,0.0,0.0,0.0,0.0,0.005807299,0.0,0.0,nan,0.0,0.0,0.0,0.21972273,0.0,0.0,0.0,0.0,0.0,0.0,0.0
465214717,465207872,0.0,0.0,0.0,11.777795,0.0,0.0,0.0,0.0,0.0,0.0,0.0,0.0,0.0,0.0104136765,0.0,0.0,nan,0.0,0.0,0.0,0.1006462,0.0,0.0,0.0,0.0,0.0,0.0,0.0
465714800,465708149,0.0,0.0,0.0,12.650929,0.0,0.0,0.0,0.0,0.0,0.0,0.0,0.0,0.0,0.006358404,0.0,0.0,nan,0.0,0.0,0.0,0.08958829,0.0,0.0,0.0,0.0,0.0,0.0,0.0
466210530,466208409,0.0,0.0,0.0,13.094069,0.0,0.0,0.0,0.0,0.0,0.0,0.0,0.0,0.0,0.008411237,0.0,0.0,nan,0.0,0.0,0.0,0.13880546,0.0,0.0,0.0,0.0,0.0,0.0,0.0
466715119,466708654,0.0,0.0,0.0,13.526665,0.0,0.0,0.0,0.0,0.0,0.0,0.0,0.0,0.0,0.007427357,0.0,0.0,nan,0.0,0.0,0.0,0.18041508,0.0,0.0,0.0,0.0,0.0,0.0,0.0
467210794,467208926,0.0,0.0,0.0,13.651096,0.0,0.0,0.0,0.0,0.0,0.0,0.0,0.0,0.0,0.006867817,0.0,0.0,nan,0.0,0.0,0.0,0.26467353,0.0,0.0,0.0,0.0,0.0,0.0,0.0
467715806,467709185,0.0,0.0,0.0,13.484882,0.0,0.0,0.0,0.0,0.0,0.0,0.0,0.0,0.0,0.0039195777,0.0,0.0,nan,0.0,0.0,0.0,0.27943704,0.0,0.0,0.0,0.0,0.0,0.0,0.0
468216204,468209448,0.0,0.0,0.0,13.090449,0.0,0.0,0.0,0.0,0.0,0.0,0.0,0.0,0.0,0.00059532013,0.0,0.0,nan,0.0,0.0,0.0,0.3230587,0.0,0.0,0.0,0.0,0.0,0.0,0.0
468711940,468709717,0.0,0.0,0.0,12.1093855,0.0,0.0,0.0,0.0,0.0,0.0,0.0,0.0,0.0,0.0012098071,0.0,0.0,nan,0.0,0.0,0.0,0.4808669,0.0,0.0,0.0,0.0,0.0,0.0,0.0
469211951,469209983,0.0,0.0,0.0,11.301891,0.0,0.0,0.0,0.0,0.0,0.0,0.0,0.0,0.0,0.0023784826,0.0,0.0,nan,0.0,0.0,0.0,0.7492182,0.0,0.0,0.0,0.0,0.0,0.0,0.0
469713075,469710248,0.0,0.0,0.0,9.876888,0.0,0.0,0.0,0.0,0.0,0.0,0.0,0.0,0.0,0.0037752963,0.0,0.0,nan,0.0,0.0,0.0,0.7010606,0.0,0.0,0.0,0.0,0.0,0.0,0.0
470217522,470210500,0.0,0.0,0.0,8.912963,0.0,0.0,0.0,0.0,0.0,0.0,0.0,0.0,0.0,0.0075121257,0.0,0.0,nan,0.0,0.0,0.0,0.692702,0.0,0.0,0.0,0.0,0.0,0.0,0.0
470713113,470710774,0.0,0.0,0.0,7.5517015,0.0,0.0,0.0,0.0,0.0,0.0,0.0,0.0,0.0,0.019434096,0.0,0.0,nan,0.0,0.0,0.0,0.6665855,0.0,0.0,0.0,0.0,0.0,0.0,0.0
471217689,471211025,0.0,0.0,0.0,6.6725636,0.0,0.0,0.0,0.0,0.0,0.0,0.0,0.0,0.0,0.018682996,0.0,0.0,nan,0.0,0.0,0.0,0.58353674,0.0,0.0,0.0,0.0,0.0,0.0,0.0
471713274,471711291,0.0,0.0,0.0,5.2769785,0.0,0.0,0.0,0.0,0.0,0.0,0.0,0.0,0.0,0.022508137,0.0,0.0,nan,0.0,0.0,0.0,0.40941244,0.0,0.0,0.0,0.0,0.0,0.0,0.0
472213633,472211556,0.0,0.0,0.0,4.3958855,0.0,0.0,0.0,0.0,0.0,0.0,0.0,0.0,0.0,0.03885892,0.0,0.0,nan,0.0,0.0,0.0,0.5058385,0.0,0.0,0.0,0.0,0.0,0.0,0.0
472718394,472711812,0.0,0.0,0.0,3.1927018,0.0,0.0,0.0,0.0,0.0,0.0,0.0,0.0,0.0,0.03548948,0.0,0.0,nan,0.0,0.0,0.0,0.4368051,0.0,0.0,0.0,0.0,0.0,0.0,0.0
473214487,473212075,0.0,0.0,0.0,2.4854903,0.0,0.0,0.0,0.0,0.0,0.0,0.0,0.0,0.0,0.04481662,0.0,0.0,nan,0.0,0.0,0.0,0.33368114,0.0,0.0,0.0,0.0,0.0,0.0,0.0
473719354,473712344,0.0,0.0,0.0,1.9403002,0.0,0.0,0.0,0.0,0.0,0.0,0.0,0.0,0.0,0.046212476,0.0,0.0,nan,0.0,0.0,0.0,0.46991134,0.0,0.0,0.0,0.0,0.0,0.0,0.0
474219390,474212607,0.0,0.0,0.0,1.9280876,0.0,0.0,0.0,0.0,0.0,0.0,0.0,0.0,0.0,0.07454901,0.0,0.0,nan,0.0,0.0,0.0,0.37716353,0.0,0.0,0.0,0.0,0.0,0.0,0.0
474715199,474712866,0.0,0.0,0.0,1.8302274,0.0,0.0,0.0,0.0,0.0,0.0,0.0,0.0,0.0,0.07808249,0.0,0.0,nan,0.0,0.0,0.0,0.60101366,0.0,0.0,0.0,0.0,0.0,0.0,0.0
475219877,475213125,0.0,0.0,0.0,1.7264626,0.0,0.0,0.0,0.0,0.0,0.0,0.0,0.0,0.0,0.07708147,0.0,0.0,nan,0.0,0.0,0.0,0.48911524,0.0,0.0,0.0,0.0,0.0,0.0,0.0
475720108,475713402,0.0,0.0,0.0,1.505514,0.0,0.0,0.0,0.0,0.0,0.0,0.0,0.0,0.0,0.08474396,0.0,0.0,nan,0.0,0.0,0.0,0.51247007,0.0,0.0,0.0,0.0,0.0,0.0,0.0
476215762,476213654,0.0,0.0,0.0,1.3205061,0.0,0.0,0.0,0.0,0.0,0.0,0.0,0.0,0.0,0.070131995,0.0,0.0,nan,0.0,0.0,0.0,0.60299456,0.0,0.0,0.0,0.0,0.0,0.0,0.0
476720681,476713918,0.0,0.0,0.0,1.0233554,0.0,0.0,0.0,0.0,0.0,0.0,0.0,0.0,0.0,0.057080574,0.0,0.0,nan,0.0,0.0,0.0,0.061853565,0.0,0.0,0.0,0.0,0.0,0.0,0.0
477220764,477214176,0.0,0.0,0.0,0.84445584,0.0,0.0,0.0,0.0,0.0,0.0,0.0,0.0,0.0,0.021794358,0.0,0.0,nan,0.0,0.0,0.0,0.08602324,0.0,0.0,0.0,0.0,0.0,0.0,0.0
477716667,477714437,0.0,0.0,0.0,0.59151083,0.0,0.0,0.0,0.0,0.0,0.0,0.0,0.0,0.0,0.023438534,0.0,0.0,nan,0.0,0.0,0.0,0.13354155,0.0,0.0,0.0,0.0,0.0,0.0,0.0
478216920,478214698,0.0,0.0,0.0,0.45019704,0.0,0.0,0.0,0.0,0.0,0.0,0.0,0.0,0.0,0.016721256,0.0,0.0,nan,0.0,0.0,0.0,0.076169126,0.0,0.0,0.0,0.0,0.0,0.0,0.0
478707421,478704952,0.0,0.0,0.0,0.63867086,0.0,0.0,0.0,0.0,0.0,0.0,0.0,0.0,0.0,0.03215335,0.0,0.0,nan,0.0,0.0,0.0,0.09226977,0.0,0.0,0.0,0.0,0.0,0.0,0.0
479207166,479205217,0.0,0.0,0.0,0.80567497,0.0,0.0,0.0,0.0,0.0,0.0,0.0,0.0,0.0,0.039496772,0.0,0.0,nan,0.0,0.0,0.0,0.12705947,0.0,0.0,0.0,0.0,0.0,0.0,0.0
479712131,479705470,0.0,0.0,0.0,1.012622,0.0,0.0,0.0,0.0,0.0,0.0,0.0,0.0,0.0,0.036789592,0.0,0.0,nan,0.0,0.0,0.0,0.09320117,0.0,0.0,0.0,0.0,0.0,0.0,0.0
480212424,480205743,0.0,0.0,0.0,1.1143134,0.0,0.0,0.0,0.0,0.0,0.0,0.0,0.0,0.0,0.051094424,0.0,0.0,nan,0.0,0.0,0.0,0.06777741,0.0,0.0,0.0,0.0,0.0,0.0,0.0
480708061,480705981,0.0,0.0,0.0,1.1926663,0.0,0.0,0.0,0.0,0.0,0.0,0.0,0.0,0.0,0.032567784,0.0,0.0,nan,0.0,0.0,0.0,0.06880847,0.0,0.0,0.0,0.0,0.0,0.0,0.0
481212765,481206236,0.0,0.0,0.0,1.2109965,0.0,0.0,0.0,0.0,0.0,0.0,0.0,0.0,0.0,0.034640852,0.0,0.0,nan,0.0,0.0,0.0,0.11485218,0.0,0.0,0.0,0.0,0.0,0.0,0.0
481713260,481706487,0.0,0.0,0.0,1.1692749,0.0,0.0,0.0,0.0,0.0,0.0,0.0,0.0,0.0,0.03568936,0.0,0.0,nan,0.0,0.0,0.0,0.04770244,0.0,0.0,0.0,0.0,0.0,0.0,0.0
482208902,482206750,0.0,0.0,0.0,1.1512289,0.0,0.0,0.0,0.0,0.0,0.0,0.0,0.0,0.0,0.022722537,0.0,0.0,nan,0.0,0.0,0.0,0.027900727,0.0,0.0,0.0,0.0,0.0,0.0,0.0
482713431,482706996,0.0,0.0,0.0,1.171187,0.0,0.0,0.0,0.0,0.0,0.0,0.0,0.0,0.0,0.022866607,0.0,0.0,nan,0.0,0.0,0.0,0.030274464,0.0,0.0,0.0,0.0,0.0,0.0,0.0
483209123,483207248,0.0,0.0,0.0,1.2396628,0.0,0.0,0.0,0.0,0.0,0.0,0.0,0.0,0.0,0.009011376,0.0,0.0,nan,0.0,0.0,0.0,0.003448901,0.0,0.0,0.0,0.0,0.0,0.0,0.0
483709734,483707505,0.0,0.0,0.0,1.4374928,0.0,0.0,0.0,0.0,0.0,0.0,0.0,0.0,0.0,0.003823324,0.0,0.0,nan,0.0,0.0,0.0,0.006504844,0.0,0.0,0.0,0.0,0.0,0.0,0.0
484214433,484207751,0.0,0.0,0.0,1.5992689,0.0,0.0,0.0,0.0,0.0,0.0,0.0,0.0,0.0,5.4968175e-05,0.0,0.0,nan,0.0,0.0,0.0,0.020358078,0.0,0.0,0.0,0.0,0.0,0.0,0.0
484709941,484708012,0.0,0.0,0.0,1.7683991,0.0,0.0,0.0,0.0,0.0,0.0,0.0,0.0,0.0,9.351099e-05,0.0,0.0,nan,0.0,0.0,0.0,0.02336686,0.0,0.0,0.0,0.0,0.0,0.0,0.0
485210176,485208283,0.0,0.0,0.0,1.8220941,0.0,0.0,0.0,0.0,0.0,0.0,0.0,0.0,0.0,3.0448464e-06,0.0,0.0,nan,0.0,0.0,0.0,0.04416423,0.0,0.0,0.0,0.0,0.0,0.0,0.0
486210808,486208755,0.0,0.0,0.0,1.7371913,0.0,0.0,0.0,0.0,0.0,0.0,0.0,0.0,0.0,4.5226525e-08,0.0,0.0,nan,0.0,0.0,0.0,0.059686564,0.0,0.0,0.0,0.0,0.0,0.0,0.0
486716085,486709017,0.0,0.0,0.0,1.5692747,0.0,0.0,0.0,0.0,0.0,0.0,0.0,0.0,0.0,5.6767345e-07,0.0,0.0,nan,0.0,0.0,0.0,0.057461414,0.0,0.0,0.0,0.0,0.0,0.0,0.0
487211068,487209256,0.0,0.0,0.0,1.4465836,0.0,0.0,0.0,0.0,0.0,0.0,0.0,0.0,0.0,2.9993578e-06,0.0,0.0,nan,0.0,0.0,0.0,0.045899786,0.0,0.0,0.0,0.0,0.0,0.0,0.0
487716221,487709497,0.0,0.0,0.0,1.2660463,0.0,0.0,0.0,0.0,0.0,0.0,0.0,0.0,0.0,0.00082826574,0.0,0.0,nan,0.0,0.0,0.0,0.037854504,0.0,0.0,0.0,0.0,0.0,0.0,0.0
488211819,488209739,0.0,0.0,0.0,1.165086,0.0,0.0,0.0,0.0,0.0,0.0,0.0,0.0,0.0,2.5844558e-05,0.0,0.0,nan,0.0,0.0,0.0,0.027205402,0.0,0.0,0.0,0.0,0.0,0.0,0.0
488711949,488709997,0.0,0.0,0.0,1.0351291,0.0,0.0,0.0,0.0,0.0,0.0,0.0,0.0,0.0,0.00037978907,0.0,0.0,nan,0.0,0.0,0.0,0.016892122,0.0,0.0,0.0,0.0,0.0,0.0,0.0
489216931,489210227,0.0,0.0,0.0,0.97668356,0.0,0.0,0.0,0.0,0.0,0.0,0.0,0.0,0.0,0.002268889,0.0,0.0,nan,0.0,0.0,0.0,0.013389709,0.0,0.0,0.0,0.0,0.0,0.0,0.0
489712773,489710474,0.0,0.0,0.0,0.92922914,0.0,0.0,0.0,0.0,0.0,0.0,0.0,0.0,0.0,0.003457786,0.0,0.0,nan,0.0,0.0,0.0,0.015505016,0.0,0.0,0.0,0.0,0.0,0.0,0.0
490217262,490210711,0.0,0.0,0.0,0.9292201,0.0,0.0,0.0,0.0,0.0,0.0,0.0,0.0,0.0,0.004077398,0.0,0.0,nan,0.0,0.0,0.0,0.028340317,0.0,0.0,0.0,0.0,0.0,0.0,0.0
490713539,490710957,0.0,0.0,0.0,0.9862294,0.0,0.0,0.0,0.0,0.0,0.0,0.0,0.0,0.0,0.0145257125,0.0,0.0,nan,0.0,0.0,0.0,0.03393566,0.0,0.0,0.0,0.0,0.0,0.0,0.0
491213521,491211198,0.0,0.0,0.0,1.0509924,0.0,0.0,0.0,0.0,0.0,0.0,0.0,0.0,0.0,0.012373808,0.0,0.0,nan,0.0,0.0,0.0,0.019146437,0.0,0.0,0.0,0.0,0.0,0.0,0.0
492213757,492211678,0.0,0.0,0.0,1.3066815,0.0,0.0,0.0,0.0,0.0,0.0,0.0,0.0,0.0,0.026539076,0.0,0.0,nan,0.0,0.0,0.0,0.025143437,0.0,0.0,0.0,0.0,0.0,0.0,0.0
492718446,492711918,0.0,0.0,0.0,1.519109,0.0,0.0,0.0,0.0,0.0,0.0,0.0,0.0,0.0,0.037664577,0.0,0.0,nan,0.0,0.0,0.0,0.02348894,0.0,0.0,0.0,0.0,0.0,0.0,0.0
493214075,493212158,0.0,0.0,0.0,1.6610782,0.0,0.0,0.0,0.0,0.0,0.0,0.0,0.0,0.0,0.0488799,0.0,0.0,nan,0.0,0.0,0.0,0.026982786,0.0,0.0,0.0,0.0,0.0,0.0,0.0
493719266,493712409,0.0,0.0,0.0,1.9117253,0.0,0.0,0.0,0.0,0.0,0.0,0.0,0.0,0.0,0.050661985,0.0,0.0,nan,0.0,0.0,0.0,0.00984065,0.0,0.0,0.0,0.0,0.0,0.0,0.0
494214693,494212635,0.0,0.0,0.0,2.1050751,0.0,0.0,0.0,0.0,0.0,0.0,0.0,0.0,0.0,0.07080516,0.0,0.0,nan,0.0,0.0,0.0,0.01892535,0.0,0.0,0.0,0.0,0.0,0.0,0.0
494719513,494712873,0.0,0.0,0.0,2.4130025,0.0,0.0,0.0,0.0,0.0,0.0,0.0,0.0,0.0,0.06677401,0.0,0.0,nan,0.0,0.0,0.0,0.034829177,0.0,0.0,0.0,0.0,0.0,0.0,0.0
495215199,495213109,0.0,0.0,0.0,2.6266298,0.0,0.0,0.0,0.0,0.0,0.0,0.0,0.0,0.0,0.08093456,0.0,0.0,nan,0.0,0.0,0.0,0.045800615,0.0,0.0,0.0,0.0,0.0,0.0,0.0
495715891,495713352,0.0,0.0,0.0,2.9079635,0.0,0.0,0.0,0.0,0.0,0.0,0.0,0.0,0.0,0.063257806,0.0,0.0,nan,0.0,0.0,0.0,0.058992606,0.0,0.0,0.0,0.0,0.0,0.0,0.0
496215755,496213594,0.0,0.0,0.0,3.0543067,0.0,0.0,0.0,0.0,0.0,0.0,0.0,0.0,0.0,0.07424305,0.0,0.0,nan,0.0,0.0,0.0,0.053043433,0.0,0.0,0.0,0.0,0.0,0.0,0.0
496720604,496713820,0.0,0.0,0.0,3.1949463,0.0,0.0,0.0,0.0,0.0,0.0,0.0,0.0,0.0,0.061900128,0.0,0.0,nan,0.0,0.0,0.0,0.04583195,0.0,0.0,0.0,0.0,0.0,0.0,0.0
497215966,497214085,0.0,0.0,0.0,3.2320983,0.0,0.0,0.0,0.0,0.0,0.0,0.0,0.0,0.0,0.0544832,0.0,0.0,nan,0.0,0.0,0.0,0.029125554,0.0,0.0,0.0,0.0,0.0,0.0,0.0
498221215,498214518,0.0,0.0,0.0,3.1789443,0.0,0.0,0.0,0.0,0.0,0.0,0.0,0.0,0.0,0.031628806,0.0,0.0,nan,0.0,0.0,0.0,0.0123527795,0.0,0.0,0.0,0.0,0.0,0.0,0.0
499206895,499204977,0.0,0.0,0.0,3.0055563,0.0,0.0,0.0,0.0,0.0,0.0,0.0,0.0,0.0,0.028898817,0.0,0.0,nan,0.0,0.0,0.0,0.012093309,0.0,0.0,0.0,0.0,0.0,0.0,0.0
499707147,499705208,0.0,0.0,0.0,2.9226768,0.0,0.0,0.0,0.0,0.0,0.0,0.0,0.0,0.0,0.010385656,0.0,0.0,nan,0.0,0.0,0.0,0.00996562,0.0,0.0,0.0,0.0,0.0,0.0,0.0
500211873,500205441,0.0,0.0,0.0,2.9077187,0.0,0.0,0.0,0.0,0.0,0.0,0.0,0.0,0.0,0.011070468,0.0,0.0,nan,0.0,0.0,0.0,0.018622328,0.0,0.0,0.0,0.0,0.0,0.0,0.0
500707897,500705675,0.0,0.0,0.0,2.8360665,0.0,0.0,0.0,0.0,0.0,0.0,0.0,0.0,0.0,0.009955863,0.0,0.0,nan,0.0,0.0,0.0,0.0012004484,0.0,0.0,0.0,0.0,0.0,0.0,0.0
501208543,501205918,0.0,0.0,0.0,2.6859899,0.0,0.0,0.0,0.0,0.0,0.0,0.0,0.0,0.0,0.0073710317,0.0,0.0,nan,0.0,0.0,0.0,0.030849846,0.0,0.0,0.0,0.0,0.0,0.0,0.0
501712758,501706128,0.0,0.0,0.0,2.309827,0.0,0.0,0.0,0.0,0.0,0.0,0.0,0.0,0.0,0.0008977233,0.0,0.0,nan,0.0,0.0,0.0,0.022784885,0.0,0.0,0.0,0.0,0.0,0.0,0.0
502208502,502206356,0.0,0.0,0.0,1.9879713,0.0,0.0,0.0,0.0,0.0,0.0,0.0,0.0,0.0,2.8372635e-05,0.0,0.0,nan,0.0,0.0,0.0,0.07881699,0.0,0.0,0.0,0.0,0.0,0.0,0.0
502713515,502706585,0.0,0.0,0.0,1.4584842,0.0,0.0,0.0,0.0,0.0,0.0,0.0,0.0,0.0,0.00034943988,0.0,0.0,nan,0.0,0.0,0.0,0.0134391645,0.0,0.0,0.0,0.0,0.0,0.0,0.0
503213482,503206813,0.0,0.0,0.0,1.1293207,0.0,0.0,0.0,0.0,0.0,0.0,0.0,0.0,0.0,0.0014739612,0.0,0.0,nan,0.0,0.0,0.0,0.023645878,0.0,0.0,0.0,0.0,0.0,0.0,0.0
503713868,503707041,0.0,0.0,0.0,0.75594825,0.0,0.0,0.0,0.0,0.0,0.0,0.0,0.0,0.0,0.0003359853,0.0,0.0,nan,0.0,0.0,0.0,0.0317652,0.0,0.0,0.0,0.0,0.0,0.0,0.0
504209226,504207274,0.0,0.0,0.0,0.5821887,0.0,0.0,0.0,0.0,0.0,0.0,0.0,0.0,0.0,0.0025683208,0.0,0.0,nan,0.0,0.0,0.0,0.019134983,0.0,0.0,0.0,0.0,0.0,0.0,0.0
504714258,504707500,0.0,0.0,0.0,0.6795719,0.0,0.0,0.0,0.0,0.0,0.0,0.0,0.0,0.0,0.0021820343,0.0,0.0,nan,0.0,0.0,0.0,0.042638876,0.0,0.0,0.0,0.0,0.0,0.0,0.0
505209545,505207741,0.0,0.0,0.0,0.73879933,0.0,0.0,0.0,0.0,0.0,0.0,0.0,0.0,0.0,0.0019378896,0.0,0.0,nan,0.0,0.0,0.0,0.049570702,0.0,0.0,0.0,0.0,0.0,0.0,0.0
505709979,505707951,0.0,0.0,0.0,0.81920016,0.0,0.0,0.0,0.0,0.0,0.0,0.0,0.0,0.0,0.004512823,0.0,0.0,nan,0.0,0.0,0.0,0.0617599,0.0,0.0,0.0,0.0,0.0,0.0,0.0
506210268,506208174,0.0,0.0,0.0,0.8839688,0.0,0.0,0.0,0.0,0.0,0.0,0.0,0.0,0.0,0.0045807897,0.0,0.0,nan,0.0,0.0,0.0,0.050617896,0.0,0.0,0.0,0.0,0.0,0.0,0.0
506715116,506708409,0.0,0.0,0.0,1.0355239,0.0,0.0,0.0,0.0,0.0,0.0,0.0,0.0,0.0,0.0030859187,0.0,0.0,nan,0.0,0.0,0.0,0.05425621,0.0,0.0,0.0,0.0,0.0,0.0,0.0
507215476,507208624,0.0,0.0,0.0,1.1962624,0.0,0.0,0.0,0.0,0.0,0.0,0.0,0.0,0.0,0.0023506915,0.0,0.0,nan,0.0,0.0,0.0,0.049456958,0.0,0.0,0.0,0.0,0.0,0.0,0.0
507711130,507708847,0.0,0.0,0.0,1.4594319,0.0,0.0,0.0,0.0,0.0,0.0,0.0,0.0,0.0,0.005913656,0.0,0.0,nan,0.0,0.0,0.0,0.17652847,0.0,0.0,0.0,0.0,0.0,0.0,0.0
508210973,508209073,0.0,0.0,0.0,1.6118854,0.0,0.0,0.0,0.0,0.0,0.0,0.0,0.0,0.0,0.0006307463,0.0,0.0,nan,0.0,0.0,0.0,0.11003196,0.0,0.0,0.0,0.0,0.0,0.0,0.0
508711596,508709318,0.0,0.0,0.0,1.8224949,0.0,0.0,0.0,0.0,0.0,0.0,0.0,0.0,0.0,0.0002243244,0.0,0.0,nan,0.0,0.0,0.0,0.10749917,0.0,0.0,0.0,0.0,0.0,0.0,0.0
509211371,509209522,0.0,0.0,0.0,1.9142425,0.0,0.0,0.0,0.0,0.0,0.0,0.0,0.0,0.0,6.9515286e-06,0.0,0.0,nan,0.0,0.0,0.0,0.23659532,0.0,0.0,0.0,0.0,0.0,0.0,0.0
509712019,509709746,0.0,0.0,0.0,1.896533,0.0,0.0,0.0,0.0,0.0,0.0,0.0,0.0,0.0,0.00019440331,0.0,0.0,nan,0.0,0.0,0.0,0.37373698,0.0,0.0,0.0,0.0,0.0,0.0,0.0
510216586,510209974,0.0,0.0,0.0,1.7951195,0.0,0.0,0.0,0.0,0.0,0.0,0.0,0.0,0.0,0.0034708078,0.0,0.0,nan,0.0,0.0,0.0,0.34115908,0.0,0.0,0.0,0.0,0.0,0.0,0.0
510712399,510710202,0.0,0.0,0.0,1.5323209,0.0,0.0,0.0,0.0,0.0,0.0,0.0,0.0,0.0,0.0059453137,0.0,0.0,nan,0.0,0.0,0.0,0.37603664,0.0,0.0,0.0,0.0,0.0,0.0,0.0
511212654,511210427,0.0,0.0,0.0,1.2968104,0.0,0.0,0.0,0.0,0.0,0.0,0.0,0.0,0.0,0.013028047,0.0,0.0,nan,0.0,0.0,0.0,0.34995127,0.0,0.0,0.0,0.0,0.0,0.0,0.0
511712730,511710663,0.0,0.0,0.0,1.2227627,0.0,0.0,0.0,0.0,0.0,0.0,0.0,0.0,0.0,0.024196858,0.0,0.0,nan,0.0,0.0,0.0,0.28868076,0.0,0.0,0.0,0.0,0.0,0.0,0.0
512217731,512210873,0.0,0.0,0.0,1.4722205,0.0,0.0,0.0,0.0,0.0,0.0,0.0,0.0,0.0,0.036394022,0.0,0.0,nan,0.0,0.0,0.0,0.37817213,0.0,0.0,0.0,0.0,0.0,0.0,0.0
512713471,512711100,0.0,0.0,0.0,1.8037772,0.0,0.0,0.0,0.0,0.0,0.0,0.0,0.0,0.0,0.0429497,0.0,0.0,nan,0.0,0.0,0.0,0.23687515,0.0,0.0,0.0,0.0,0.0,0.0,0.0
513218130,513211333,0.0,0.0,0.0,2.0109248,0.0,0.0,0.0,0.0,0.0,0.0,0.0,0.0,0.0,0.0427621,0.0,0.0,nan,0.0,0.0,0.0,0.15518749,0.0,0.0,0.0,0.0,0.0,0.0,0.0
513713715,513711573,0.0,0.0,0.0,2.3325539,0.0,0.0,0.0,0.0,0.0,0.0,0.0,0.0,0.0,0.04498655,0.0,0.0,nan,0.0,0.0,0.0,0.24132894,0.0,0.0,0.0,0.0,0.0,0.0,0.0
514218286,514211786,0.0,0.0,0.0,2.5142322,0.0,0.0,0.0,0.0,0.0,0.0,0.0,0.0,0.0,0.030886311,0.0,0.0,nan,0.0,0.0,0.0,0.38468036,0.0,0.0,0.0,0.0,0.0,0.0,0.0
514718949,514712009,0.0,0.0,0.0,2.6628118,0.0,0.0,0.0,0.0,0.0,0.0,0.0,0.0,0.0,0.036491722,0.0,0.0,nan,0.0,0.0,0.0,0.05454454,0.0,0.0,0.0,0.0,0.0,0.0,0.0
515218944,515212237,0.0,0.0,0.0,2.712682,0.0,0.0,0.0,0.0,0.0,0.0,0.0,0.0,0.0,0.031163068,0.0,0.0,nan,0.0,0.0,0.0,0.02181785,0.0,0.0,0.0,0.0,0.0,0.0,0.0
515719218,515712463,0.0,0.0,0.0,2.7560148,0.0,0.0,0.0,0.0,0.0,0.0,0.0,0.0,0.0,0.022155179,0.0,0.0,nan,0.0,0.0,0.0,0.0024898634,0.0,0.0,0.0,0.0,0.0,0.0,0.0
516214848,516212690,0.0,0.0,0.0,2.7742093,0.0,0.0,0.0,0.0,0.0,0.0,0.0,0.0,0.0,0.009428353,0.0,0.0,nan,0.0,0.0,0.0,0.05966748,0.0,0.0,0.0,0.0,0.0,0.0,0.0
516715100,516712924,0.0,0.0,0.0,2.7596214,0.0,0.0,0.0,0.0,0.0,0.0,0.0,0.0,0.0,0.002074662,0.0,0.0,nan,0.0,0.0,0.0,0.12174717,0.0,0.0,0.0,0.0,0.0,0.0,0.0
517219874,517213147,0.0,0.0,0.0,2.7212996,0.0,0.0,0.0,0.0,0.0,0.0,0.0,0.0,0.0,0.00016702859,0.0,0.0,nan,0.0,0.0,0.0,0.13232054,0.0,0.0,0.0,0.0,0.0,0.0,0.0
517720167,517713366,0.0,0.0,0.0,2.6530352,0.0,0.0,0.0,0.0,0.0,0.0,0.0,0.0,0.0,0.004000993,0.0,0.0,nan,0.0,0.0,0.0,0.19694898,0.0,0.0,0.0,0.0,0.0,0.0,0.0
518215805,518213623,0.0,0.0,0.0,2.6148562,0.0,0.0,0.0,0.0,0.0,0.0,0.0,0.0,0.0,0.009435425,0.0,0.0,nan,0.0,0.0,0.0,0.23690325,0.0,0.0,0.0,0.0,0.0,0.0,0.0
518720459,518713816,0.0,0.0,0.0,2.5119526,0.0,0.0,0.0,0.0,0.0,0.0,0.0,0.0,0.0,0.014824133,0.0,0.0,nan,0.0,0.0,0.0,0.14747968,0.0,0.0,0.0,0.0,0.0,0.0,0.0
519215968,519214041,0.0,0.0,0.0,2.408093,0.0,0.0,0.0,0.0,0.0,0.0,0.0,0.0,0.0,0.025293449,0.0,0.0,nan,0.0,0.0,0.0,0.1252702,0.0,0.0,0.0,0.0,0.0,0.0,0.0
519716394,519714265,0.0,0.0,0.0,2.2122478,0.0,0.0,0.0,0.0,0.0,0.0,0.0,0.0,0.0,0.031003593,0.0,0.0,nan,0.0,0.0,0.0,0.07400014,0.0,0.0,0.0,0.0,0.0,0.0,0.0
520220919,520214489,0.0,0.0,0.0,2.0524044,0.0,0.0,0.0,0.0,0.0,0.0,0.0,0.0,0.0,0.042297453,0.0,0.0,nan,0.0,0.0,0.0,0.12999423,0.0,0.0,0.0,0.0,0.0,0.0,0.0
520716742,520714713,0.0,0.0,0.0,1.7666918,0.0,0.0,0.0,0.0,0.0,0.0,0.0,0.0,0.0,0.05237731,0.0,0.0,nan,0.0,0.0,0.0,0.13758336,0.0,0.0,0.0,0.0,0.0,0.0,0.0
521206783,521204931,0.0,0.0,0.0,1.5557508,0.0,0.0,0.0,0.0,0.0,0.0,0.0,0.0,0.0,0.070412934,0.0,0.0,nan,0.0,0.0,0.0,0.19882292,0.0,0.0,0.0,0.0,0.0,0.0,0.0
521712240,521705162,0.0,0.0,0.0,1.2495859,0.0,0.0,0.0,0.0,0.0,0.0,0.0,0.0,0.0,0.10098599,0.0,0.0,nan,0.0,0.0,0.0,0.26143587,0.0,0.0,0.0,0.0,0.0,0.0,0.0
522207254,522205389,0.0,0.0,0.0,1.0728995,0.0,0.0,0.0,0.0,0.0,0.0,0.0,0.0,0.0,0.07047377,0.0,0.0,nan,0.0,0.0,0.0,0.03072409,0.0,0.0,0.0,0.0,0.0,0.0,0.0
522707649,522705601,0.0,0.0,0.0,0.84783334,0.0,0.0,0.0,0.0,0.0,0.0,0.0,0.0,0.0,0.10235181,0.0,0.0,nan,0.0,0.0,0.0,0.09945648,0.0,0.0,0.0,0.0,0.0,0.0,0.0
523212803,523205823,0.0,0.0,0.0,0.71422434,0.0,0.0,0.0,0.0,0.0,0.0,0.0,0.0,0.0,0.122649394,0.0,0.0,nan,0.0,0.0,0.0,0.09711894,0.0,0.0,0.0,0.0,0.0,0.0,0.0
523712624,523706045,0.0,0.0,0.0,0.5363462,0.0,0.0,0.0,0.0,0.0,0.0,0.0,0.0,0.0,0.13446572,0.0,0.0,nan,0.0,0.0,0.0,0.12885365,0.0,0.0,0.0,0.0,0.0,0.0,0.0
524208286,524206278,0.0,0.0,0.0,0.4294944,0.0,0.0,0.0,0.0,0.0,0.0,0.0,0.0,0.0,0.14460127,0.0,0.0,nan,0.0,0.0,0.0,0.31002954,0.0,0.0,0.0,0.0,0.0,0.0,0.0
524713022,524706489,0.0,0.0,0.0,0.26611507,0.0,0.0,0.0,0.0,0.0,0.0,0.0,0.0,0.0,0.18051355,0.0,0.0,nan,0.0,0.0,0.0,0.2653697,0.0,0.0,0.0,0.0,0.0,0.0,0.0
525208932,525206711,0.0,0.0,0.0,0.17245169,0.0,0.0,0.0,0.0,0.0,0.0,0.0,0.0,0.0,0.2003879,0.0,0.0,nan,0.0,0.0,0.0,0.5375458,0.0,0.0,0.0,0.0,0.0,0.0,0.0
525713618,525706932,0.0,0.0,0.0,0.060524743,0.0,0.0,0.0,0.0,0.0,0.0,0.0,0.0,0.0,0.20482974,0.0,0.0,nan,0.0,0.0,0.0,0.49539188,0.0,0.0,0.0,0.0,0.0,0.0,0.0
526209117,526207155,0.0,0.0,0.0,0.02245134,0.0,0.0,0.0,0.0,0.0,0.0,0.0,0.0,0.0,0.19513567,0.0,0.0,nan,0.0,0.0,0.0,0.5834606,0.0,0.0,0.0,0.0,0.0,0.0,0.0
526709696,526707451,0.0,0.0,0.0,0.019703899,0.0,0.0,0.0,0.0,0.0,0.0,0.0,0.0,0.0,0.20654356,0.0,0.0,nan,0.0,0.0,0.0,0.4955088,0.0,0.0,0.0,0.0,0.0,0.0,0.0
527214158,527207607,0.0,0.0,0.0,0.025475563,0.0,0.0,0.0,0.0,0.0,0.0,0.0,0.0,0.0,0.23004201,0.0,0.0,nan,0.0,0.0,0.0,0.48260188,0.0,0.0,0.0,0.0,0.0,0.0,0.0
528210248,528208052,0.0,0.0,0.0,0.22863649,0.0,0.0,0.0,0.0,0.0,0.0,0.0,0.0,0.0,0.17930095,0.0,0.0,nan,0.0,0.0,0.0,0.3583681,0.0,0.0,0.0,0.0,0.0,0.0,0.0
528714850,528708279,0.0,0.0,0.0,0.43759412,0.0,0.0,0.0,0.0,0.0,0.0,0.0,0.0,0.0,0.19904898,0.0,0.0,nan,0.0,0.0,0.0,0.3713711,0.0,0.0,0.0,0.0,0.0,0.0,0.0
529215139,529208509,0.0,0.0,0.0,0.5948914,0.0,0.0,0.0,0.0,0.0,0.0,0.0,0.0,0.0,0.18649262,0.0,0.0,nan,0.0,0.0,0.0,0.41865882,0.0,0.0,0.0,0.0,0.0,0.0,0.0
529715298,529708724,0.0,0.0,0.0,0.8258856,0.0,0.0,0.0,0.0,0.0,0.0,0.0,0.0,0.0,0.15356596,0.0,0.0,nan,0.0,0.0,0.0,0.20608766,0.0,0.0,0.0,0.0,0.0,0.0,0.0
530211613,530208949,0.0,0.0,0.0,0.92006534,0.0,0.0,0.0,0.0,0.0,0.0,0.0,0.0,0.0,0.15690814,0.0,0.0,nan,0.0,0.0,0.0,0.6080932,0.0,0.0,0.0,0.0,0.0,0.0,0.0
530711275,530709177,0.0,0.0,0.0,1.1199971,0.0,0.0,0.0,0.0,0.0,0.0,0.0,0.0,0.0,0.09162995,0.0,0.0,nan,0.0,0.0,0.0,0.11592056,0.0,0.0,0.0,0.0,0.0,0.0,0.0
531211458,531209409,0.0,0.0,0.0,1.2857848,0.0,0.0,0.0,0.0,0.0,0.0,0.0,0.0,0.0,0.11346042,0.0,0.0,nan,0.0,0.0,0.0,0.43606955,0.0,0.0,0.0,0.0,0.0,0.0,0.0
531716515,531709630,0.0,0.0,0.0,1.5141523,0.0,0.0,0.0,0.0,0.0,0.0,0.0,0.0,0.0,0.08535319,0.0,0.0,nan,0.0,0.0,0.0,0.5123951,0.0,0.0,0.0,0.0,0.0,0.0,0.0
532216428,532209857,0.0,0.0,0.0,1.6489388,0.0,0.0,0.0,0.0,0.0,0.0,0.0,0.0,0.0,0.09420255,0.0,0.0,nan,0.0,0.0,0.0,0.45453784,0.0,0.0,0.0,0.0,0.0,0.0,0.0
532712546,532710088,0.0,0.0,0.0,1.8231004,0.0,0.0,0.0,0.0,0.0,0.0,0.0,0.0,0.0,0.061900694,0.0,0.0,nan,0.0,0.0,0.0,0.4016949,0.0,0.0,0.0,0.0,0.0,0.0,0.0
533217202,533210313,0.0,0.0,0.0,1.8579237,0.0,0.0,0.0,0.0,0.0,0.0,0.0,0.0,0.0,0.00046334168,0.0,0.0,nan,0.0,0.0,0.0,0.6134529,0.0,0.0,0.0,0.0,0.0,0.0,0.0
533717128,533710562,0.0,0.0,0.0,1.7584736,0.0,0.0,0.0,0.0,0.0,0.0,0.0,0.0,0.0,0.00014566803,0.0,0.0,nan,0.0,0.0,0.0,0.44057822,0.0,0.0,0.0,0.0,0.0,0.0,0.0
534212823,534210771,0.0,0.0,0.0,1.6774591,0.0,0.0,0.0,0.0,0.0,0.0,0.0,0.0,0.0,0.0021873328,0.0,0.0,nan,0.0,0.0,0.0,0.39457572,0.0,0.0,0.0,0.0,0.0,0.0,0.0
534713125,534710993,0.0,0.0,0.0,1.5377619,0.0,0.0,0.0,0.0,0.0,0.0,0.0,0.0,0.0,0.015989617,0.0,0.0,nan,0.0,0.0,0.0,0.26947892,0.0,0.0,0.0,0.0,0.0,0.0,0.0
535213264,535211225,0.0,0.0,0.0,1.4080884,0.0,0.0,0.0,0.0,0.0,0.0,0.0,0.0,0.0,0.005968308,0.0,0.0,nan,0.0,0.0,0.0,0.27980784,0.0,0.0,0.0,0.0,0.0,0.0,0.0
535718012,535711456,0.0,0.0,0.0,1.1786598,0.0,0.0,0.0,0.0,0.0,0.0,0.0,0.0,0.0,0.0032441868,0.0,0.0,nan,0.0,0.0,0.0,0.25417492,0.0,0.0,0.0,0.0,0.0,0.0,0.0
536213548,536211668,0.0,0.0,0.0,1.01013,0.0,0.0,0.0,0.0,0.0,0.0,0.0,0.0,0.0,0.009815379,0.0,0.0,nan,0.0,0.0,0.0,0.22657618,0.0,0.0,0.0,0.0,0.0,0.0,0.0
536714313,536711896,0.0,0.0,0.0,0.74565685,0.0,0.0,0.0,0.0,0.0,0.0,0.0,0.0,0.0,0.0005594889,0.0,0.0,nan,0.0,0.0,0.0,0.2824231,0.0,0.0,0.0,0.0,0.0,0.0,0.0
537214358,537212118,0.0,0.0,0.0,0.5815747,0.0,0.0,0.0,0.0,0.0,0.0,0.0,0.0,0.0,0.0058744876,0.0,0.0,nan,0.0,0.0,0.0,0.18293528,0.0,0.0,0.0,0.0,0.0,0.0,0.0
537714402,537712354,0.0,0.0,0.0,0.37719673,0.0,0.0,0.0,0.0,0.0,0.0,0.0,0.0,0.0,0.0023540522,0.0,0.0,nan,0.0,0.0,0.0,0.14062983,0.0,0.0,0.0,0.0,0.0,0.0,0.0
538219275,538212564,0.0,0.0,0.0,0.27585885,0.0,0.0,0.0,0.0,0.0,0.0,0.0,0.0,0.0,0.0015416992,0.0,0.0,nan,0.0,0.0,0.0,0.18714808,0.0,0.0,0.0,0.0,0.0,0.0,0.0
538715256,538712781,0.0,0.0,0.0,0.16683967,0.0,0.0,0.0,0.0,0.0,0.0,0.0,0.0,0.0,0.0011116401,0.0,0.0,nan,0.0,0.0,0.0,0.15177256,0.0,0.0,0.0,0.0,0.0,0.0,0.0
539214905,539213025,0.0,0.0,0.0,0.12243244,0.0,0.0,0.0,0.0,0.0,0.0,0.0,0.0,0.0,0.001436216,0.0,0.0,nan,0.0,0.0,0.0,0.13756876,0.0,0.0,0.0,0.0,0.0,0.0,0.0
539720131,539713222,0.0,0.0,0.0,0.079154,0.0,0.0,0.0,0.0,0.0,0.0,0.0,0.0,0.0,0.0012809557,0.0,0.0,nan,0.0,0.0,0.0,0.1074489,0.0,0.0,0.0,0.0,0.0,0.0,0.0
540215461,540213459,0.0,0.0,0.0,0.053137407,0.0,0.0,0.0,0.0,0.0,0.0,0.0,0.0,0.0,0.00019674459,0.0,0.0,nan,0.0,0.0,0.0,0.07077747,0.0,0.0,0.0,0.0,0.0,0.0,0.0
540720447,540713662,0.0,0.0,0.0,0.020381281,0.0,0.0,0.0,0.0,0.0,0.0,0.0,0.0,0.0,0.00047442355,0.0,0.0,nan,0.0,0.0,0.0,0.066561624,0.0,0.0,0.0,0.0,0.0,0.0,0.0
541216233,541213887,0.0,0.0,0.0,0.005495676,0.0,0.0,0.0,0.0,0.0,0.0,0.0,0.0,0.0,0.00020944903,0.0,0.0,nan,0.0,0.0,0.0,0.14036795,0.0,0.0,0.0,0.0,0.0,0.0,0.0
541721068,541714099,0.0,0.0,0.0,0.0005266343,0.0,0.0,0.0,0.0,0.0,0.0,0.0,0.0,0.0,0.00013484995,0.0,0.0,nan,0.0,0.0,0.0,0.13662416,0.0,0.0,0.0,0.0,0.0,0.0,0.0
542216595,542214324,0.0,0.0,0.0,0.0051620095,0.0,0.0,0.0,0.0,0.0,0.0,0.0,0.0,0.0,0.0007000391,0.0,0.0,nan,0.0,0.0,0.0,0.11270452,0.0,0.0,0.0,0.0,0.0,0.0,0.0
543221273,543214752,0.0,0.0,0.0,0.06587622,0.0,0.0,0.0,0.0,0.0,0.0,0.0,0.0,0.0,0.001945445,0.0,0.0,nan,0.0,0.0,0.0,0.13773711,0.0,0.0,0.0,0.0,0.0,0.0,0.0
543707240,543704965,0.0,0.0,0.0,0.15072425,0.0,0.0,0.0,0.0,0.0,0.0,0.0,0.0,0.0,0.005031502,0.0,0.0,nan,0.0,0.0,0.0,0.041255575,0.0,0.0,0.0,0.0,0.0,0.0,0.0
544211747,544205181,0.0,0.0,0.0,0.22580834,0.0,0.0,0.0,0.0,0.0,0.0,0.0,0.0,0.0,0.012595875,0.0,0.0,nan,0.0,0.0,0.0,0.02464373,0.0,0.0,0.0,0.0,0.0,0.0,0.0
544711975,544705405,0.0,0.0,0.0,0.36234868,0.0,0.0,0.0,0.0,0.0,0.0,0.0,0.0,0.0,0.014990232,0.0,0.0,nan,0.0,0.0,0.0,0.021947272,0.0,0.0,0.0,0.0,0.0,0.0,0.0
545207499,545205612,0.0,0.0,0.0,0.4719049,0.0,0.0,0.0,0.0,0.0,0.0,0.0,0.0,0.0,0.019351562,0.0,0.0,nan,0.0,0.0,0.0,0.024786493,0.0,0.0,0.0,0.0,0.0,0.0,0.0
545707689,545705827,0.0,0.0,0.0,0.66311085,0.0,0.0,0.0,0.0,0.0,0.0,0.0,0.0,0.0,0.024985686,0.0,0.0,nan,0.0,0.0,0.0,0.022534102,0.0,0.0,0.0,0.0,0.0,0.0,0.0
546208324,546206041,0.0,0.0,0.0,0.78805506,0.0,0.0,0.0,0.0,0.0,0.0,0.0,0.0,0.0,0.0037120515,0.0,0.0,nan,0.0,0.0,0.0,1.2560612,0.0,0.0,0.0,0.0,0.0,0.0,0.0
546708316,546706256,0.0,0.0,0.0,0.91888386,0.0,0.0,0.0,0.0,0.0,0.0,0.0,0.0,0.0,0.0074045546,0.0,0.0,nan,0.0,0.0,0.0,1.3423822,0.0,0.0,0.0,0.0,0.0,0.0,0.0
547209070,547206471,0.0,0.0,0.0,0.9669998,0.0,0.0,0.0,0.0,0.0,0.0,0.0,0.0,0.0,0.006919055,0.0,0.0,nan,0.0,0.0,0.0,1.3398479,0.0,0.0,0.0,0.0,0.0,0.0,0.0
547708581,547706707,0.0,0.0,0.0,0.98805255,0.0,0.0,0.0,0.0,0.0,0.0,0.0,0.0,0.0,0.007263005,0.0,0.0,nan,0.0,0.0,0.0,1.4329473,0.0,0.0,0.0,0.0,0.0,0.0,0.0
548208866,548206902,0.0,0.0,0.0,0.97664696,0.0,0.0,0.0,0.0,0.0,0.0,0.0,0.0,0.0,0.01196003,0.0,0.0,nan,0.0,0.0,0.0,1.5822759,0.0,0.0,0.0,0.0,0.0,0.0,0.0
548709544,548707117,0.0,0.0,0.0,0.92579716,0.0,0.0,0.0,0.0,0.0,0.0,0.0,0.0,0.0,0.010095199,0.0,0.0,nan,0.0,0.0,0.0,1.7130004,0.0,0.0,0.0,0.0,0.0,0.0,0.0
549209334,549207341,0.0,0.0,0.0,0.8698223,0.0,0.0,0.0,0.0,0.0,0.0,0.0,0.0,0.0,0.0051904214,0.0,0.0,nan,0.0,0.0,0.0,0.56632376,0.0,0.0,0.0,0.0,0.0,0.0,0.0
549709680,549707555,0.0,0.0,0.0,0.7874309,0.0,0.0,0.0,0.0,0.0,0.0,0.0,0.0,0.0,0.0012243515,0.0,0.0,nan,0.0,0.0,0.0,0.75902706,0.0,0.0,0.0,0.0,0.0,0.0,0.0
550214347,550207764,0.0,0.0,0.0,0.6991896,0.0,0.0,0.0,0.0,0.0,0.0,0.0,0.0,0.0,0.002046733,0.0,0.0,nan,0.0,0.0,0.0,0.20587772,0.0,0.0,0.0,0.0,0.0,0.0,0.0
550710057,550707980,0.0,0.0,0.0,0.5014996,0.0,0.0,0.0,0.0,0.0,0.0,0.0,0.0,0.0,0.0029992813,0.0,0.0,nan,0.0,0.0,0.0,0.17069542,0.0,0.0,0.0,0.0,0.0,0.0,0.0
551210012,551208206,0.0,0.0,0.0,0.38131735,0.0,0.0,0.0,0.0,0.0,0.0,0.0,0.0,0.0,9.846697e-06,0.0,0.0,nan,0.0,0.0,0.0,0.108597785,0.0,0.0,0.0,0.0,0.0,0.0,0.0
551715101,551708413,0.0,0.0,0.0,0.23917346,0.0,0.0,0.0,0.0,0.0,0.0,0.0,0.0,0.0,1.2834452e-06,0.0,0.0,nan,0.0,0.0,0.0,0.03166531,0.0,0.0,0.0,0.0,0.0,0.0,0.0
552215603,552208625,0.0,0.0,0.0,0.16673274,0.0,0.0,0.0,0.0,0.0,0.0,0.0,0.0,0.0,0.00013015335,0.0,0.0,nan,0.0,0.0,0.0,0.0030451468,0.0,0.0,0.0,0.0,0.0,0.0,0.0
552710860,552708839,0.0,0.0,0.0,0.076732405,0.0,0.0,0.0,0.0,0.0,0.0,0.0,0.0,0.0,4.0049992e-05,0.0,0.0,nan,0.0,0.0,0.0,0.005334495,0.0,0.0,0.0,0.0,0.0,0.0,0.0
553215958,553209054,0.0,0.0,0.0,0.0351746,0.0,0.0,0.0,0.0,0.0,0.0,0.0,0.0,0.0,0.0004138733,0.0,0.0,nan,0.0,0.0,0.0,0.06528561,0.0,0.0,0.0,0.0,0.0,0.0,0.0
553716270,553709267,0.0,0.0,0.0,0.0070398664,0.0,0.0,0.0,0.0,0.0,0.0,0.0,0.0,0.0,0.0011894777,0.0,0.0,nan,0.0,0.0,0.0,0.0021507998,0.0,0.0,0.0,0.0,0.0,0.0,0.0
554211678,554209481,0.0,0.0,0.0,0.0012973025,0.0,0.0,0.0,0.0,0.0,0.0,0.0,0.0,0.0,0.003637169,0.0,0.0,nan,0.0,0.0,0.0,0.00688728,0.0,0.0,0.0,0.0,0.0,0.0,0.0
554716443,554709695,0.0,0.0,0.0,0.02474658,0.0,0.0,0.0,0.0,0.0,0.0,0.0,0.0,0.0,0.0014509598,0.0,0.0,nan,0.0,0.0,0.0,0.00051390164,0.0,0.0,0.0,0.0,0.0,0.0,0.0
555211856,555209909,0.0,0.0,0.0,0.0607099,0.0,0.0,0.0,0.0,0.0,0.0,0.0,0.0,0.0,0.0035419501,0.0,0.0,nan,0.0,0.0,0.0,0.008234274,0.0,0.0,0.0,0.0,0.0,0.0,0.0
555712147,555710122,0.0,0.0,0.0,0.13556066,0.0,0.0,0.0,0.0,0.0,0.0,0.0,0.0,0.0,0.0041624135,0.0,0.0,nan,0.0,0.0,0.0,0.0033861883,0.0,0.0,0.0,0.0,0.0,0.0,0.0
556217117,556210334,0.0,0.0,0.0,0.19082756,0.0,0.0,0.0,0.0,0.0,0.0,0.0,0.0,0.0,0.005098403,0.0,0.0,nan,0.0,0.0,0.0,0.0021677096,0.0,0.0,0.0,0.0,0.0,0.0,0.0
556717318,556710547,0.0,0.0,0.0,0.27703026,0.0,0.0,0.0,0.0,0.0,0.0,0.0,0.0,0.0,0.004913726,0.0,0.0,nan,0.0,0.0,0.0,0.010757552,0.0,0.0,0.0,0.0,0.0,0.0,0.0
557217476,557210760,0.0,0.0,0.0,0.33461118,0.0,0.0,0.0,0.0,0.0,0.0,0.0,0.0,0.0,0.0030138553,0.0,0.0,nan,0.0,0.0,0.0,0.1297637,0.0,0.0,0.0,0.0,0.0,0.0,0.0
557712942,557710972,0.0,0.0,0.0,0.4422073,0.0,0.0,0.0,0.0,0.0,0.0,0.0,0.0,0.0,0.0006057654,0.0,0.0,nan,0.0,0.0,0.0,0.13497174,0.0,0.0,0.0,0.0,0.0,0.0,0.0
558213390,558211190,0.0,0.0,0.0,0.4974375,0.0,0.0,0.0,0.0,0.0,0.0,0.0,0.0,0.0,0.0009244543,0.0,0.0,nan,0.0,0.0,0.0,0.14075129,0.0,0.0,0.0,0.0,0.0,0.0,0.0
558713703,558711451,0.0,0.0,0.0,0.5376981,0.0,0.0,0.0,0.0,0.0,0.0,0.0,0.0,0.0,0.00045733032,0.0,0.0,nan,0.0,0.0,0.0,0.1066982,0.0,0.0,0.0,0.0,0.0,0.0,0.0
559218097,559211610,0.0,0.0,0.0,0.54792374,0.0,0.0,0.0,0.0,0.0,0.0,0.0,0.0,0.0,0.0022426941,0.0,0.0,nan,0.0,0.0,0.0,0.115845464,0.0,0.0,0.0,0.0,0.0,0.0,0.0
559713856,559711823,0.0,0.0,0.0,0.5445572,0.0,0.0,0.0,0.0,0.0,0.0,0.0,0.0,0.0,0.0013649227,0.0,0.0,nan,0.0,0.0,0.0,0.11043768,0.0,0.0,0.0,0.0,0.0,0.0,0.0
560218609,560212044,0.0,0.0,0.0,0.52301127,0.0,0.0,0.0,0.0,0.0,0.0,0.0,0.0,0.0,0.0002899728,0.0,0.0,nan,0.0,0.0,0.0,0.10709698,0.0,0.0,0.0,0.0,0.0,0.0,0.0
560714421,560712247,0.0,0.0,0.0,0.46335378,0.0,0.0,0.0,0.0,0.0,0.0,0.0,0.0,0.0,0.0008186813,0.0,0.0,nan,0.0,0.0,0.0,0.064907946,0.0,0.0,0.0,0.0,0.0,0.0,0.0
561214624,561212468,0.0,0.0,0.0,0.41232297,0.0,0.0,0.0,0.0,0.0,0.0,0.0,0.0,0.0,0.00018464208,0.0,0.0,nan,0.0,0.0,0.0,0.097328134,0.0,0.0,0.0,0.0,0.0,0.0,0.0
561719321,561712674,0.0,0.0,0.0,0.33504426,0.0,0.0,0.0,0.0,0.0,0.0,0.0,0.0,0.0,1.2404017e-06,0.0,0.0,nan,0.0,0.0,0.0,0.047939017,0.0,0.0,0.0,0.0,0.0,0.0,0.0
562215133,562212883,0.0,0.0,0.0,0.29080194,0.0,0.0,0.0,0.0,0.0,0.0,0.0,0.0,0.0,0.00028534836,0.0,0.0,nan,0.0,0.0,0.0,0.05598879,0.0,0.0,0.0,0.0,0.0,0.0,0.0
562715123,562713099,0.0,0.0,0.0,0.02881279,0.0,0.0,0.0,0.0,0.0,0.0,0.0,0.0,0.0,0.00046504475,0.0,0.0,nan,0.0,0.0,0.014661339,0.0,0.0,0.0,0.0,0.0,0.0,0.0,0.0
563215361,563213307,0.0,0.0,0.0,0.17870955,0.0,0.0,0.0,0.0,0.0,0.0,0.0,0.0,0.0,0.0007743885,0.0,0.0,nan,0.0,0.0,0.029887559,0.0,0.0,0.0,0.0,0.0,0.0,0.0,0.0
563715839,563713518,0.0,0.0,0.0,0.77842766,0.0,0.0,0.0,0.0,0.0,0.0,0.0,0.0,0.0,0.0008244298,0.0,0.0,nan,0.0,0.0,0.04237125,0.0,0.0,0.0,0.0,0.0,0.0,0.0,0.0
564215613,564213730,0.0,0.0,0.0,0.9943154,0.0,0.0,0.0,0.0,0.0,0.0,0.0,0.0,0.0,0.0014201718,0.0,0.0,nan,0.0,0.0,0.04322795,0.0,0.0,0.0,0.0,0.0,0.0,0.0,0.0
564716561,564713947,0.0,0.0,0.0,0.9259537,0.0,0.0,0.0,0.0,0.0,0.0,0.0,0.0,0.0,0.0050406316,0.0,0.0,nan,0.0,0.0,0.040359743,0.0,0.0,0.0,0.0,0.0,0.0,0.0,0.0
565216045,565214160,0.0,0.0,0.0,0.00461723,0.0,0.0,0.0,0.0,0.0,0.0,0.0,0.0,0.0,0.0035533875,0.0,0.0,nan,0.0,0.0,0.036818255,0.0,0.0,0.0,0.0,0.0,0.0,0.0,0.0
565716717,565714364,0.0,0.0,0.0,0.02674126,0.0,0.0,0.0,0.0,0.0,0.0,0.0,0.0,0.0,0.0039544096,0.0,0.0,nan,0.0,0.0,0.024695188,0.0,0.0,0.0,0.0,0.0,0.0,0.0,0.0
566217047,566214575,0.0,0.0,0.0,0.054838147,0.0,0.0,0.0,0.0,0.0,0.0,0.0,0.0,0.0,0.0027525946,0.0,0.0,nan,0.0,0.0,0.034875397,0.0,0.0,0.0,0.0,0.0,0.0,0.0,0.0
566717095,566714793,0.0,0.0,0.0,0.11236822,0.0,0.0,0.0,0.0,0.0,0.0,0.0,0.0,0.0,0.0018598178,0.0,0.0,nan,0.0,0.0,0.06462464,0.0,0.0,0.0,0.0,0.0,0.0,0.0,0.0
567211536,567205003,0.0,0.0,0.0,0.15983742,0.0,0.0,0.0,0.0,0.0,0.0,0.0,0.0,0.0,0.0007269544,0.0,0.0,nan,0.0,0.0,0.0,7.200776e-05,0.0,0.0,0.0,0.0,0.0,0.0,0.0
567707513,567705217,0.0,0.0,0.0,0.23634645,0.0,0.0,0.0,0.0,0.0,0.0,0.0,0.0,0.0,0.0005534875,0.0,0.0,nan,0.0,0.0,0.0,0.0018684469,0.0,0.0,0.0,0.0,0.0,0.0,0.0
568207752,568205414,0.0,0.0,0.0,0.2767724,0.0,0.0,0.0,0.0,0.0,0.0,0.0,0.0,0.0,0.0004719033,0.0,0.0,nan,0.0,0.0,0.0,0.008401332,0.0,0.0,0.0,0.0,0.0,0.0,0.0
568707654,568705625,0.0,0.0,0.0,0.30194232,0.0,0.0,0.0,0.0,0.0,0.0,0.0,0.0,0.0,2.1763399e-05,0.0,0.0,nan,0.0,0.0,0.0,0.0033608659,0.0,0.0,0.0,0.0,0.0,0.0,0.0
569208012,569205845,0.0,0.0,0.0,0.29388285,0.0,0.0,0.0,0.0,0.0,0.0,0.0,0.0,0.0,0.0009877371,0.0,0.0,nan,0.0,0.0,0.0,0.004051799,0.0,0.0,0.0,0.0,0.0,0.0,0.0
569712646,569706045,0.0,0.0,0.0,0.27657232,0.0,0.0,0.0,0.0,0.0,0.0,0.0,0.0,0.0,0.00025311307,0.0,0.0,nan,0.0,0.0,0.0,0.00014342826,0.0,0.0,0.0,0.0,0.0,0.0,0.0
570208181,570206307,0.0,0.0,0.0,0.2652834,0.0,0.0,0.0,0.0,0.0,0.0,0.0,0.0,0.0,1.0601439e-05,0.0,0.0,nan,0.0,0.0,0.0,0.0017717335,0.0,0.0,0.0,0.0,0.0,0.0,0.0
570713250,570706465,0.0,0.0,0.0,0.25235936,0.0,0.0,0.0,0.0,0.0,0.0,0.0,0.0,0.0,8.308191e-05,0.0,0.0,nan,0.0,0.0,0.0,0.0021747025,0.0,0.0,0.0,0.0,0.0,0.0,0.0
571208560,571206675,0.0,0.0,0.0,0.248477,0.0,0.0,0.0,0.0,0.0,0.0,0.0,0.0,0.0,4.741381e-05,0.0,0.0,nan,0.0,0.0,0.0,0.0033994734,0.0,0.0,0.0,0.0,0.0,0.0,0.0
571709462,571706890,0.0,0.0,0.0,0.25268006,0.0,0.0,0.0,0.0,0.0,0.0,0.0,0.0,0.0,9.9266275e-05,0.0,0.0,nan,0.0,0.0,0.0,0.0018109797,0.0,0.0,0.0,0.0,0.0,0.0,0.0
572213664,572207093,0.0,0.0,0.0,0.26788375,0.0,0.0,0.0,0.0,0.0,0.0,0.0,0.0,0.0,1.0553625e-05,0.0,0.0,nan,0.0,0.0,0.0,0.0011817313,0.0,0.0,0.0,0.0,0.0,0.0,0.0
572709872,572707319,0.0,0.0,0.0,0.30017284,0.0,0.0,0.0,0.0,0.0,0.0,0.0,0.0,0.0,0.0011842554,0.0,0.0,nan,0.0,0.0,0.0,0.0031675054,0.0,0.0,0.0,0.0,0.0,0.0,0.0
573209530,573207511,0.0,0.0,0.0,0.31896293,0.0,0.0,0.0,0.0,0.0,0.0,0.0,0.0,0.0,0.0005666009,0.0,0.0,nan,0.0,0.0,0.0,0.002260106,0.0,0.0,0.0,0.0,0.0,0.0,0.0
573714318,573707724,0.0,0.0,0.0,0.3275136,0.0,0.0,0.0,0.0,0.0,0.0,0.0,0.0,0.0,0.00011978569,0.0,0.0,nan,0.0,0.0,0.0,0.013397299,0.0,0.0,0.0,0.0,0.0,0.0,0.0
574210136,574207928,0.0,0.0,0.0,0.31457078,0.0,0.0,0.0,0.0,0.0,0.0,0.0,0.0,0.0,0.00055553846,0.0,0.0,nan,0.0,0.0,0.0,0.009622966,0.0,0.0,0.0,0.0,0.0,0.0,0.0
574710279,574708167,0.0,0.0,0.0,0.27185324,0.0,0.0,0.0,0.0,0.0,0.0,0.0,0.0,0.0,1.44670375e-05,0.0,0.0,nan,0.0,0.0,0.0,0.0054437625,0.0,0.0,0.0,0.0,0.0,0.0,0.0
575210212,575208344,0.0,0.0,0.0,0.23242809,0.0,0.0,0.0,0.0,0.0,0.0,0.0,0.0,0.0,0.00055406796,0.0,0.0,nan,0.0,0.0,0.0,0.0154221095,0.0,0.0,0.0,0.0,0.0,0.0,0.0
575715261,575708552,0.0,0.0,0.0,0.30821183,0.0,0.0,0.0,0.0,0.0,0.0,0.0,0.0,0.0,0.0010342875,0.0,0.0,nan,0.0,0.0,0.0,0.023631243,0.0,0.0,0.0,0.0,0.0,0.0,0.0
576210580,576208762,0.0,0.0,0.0,0.37552184,0.0,0.0,0.0,0.0,0.0,0.0,0.0,0.0,0.0,0.0034567264,0.0,0.0,nan,0.0,0.0,0.0,0.02042289,0.0,0.0,0.0,0.0,0.0,0.0,0.0
576715946,576708968,0.0,0.0,0.0,0.49303693,0.0,0.0,0.0,0.0,0.0,0.0,0.0,0.0,0.0,0.0034983966,0.0,0.0,nan,0.0,0.0,0.0,0.02256644,0.0,0.0,0.0,0.0,0.0,0.0,0.0
577211169,577209182,0.0,0.0,0.0,0.57436144,0.0,0.0,0.0,0.0,0.0,0.0,0.0,0.0,0.0,0.0076735937,0.0,0.0,nan,0.0,0.0,0.0,0.026131948,0.0,0.0,0.0,0.0,0.0,0.0,0.0
577716182,577709407,0.0,0.0,0.0,0.6854223,0.0,0.0,0.0,0.0,0.0,0.0,0.0,0.0,0.0,0.007622906,0.0,0.0,nan,0.0,0.0,0.0,0.015488109,0.0,0.0,0.0,0.0,0.0,0.0,0.0
578211588,578209591,0.0,0.0,0.0,0.75077474,0.0,0.0,0.0,0.0,0.0,0.0,0.0,0.0,0.0,0.008676838,0.0,0.0,nan,0.0,0.0,0.0,0.013115284,0.0,0.0,0.0,0.0,0.0,0.0,0.0
578716464,578709827,0.0,0.0,0.0,0.8349064,0.0,0.0,0.0,0.0,0.0,0.0,0.0,0.0,0.0,0.011100817,0.0,0.0,nan,0.0,0.0,0.0,0.0072907666,0.0,0.0,0.0,0.0,0.0,0.0,0.0
579211913,579210013,0.0,0.0,0.0,0.8846214,0.0,0.0,0.0,0.0,0.0,0.0,0.0,0.0,0.0,0.01966326,0.0,0.0,nan,0.0,0.0,0.0,0.00406339,0.0,0.0,0.0,0.0,0.0,0.0,0.0
579712512,579710214,0.0,0.0,0.0,0.9496155,0.0,0.0,0.0,0.0,0.0,0.0,0.0,0.0,0.0,0.02516922,0.0,0.0,nan,0.0,0.0,0.0,0.024395337,0.0,0.0,0.0,0.0,0.0,0.0,0.0
580217064,580210421,0.0,0.0,0.0,1.0283245,0.0,0.0,0.0,0.0,0.0,0.0,0.0,0.0,0.0,0.025495308,0.0,0.0,nan,0.0,0.0,0.0,0.008849068,0.0,0.0,0.0,0.0,0.0,0.0,0.0
580712675,580710639,0.0,0.0,0.0,1.32576,0.0,0.0,0.0,0.0,0.0,0.0,0.0,0.0,0.0,0.034524966,0.0,0.0,nan,0.0,0.0,0.0,0.008603018,0.0,0.0,0.0,0.0,0.0,0.0,0.0
581217485,581210859,0.0,0.0,0.0,1.5684981,0.0,0.0,0.0,0.0,0.0,0.0,0.0,0.0,0.0,0.030666677,0.0,0.0,nan,0.0,0.0,0.0,0.012683778,0.0,0.0,0.0,0.0,0.0,0.0,0.0
581718050,581711041,0.0,0.0,0.0,2.0635908,0.0,0.0,0.0,0.0,0.0,0.0,0.0,0.0,0.0,0.035441097,0.0,0.0,nan,0.0,0.0,0.0,0.0084675215,0.0,0.0,0.0,0.0,0.0,0.0,0.0
582213186,582211251,0.0,0.0,0.0,2.4855008,0.0,0.0,0.0,0.0,0.0,0.0,0.0,0.0,0.0,0.029218735,0.0,0.0,nan,0.0,0.0,0.0,0.0029126327,0.0,0.0,0.0,0.0,0.0,0.0,0.0
582718422,582711460,0.0,0.0,0.0,3.2026577,0.0,0.0,0.0,0.0,0.0,0.0,0.0,0.0,0.0,0.041215956,0.0,0.0,nan,0.0,0.0,0.0,0.034443703,0.0,0.0,0.0,0.0,0.0,0.0,0.0
583714258,583711928,0.0,0.0,0.0,4.37518,0.0,0.0,0.0,0.0,0.0,0.0,0.0,0.0,0.0,0.04697266,0.0,0.0,nan,0.0,0.0,0.0,0.01417945,0.0,0.0,0.0,0.0,0.0,0.0,0.0
584214433,584212071,0.0,0.0,0.0,4.664179,0.0,0.0,0.0,0.0,0.0,0.0,0.0,0.0,0.0,0.030366758,0.0,0.0,nan,0.0,0.0,0.0,0.0138301505,0.0,0.0,0.0,0.0,0.0,0.0,0.0
584719113,584712277,0.0,0.0,0.0,4.865297,0.0,0.0,0.0,0.0,0.0,0.0,0.0,0.0,0.0,0.028636567,0.0,0.0,nan,0.0,0.0,0.0,0.015893763,0.0,0.0,0.0,0.0,0.0,0.0,0.0
585219031,585212482,0.0,0.0,0.0,4.873884,0.0,0.0,0.0,0.0,0.0,0.0,0.0,0.0,0.0,0.028003773,0.0,0.0,nan,0.0,0.0,0.0,0.02677205,0.0,0.0,0.0,0.0,0.0,0.0,0.0
585715163,585712691,0.0,0.0,0.0,4.834956,0.0,0.0,0.0,0.0,0.0,0.0,0.0,0.0,0.0,0.02339601,0.0,0.0,nan,0.0,0.0,0.0,0.022974063,0.0,0.0,0.0,0.0,0.0,0.0,0.0
586215109,586212892,0.0,0.0,0.0,4.7835135,0.0,0.0,0.0,0.0,0.0,0.0,0.0,0.0,0.0,0.019093608,0.0,0.0,nan,0.0,0.0,0.0,0.040371202,0.0,0.0,0.0,0.0,0.0,0.0,0.0
586715524,586713098,0.0,0.0,0.0,4.6857014,0.0,0.0,0.0,0.0,0.0,0.0,0.0,0.0,0.0,0.01721283,0.0,0.0,nan,0.0,0.0,0.0,0.045653235,0.0,0.0,0.0,0.0,0.0,0.0,0.0
587219870,587213303,0.0,0.0,0.0,4.5529494,0.0,0.0,0.0,0.0,0.0,0.0,0.0,0.0,0.0,0.016528089,0.0,0.0,nan,0.0,0.0,0.0,0.040369086,0.0,0.0,0.0,0.0,0.0,0.0,0.0
587720489,587713514,0.0,0.0,0.0,4.240911,0.0,0.0,0.0,0.0,0.0,0.0,0.0,0.0,0.0,0.014192057,0.0,0.0,nan,0.0,0.0,0.0,0.08686022,0.0,0.0,0.0,0.0,0.0,0.0,0.0
588220228,588213713,0.0,0.0,0.0,3.9636517,0.0,0.0,0.0,0.0,0.0,0.0,0.0,0.0,0.0,0.008336595,0.0,0.0,nan,0.0,0.0,0.0,0.083625466,0.0,0.0,0.0,0.0,0.0,0.0,0.0
588720753,588713923,0.0,0.0,0.0,3.4740207,0.0,0.0,0.0,0.0,0.0,0.0,0.0,0.0,0.0,0.0038267812,0.0,0.0,nan,0.0,0.0,0.0,0.10193359,0.0,0.0,0.0,0.0,0.0,0.0,0.0
589716609,589714370,0.0,0.0,0.0,2.587518,0.0,0.0,0.0,0.0,0.0,0.0,0.0,0.0,0.0,0.00020983063,0.0,0.0,nan,0.0,0.0,0.0,0.024885543,0.0,0.0,0.0,0.0,0.0,0.0,0.0
590221165,590214547,0.0,0.0,0.0,2.2506673,0.0,0.0,0.0,0.0,0.0,0.0,0.0,0.0,0.0,2.072843e-05,0.0,0.0,nan,0.0,0.0,0.0,0.013797744,0.0,0.0,0.0,0.0,0.0,0.0,0.0
590717202,590714744,0.0,0.0,0.0,1.8128002,0.0,0.0,0.0,0.0,0.0,0.0,0.0,0.0,0.0,0.0007235081,0.0,0.0,nan,0.0,0.0,0.0,0.008422843,0.0,0.0,0.0,0.0,0.0,0.0,0.0
591206868,591204939,0.0,0.0,0.0,1.5822322,0.0,0.0,0.0,0.0,0.0,0.0,0.0,0.0,0.0,0.0018262988,0.0,0.0,nan,0.0,0.0,0.0,0.029624783,0.0,0.0,0.0,0.0,0.0,0.0,0.0
591707106,591705143,0.0,0.0,0.0,1.2428175,0.0,0.0,0.0,0.0,0.0,0.0,0.0,0.0,0.0,0.0076945606,0.0,0.0,nan,0.0,0.0,0.0,0.04678897,0.0,0.0,0.0,0.0,0.0,0.0,0.0
592211905,592205389,0.0,0.0,0.0,1.0097839,0.0,0.0,0.0,0.0,0.0,0.0,0.0,0.0,0.0,0.01576442,0.0,0.0,nan,0.0,0.0,0.0,0.084642716,0.0,0.0,0.0,0.0,0.0,0.0,0.0
592707582,592705556,0.0,0.0,0.0,0.6664213,0.0,0.0,0.0,0.0,0.0,0.0,0.0,0.0,0.0,0.020465499,0.0,0.0,nan,0.0,0.0,0.0,0.06737923,0.0,0.0,0.0,0.0,0.0,0.0,0.0
593207949,593205757,0.0,0.0,0.0,0.46098313,0.0,0.0,0.0,0.0,0.0,0.0,0.0,0.0,0.0,0.03686787,0.0,0.0,nan,0.0,0.0,0.0,0.13351321,0.0,0.0,0.0,0.0,0.0,0.0,0.0
