timestamp,timestamp_sample,accel_device_id,gyro_device_id,delta_angle[0],delta_angle[1],delta_angle[2],delta_velocity[0],delta_velocity[1],delta_velocity[2],delta_angle_dt,delta_velocity_dt,delta_velocity_clipping
2953920,2952880,2162698,2162698,-7.934239e-06,2.6887647e-05,-1.2827725e-05,-0.000947653,-0.0013311541,-0.04878661,5003,5003,0
2958916,2957881,2162698,2162698,-1.5150017e-05,2.2977447e-05,-1.1996572e-05,-0.0011142214,-0.001241614,-0.04872621,5001,5001,0
3954363,3953292,2162698,2162698,-4.918582e-06,2.1035261e-05,-4.310333e-06,-0.0012057314,-0.0010484918,-0.048643302,4985,4985,0
4954840,4953711,2162698,2162698,-7.016361e-06,2.8621671e-05,-5.442955e-06,-0.0012252913,-0.0011929683,-0.049006086,5013,5013,0
5454960,5453910,2162698,2162698,9.12169e-06,2.7526881e-05,-5.785468e-06,-0.0010463113,-0.0009956514,-0.048995346,5005,5005,0
5955239,5954115,2162698,2162698,-8.404894e-06,2.3125818e-05,-6.9657203e-06,-0.0012081878,-0.00097016303,-0.048525065,5002,5002,0
6455545,6454332,2162698,2162698,8.479614e-06,2.3880732e-05,-8.838186e-06,-0.0011296206,-0.0010372873,-0.04876381,5008,5008,0
6955703,6954535,2162698,2162698,-4.524973e-07,1.8886723e-05,-7.9875335e-06,-0.0012102469,-0.0009299771,-0.048661042,5002,5002,0
7455891,7454748,2162698,2162698,-1.0832346e-06,1.9784127e-05,-7.8660905e-06,-0.001171015,-0.0010367488,-0.048828237,5009,5009,0
7956088,7954954,2162698,2162698,-2.3587666e-06,2.262851e-05,-2.9341859e-06,-0.0010883574,-0.0010927422,-0.048596233,5005,5005,0
8456280,8455161,2162698,2162698,1.4129591e-06,1.717948e-05,-1.0283769e-05,-0.001086532,-0.00093632395,-0.048514314,4965,4965,0
8956486,8955374,2162698,2162698,-2.2545102e-05,1.8921672e-05,-3.1009495e-06,-0.0012291201,-0.00087662594,-0.04879528,5002,5002,0
9456703,9455590,2162698,2162698,-4.9007745e-06,2.5697505e-05,-4.7961025e-06,-0.0012069267,-0.0008942868,-0.048752695,5011,5011,0
9956980,9955808,2162698,2162698,-9.560291e-06,2.06058e-05,-9.00682e-06,-0.0012620251,-0.0009573349,-0.048927076,5018,5018,0
11957698,11956644,2162698,2162698,-7.924268e-06,1.7523407e-05,-4.9596274e-06,-0.0010961657,-0.00095228764,-0.048844345,4998,4998,0
12452905,12451855,2162698,2162698,-6.2009394e-06,2.2965116e-05,-6.572768e-06,-0.0012551016,-0.00088377006,-0.04874609,5005,5005,0
12953111,12952064,2162698,2162698,-9.715345e-06,2.2620738e-05,-6.005106e-06,-0.0011560211,-0.0009870754,-0.04876809,4998,4998,0
13453362,13452285,2162698,2162698,5.466166e-06,2.0222044e-05,-1.1267631e-05,-0.0010442648,-0.0010636916,-0.048823815,5003,5003,0
13953576,13952494,2162698,2162698,-1.6931026e-06,1.5876923e-05,-1.9925762e-06,-0.0011631438,-0.001026244,-0.048887983,5004,5004,0
14453796,14452710,2162698,2162698,-5.956515e-06,1.646474e-05,-1.4644481e-06,-0.0010269801,-0.0011541918,-0.04893886,5004,5004,0
16954840,16953785,2162698,2162698,-1.7590074e-06,2.1920812e-05,-2.8924494e-06,-0.0012764054,-0.000949891,-0.04899015,5002,5002,0
17455104,17454002,2162698,2162698,-2.595122e-06,1.793229e-05,-4.8931915e-06,-0.0010745906,-0.0010536081,-0.048718132,5002,5002,0
18455500,18454441,2162698,2162698,-1.0093216e-05,1.9790361e-05,-3.1539246e-06,-0.00115859,-0.00097023876,-0.04877154,5003,5003,0
18955705,18954657,2162698,2162698,6.0323437e-06,2.7606608e-05,-3.9100523e-06,-0.0010771195,-0.0009997824,-0.04885614,5005,5005,0
19455941,19454873,2162698,2162698,-1.081525e-05,1.9409486e-05,-5.8262112e-06,-0.001364866,-0.0009780484,-0.04898318,4994,4994,0
21957018,21955970,2162698,2162698,3.2288117e-06,1.7335717e-05,-1.027413e-05,-0.0012278818,-0.0011918131,-0.048670527,4986,4986,0
22457311,22456190,2162698,2162698,2.3424666e-06,2.3257304e-05,-1.0251689e-05,-0.0012033721,-0.0012269896,-0.048811086,5002,5002,0
22957524,22956411,2162698,2162698,-3.150073e-06,2.2047725e-05,-5.7478996e-07,-0.0011370952,-0.0011110434,-0.048433162,4999,4999,0
23457684,23456636,2162698,2162698,-8.181243e-06,2.3132157e-05,-9.1001075e-06,-0.0011922373,-0.001076004,-0.048702106,5001,5001,0
23952898,23951855,2162698,2162698,9.996527e-07,2.4025036e-05,-2.9718979e-06,-0.0011938955,-0.0009882272,-0.048869368,5001,5001,0
24953417,24952298,2162698,2162698,7.03746e-06,2.1219941e-05,-7.813884e-06,-0.0012382437,-0.000837189,-0.048486415,4985,4985,0
25953810,25952745,2162698,2162698,-1.609333e-05,1.9172974e-05,1.563571e-06,-0.00131217,-0.0011287956,-0.048814137,5006,5006,0
27454524,27453421,2162698,2162698,1.6703525e-06,1.9985715e-05,-9.75137e-07,-0.0011698019,-0.0010507482,-0.048882872,5003,5003,0
28955200,28954086,2162698,2162698,6.3679286e-06,1.9953508e-05,-1.1222602e-06,-0.0011017788,-0.0011743597,-0.048319433,4975,4975,0
29455377,29454319,2162698,2162698,8.681787e-06,2.2820348e-05,-7.552936e-06,-0.0012266956,-0.0010165366,-0.04876618,5007,5007,0
31456326,31455217,2162698,2162698,-2.523369e-07,2.095575e-05,-8.816601e-06,-0.0010131738,-0.001041187,-0.04863058,4988,4988,0
31956590,31955458,2162698,2162698,2.948058e-06,1.5824759e-05,-6.4253317e-07,-0.0011579192,-0.00093101535,-0.048859626,5006,5006,0
32456721,32455669,2162698,2162698,1.0094638e-05,2.2453762e-05,3.4897844e-06,-0.0011051298,-0.0010218073,-0.048688017,5002,5002,0
32956951,32955900,2162698,2162698,-3.8953044e-06,2.0306396e-05,-5.231475e-06,-0.001075249,-0.0009029952,-0.04891896,5004,5004,0
33457167,33456125,2162698,2162698,-2.5922805e-06,1.729803e-05,-2.5753627e-06,-0.0012388254,-0.0011054473,-0.048764806,4999,4999,0
34457671,34456580,2162698,2162698,-1.9086722e-06,2.0824533e-05,2.7697638e-07,-0.0010304197,-0.0011440265,-0.048897915,5001,5001,0
34952882,34951811,2162698,2162698,1.9233853e-06,2.2971322e-05,1.1920927e-06,-0.0011071152,-0.0010725104,-0.0487763,4986,4986,0
35453144,35452040,2162698,2162698,2.4447505e-07,1.8644036e-05,6.538884e-07,-0.0011189223,-0.0011582053,-0.048641313,4993,4993,0
35953365,35952296,2162698,2162698,5.8947244e-06,1.5357224e-05,-2.8084726e-06,-0.0011378933,-0.00087357045,-0.04914211,5030,5030,0
36453725,36452507,2162698,2162698,-6.075069e-07,1.9646792e-05,-6.5185855e-06,-0.0012441168,-0.0009884882,-0.048963897,5011,5011,0
36953913,36952725,2162698,2162698,1.0614469e-06,1.6515793e-05,-3.851015e-06,-0.0010283071,-0.0011269179,-0.04865085,4989,4989,0
37954312,37953189,2162698,2162698,1.0806454e-05,1.9633428e-05,7.909564e-06,-0.001159627,-0.0011225218,-0.04888251,5006,5006,0
38454712,38453426,2162698,2162698,1.0174572e-05,1.6739232e-05,-3.4774546e-06,-0.0011050219,-0.0010619161,-0.048829377,5011,5011,0
39955175,39954114,2162698,2162698,-5.814068e-06,2.0706526e-05,-4.920135e-06,-0.0009909801,-0.0010458878,-0.048673656,4984,4984,0
40455400,40454344,2162698,2162698,3.918133e-06,2.619067e-05,3.1214593e-06,-0.0011787028,-0.0010625735,-0.048875067,4997,4997,0
41455940,41454815,2162698,2162698,5.1314023e-06,1.946495e-05,-5.9909567e-06,-0.001199771,-0.001171043,-0.048737578,4991,4991,0
42956596,42955510,2162698,2162698,1.3436538e-05,1.7828748e-05,-1.7338429e-06,-0.0013852231,-0.0010548481,-0.048560143,5005,5005,0
43957045,43955978,2162698,2162698,4.511436e-06,2.0285437e-05,1.4052307e-06,-0.0011666422,-0.001028297,-0.048593745,4986,4986,0
45457821,45456693,2162698,2162698,1.9833804e-05,1.943163e-05,2.655676e-06,-0.0013137573,-0.00086758554,-0.04895086,5017,5017,0
46953522,46952395,2162698,2162698,-9.1572446e-07,1.5811776e-05,7.8795927e-07,-0.0012714245,-0.0010532074,-0.04884331,5013,5013,0
47453704,47452622,2162698,2162698,1.3218809e-05,1.8492856e-05,-4.722308e-06,-0.0011596469,-0.0010381582,-0.04887762,5004,5004,0
49954892,49953805,2162698,2162698,1.9331808e-06,1.0505939e-05,5.091128e-06,-0.0012251977,-0.0010856763,-0.04890384,5005,5005,0
51955897,51954754,2162698,2162698,-1.3888339e-06,1.9416271e-05,-8.380736e-07,-0.0012031985,-0.0010290487,-0.049015384,5002,5002,0
53956928,53955719,2162698,2162698,3.360287e-06,1.5912367e-05,3.0978842e-06,-0.0012644908,-0.0011004099,-0.04869737,5011,5011,0
54957277,54956196,2162698,2162698,-4.6449154e-06,1.16961655e-05,2.3667992e-06,-0.0011513724,-0.0010995788,-0.04889912,5007,5007,0
55957954,55956681,2162698,2162698,6.461086e-06,1.616639e-05,6.1368114e-06,-0.0011038375,-0.0011663996,-0.049060524,5012,5012,0
57953956,57952637,2162698,2162698,-4.4599124e-06,2.0479967e-05,-1.5683149e-06,-0.0010862679,-0.0011730926,-0.04882387,5006,5006,0
58954354,58953130,2162698,2162698,1.7355799e-07,1.6855716e-05,3.2658495e-06,-0.0010787621,-0.0010065688,-0.04896981,5012,5012,0
60454913,60453845,2162698,2162698,7.873745e-06,1.685627e-05,5.073115e-06,-0.0011900656,-0.0010530917,-0.0489566,5002,5002,0
62455922,62454830,2162698,2162698,7.910661e-06,1.7354267e-05,-1.6822241e-06,-0.0010484232,-0.0010609344,-0.048979226,5013,5013,0
62956164,62955091,2162698,2162698,-4.0745965e-07,1.5704598e-05,3.134516e-06,-0.001083647,-0.0010405534,-0.049271215,5030,5030,0
63456362,63455308,2162698,2162698,6.7466194e-06,1.807967e-05,-2.0111738e-06,-0.0012084281,-0.0009844684,-0.04835118,4987,4987,0
64456977,64455802,2162698,2162698,2.2100512e-06,1.4609957e-05,7.488225e-06,-0.0011636056,-0.0011339367,-0.04889227,5006,5006,0
65957696,65956542,2162698,2162698,2.8464924e-06,2.3911969e-05,5.8451187e-06,-0.0012328802,-0.0010973846,-0.04902724,4999,4999,0
67953796,67952527,2162698,2162698,8.010354e-06,1.3477598e-05,2.2495751e-06,-0.0011459368,-0.0012580421,-0.04900159,5013,5013,0
68453814,68452764,2162698,2162698,1.7969533e-05,1.3837867e-05,-4.3108985e-06,-0.0011770749,-0.0009940654,-0.048944496,5000,5000,0
68954085,68953011,2162698,2162698,1.6922084e-05,2.1528747e-05,4.459211e-06,-0.0011532247,-0.0012226384,-0.04871425,4998,4998,0
69454415,69453265,2162698,2162698,-8.48384e-06,8.243208e-06,-4.0462664e-06,-0.0011301164,-0.0009922194,-0.048676357,4999,4999,0
70454835,70453768,2162698,2162698,7.0748847e-06,1.1892661e-05,-4.9013433e-06,-0.0011229884,-0.001023494,-0.048823662,4985,4985,0
70955118,70954001,2162698,2162698,1.7112861e-06,1.9757876e-05,9.504295e-06,-0.0011930228,-0.00090826134,-0.04872996,4987,4987,0
71955561,71954508,2162698,2162698,-8.320548e-06,1.608796e-05,2.3799698e-06,-0.001040023,-0.001402811,-0.048877,4991,4991,0
72455837,72454749,2162698,2162698,-4.536165e-06,1.4533973e-05,-1.18674e-06,-0.0012398562,-0.0009926858,-0.04871075,4966,4966,0
72956069,72955013,2162698,2162698,-5.431976e-06,1.5601468e-05,-6.6128325e-07,-0.0011007785,-0.001128024,-0.048793,5000,5000,0
73456306,73455249,2162698,2162698,-9.307268e-06,1.7522856e-05,-2.392591e-06,-0.0010119304,-0.001048942,-0.048952293,4994,4994,0
73956619,73955496,2162698,2162698,3.3552874e-06,1.1382225e-05,-1.535258e-07,-0.0010734721,-0.0012073702,-0.048723307,4996,4996,0
76457875,76456745,2162698,2162698,1.098476e-05,2.0169937e-05,4.6708456e-06,-0.001097614,-0.0011238693,-0.04888887,5000,5000,0
76953048,76951994,2162698,2162698,1.03071725e-05,1.6918408e-05,4.0998134e-06,-0.001059241,-0.0011025921,-0.048588697,4980,4980,0
77453367,77452245,2162698,2162698,1.1745352e-05,1.1741829e-05,4.575266e-06,-0.0010918374,-0.0011302939,-0.048514333,4986,4986,0
77953584,77952508,2162698,2162698,1.3874526e-05,2.4307043e-05,3.1788825e-06,-0.0011979174,-0.0010390911,-0.048817243,5012,5012,0
78453807,78452760,2162698,2162698,-4.5232737e-06,1.687045e-05,4.4901222e-07,-0.0013243385,-0.0010602673,-0.048757985,5012,5012,0
78954044,78952999,2162698,2162698,-6.103279e-06,1.70435e-05,8.741699e-06,-0.0011111227,-0.0011618563,-0.04886735,5000,5000,0
79454430,79453289,2162698,2162698,2.9810255e-06,1.5272084e-05,2.7499116e-06,-0.0012239222,-0.0009840727,-0.04909608,5038,5038,0
80955069,80954008,2162698,2162698,1.0856428e-05,7.583808e-06,1.0059973e-06,-0.0010473443,-0.0010810018,-0.048598543,4994,4994,0
81455319,81454269,2162698,2162698,1.707252e-05,1.1252244e-05,-3.6060912e-06,-0.0011570362,-0.0009325856,-0.048820473,5007,5007,0
82455851,82454770,2162698,2162698,-1.37224315e-05,1.0674208e-05,4.5756606e-06,-0.0011039593,-0.0009118615,-0.04872972,5002,5002,0
82956123,82955036,2162698,2162698,2.9837147e-06,1.5357158e-05,4.534331e-07,-0.0011974858,-0.0010593804,-0.0488976,5018,5018,0
83956739,83955528,2162698,2162698,-5.277667e-07,1.5246912e-05,3.104946e-06,-0.0010870958,-0.0010705136,-0.04883814,5002,5002,0
84957098,84956049,2162698,2162698,9.870698e-06,1.5152711e-05,-9.101721e-07,-0.0013403179,-0.001186427,-0.048793286,5004,5004,0
85457422,85456314,2162698,2162698,2.0720801e-05,1.0207639e-05,-1.9839945e-06,-0.001261781,-0.001039037,-0.04899302,5022,5022,0
86953176,86952054,2162698,2162698,2.599079e-06,1.0432064e-05,-2.4896795e-07,-0.0011020661,-0.0010339263,-0.048927527,4993,4993,0
87453406,87452311,2162698,2162698,2.2666543e-06,1.2192059e-05,-3.0174258e-06,-0.0011536197,-0.00096242124,-0.048872575,5001,5001,0
89954731,89953592,2162698,2162698,2.3578823e-05,1.6578446e-05,1.6379433e-06,-0.0010761877,-0.0011310912,-0.048519902,4985,4985,0
90454934,90453859,2162698,2162698,1.5688529e-05,1.009315e-05,-2.5411987e-06,-0.0014539504,-0.0010798366,-0.048430525,4977,4977,0
93456465,93455394,2162698,2162698,1.1468106e-06,1.2336452e-05,6.9239763e-06,-0.0011096644,-0.0012084174,-0.048832893,5006,5006,0
93956754,93955653,2162698,2162698,-1.0534188e-05,1.5706302e-05,-3.782443e-06,-0.0012129302,-0.0011816561,-0.04901877,5006,5006,0
94457078,94455917,2162698,2162698,4.6081145e-06,1.1445431e-05,-2.3999137e-06,-0.0011470866,-0.0011723397,-0.048834793,5012,5012,0
95457512,95456428,2162698,2162698,1.2168867e-05,5.479258e-06,5.6136146e-06,-0.00117536,-0.0009657731,-0.04873262,4993,4993,0
95957899,95956694,2162698,2162698,4.4614106e-05,8.289034e-06,6.9288435e-06,-0.001233916,-0.0014820817,-0.049263835,5006,5006,0
96953266,96952200,2162698,2162698,-3.9333545e-06,1.1813879e-05,2.3256675e-06,-0.0011443697,-0.001468021,-0.048587866,5003,5003,0
97953932,97952740,2162698,2162698,1.9797521e-06,1.533887e-05,7.784959e-06,-0.0012177534,-0.0010276573,-0.048781637,5022,5022,0
101455605,101454546,2162698,2162698,-1.2638829e-05,1.6661072e-05,-4.494491e-07,-0.0009547427,-0.0014523396,-0.048781697,5001,5001,0
101956074,101954811,2162698,2162698,-7.1441846e-08,1.041523e-05,4.127837e-06,-0.0010145899,-0.0014393826,-0.04899518,4997,4997,0
103956928,103955874,2162698,2162698,3.9909934e-05,1.1673577e-05,9.810192e-06,-0.000851586,-0.0012648394,-0.04914258,5013,5013,0
105457710,105456660,2162698,2162698,8.80455e-06,1.4273443e-05,3.6160238e-06,-0.0012127482,-0.0009450131,-0.04888803,5015,5015,0
107453904,107452709,2162698,2162698,1.3863866e-05,8.5232605e-06,-3.4177293e-07,-0.0011226881,-0.0012186999,-0.04935693,5012,5012,0
107954129,107952964,2162698,2162698,5.3496065e-06,1.9117917e-05,-2.350903e-06,-0.0012977096,-0.0011357968,-0.048995163,5002,5002,0
108454452,108453235,2162698,2162698,-3.1175943e-05,7.822712e-06,3.557352e-06,-0.0011097374,-0.0012994523,-0.048959624,4996,4996,0
108954569,108953506,2162698,2162698,2.635888e-05,1.8462915e-05,-4.548746e-06,-0.0010057252,-0.0010866964,-0.048713904,5015,5015,0
109955218,109954026,2162698,2162698,-2.5116202e-05,1.5283405e-05,6.3640614e-06,-0.0010189685,-0.0010212414,-0.048848677,5003,5003,0
113456970,113455909,2162698,2162698,1.6902137e-05,6.517104e-06,1.3923121e-05,-0.001213524,-0.0013983954,-0.04892238,5013,5013,0
115953438,115952253,2162698,2162698,2.0357422e-05,2.3758812e-05,8.33592e-06,-0.0013033205,-0.00090154615,-0.04896536,5002,5002,0
116453638,116452514,2162698,2162698,-9.368253e-07,1.30078315e-05,9.705293e-06,-0.0011778304,-0.0010015159,-0.048722148,4984,4984,0
117954439,117953337,2162698,2162698,-1.1080383e-06,1.5679554e-05,5.6700674e-06,-0.0013564862,-0.00088292366,-0.049060035,5000,5000,0
119455237,119454152,2162698,2162698,5.3314114e-05,1.7476626e-05,5.8641494e-06,-0.0011282632,-0.00117184,-0.0487829,5003,5003,0
120455821,120454707,2162698,2162698,7.485803e-06,2.1066762e-07,-3.1796505e-06,-0.0012478445,-0.00080019614,-0.048631914,5016,5016,0
121456338,121455266,2162698,2162698,-1.6974021e-05,-1.7441781e-06,9.887973e-06,-0.0011489589,-0.00093972427,-0.04888416,5021,5021,0
121956614,121955534,2162698,2162698,-5.4385055e-06,7.3745464e-06,6.294948e-06,-0.0010367765,-0.0011725205,-0.048948754,5021,5021,0
122456893,122455801,2162698,2162698,0.00014608515,9.325964e-06,1.37361185e-05,-0.0010573596,-0.00090307795,-0.048945334,5001,5001,0
123957786,123956624,2162698,2162698,7.0926966e-05,1.2241073e-05,1.2504236e-05,-0.0009183087,-0.00072651135,-0.0488999,5011,5011,0
124953281,124952170,2162698,2162698,4.1833136e-05,1.1592747e-05,6.2106747e-06,-0.0012210484,-0.0012443352,-0.048616383,4990,4990,0
125453507,125452444,2162698,2162698,2.2828262e-06,-3.902894e-07,-5.861652e-06,-0.0011105178,-0.0010158975,-0.049125034,4996,4996,0
126454140,126453000,2162698,2162698,6.767173e-05,1.1783413e-05,2.8485692e-05,-0.0009929275,-0.00087028334,-0.04829266,4986,4986,0
131456906,131455803,2162698,2162698,-3.657811e-05,2.0009401e-07,-2.001495e-06,-0.0010411307,-0.0014337667,-0.0486627,5004,5004,0
135454104,135453053,2162698,2162698,-8.0564205e-06,1.0978968e-05,7.0592096e-06,-0.0007959191,-0.001589475,-0.04881918,4994,4994,0
136454814,136453636,2162698,2162698,-7.3031864e-05,-5.2160535e-06,-3.2313346e-06,-0.0011187064,-0.001487011,-0.049021315,5016,5016,0
137455347,137454254,2162698,2162698,2.3139783e-06,6.697719e-06,4.7622066e-06,-0.0011351712,-0.0008196354,-0.049573068,5072,5072,0
137955559,137954472,2162698,2162698,-2.1285516e-05,1.6930791e-05,4.378407e-06,-0.0012888305,-0.00084794196,-0.049040608,5002,5002,0
138455850,138454752,2162698,2162698,-6.2296467e-06,-2.6523142e-06,7.923659e-06,-0.0014212657,-0.00058179285,-0.048401155,4993,4993,0
139456377,139455327,2162698,2162698,-4.278255e-06,5.7904913e-06,1.0352243e-05,-0.0011895819,-0.0012141706,-0.048857022,5007,5007,0
139956661,139955603,2162698,2162698,-2.2807195e-05,6.1188175e-06,1.2067282e-05,-0.0011975621,-0.00097100076,-0.04858377,5000,5000,0
140456922,140455889,2162698,2162698,-1.2689529e-05,8.807759e-06,1.3813983e-05,-0.0011644143,-0.0011045198,-0.048750225,4990,4990,0
141957798,141956742,2162698,2162698,4.346655e-05,1.4089237e-05,8.350965e-06,-0.0011050466,-0.001073332,-0.04904114,5003,5003,0
142453053,142452020,2162698,2162698,1.9369294e-05,5.048236e-06,1.5095662e-05,-0.0012466368,-0.0010978015,-0.04875907,4996,4996,0
142953426,142952307,2162698,2162698,8.177959e-07,2.1868027e-06,9.474958e-06,-0.001020074,-0.0012722494,-0.048617072,5006,5006,0
143453838,143452601,2162698,2162698,2.5671683e-05,6.128853e-06,1.112443e-05,-0.0009937765,-0.0013817028,-0.04893952,5008,5008,0
147956257,147955153,2162698,2162698,4.8113693e-06,3.931859e-06,1.0700643e-05,-0.0011568242,-0.0010691966,-0.048912685,5003,5003,0
148956816,148955752,2162698,2162698,8.163834e-06,4.4045237e-06,7.303786e-06,-0.0010914983,-0.0011383882,-0.04878101,4999,4999,0
149957404,149956302,2162698,2162698,-5.5340834e-06,1.5558531e-05,6.113764e-06,-0.0012170355,-0.0011302541,-0.049132455,5007,5007,0
150457637,150456592,2162698,2162698,9.397362e-06,9.744485e-06,1.1317493e-05,-0.001138444,-0.0011893888,-0.048958384,5013,5013,0
151953512,151952449,2162698,2162698,4.179366e-06,7.1296104e-06,1.0449241e-05,-0.0012116414,-0.0010530556,-0.048831347,5011,5011,0
153454388,153453311,2162698,2162698,5.9294257e-06,1.2003846e-05,1.0901283e-05,-0.0012246504,-0.0010765579,-0.048798736,5014,5014,0
153954780,153953633,2162698,2162698,9.394394e-06,8.109905e-06,9.574871e-06,-0.001226771,-0.0011835615,-0.04922781,5035,5035,0
154455019,154453873,2162698,2162698,3.6390575e-06,4.8046772e-06,9.6970025e-06,-0.0010734258,-0.0010755042,-0.04881379,5005,5005,0
156456162,156455040,2162698,2162698,1.588046e-05,8.266637e-06,8.971146e-06,-0.001147748,-0.0011535025,-0.049131803,5025,5025,0
156956360,156955309,2162698,2162698,1.725661e-05,8.955578e-06,9.005819e-06,-0.0010175204,-0.0010912373,-0.048798617,4998,4998,0
157957016,157955893,2162698,2162698,1.4670745e-05,6.6582134e-06,1.0156963e-05,-0.0011048097,-0.0010939367,-0.048816204,5013,5013,0
158957635,158956457,2162698,2162698,2.6416094e-06,5.930941e-06,5.602569e-06,-0.0012590952,-0.0010692013,-0.048853833,5002,5002,0
159953073,159952028,2162698,2162698,1.3090903e-05,8.098803e-06,7.5743155e-06,-0.0010625771,-0.0012441465,-0.048850406,4999,4999,0
160953819,160952612,2162698,2162698,7.4287864e-06,1.1922489e-05,1.0726451e-05,-0.0011717429,-0.0012024655,-0.048939735,5011,5011,0
161454000,161452902,2162698,2162698,3.246998e-06,6.1865135e-06,1.1981422e-05,-0.0012049181,-0.001142286,-0.04880644,5009,5009,0
162454583,162453480,2162698,2162698,6.297471e-06,4.258358e-06,4.6667838e-06,-0.0011523367,-0.0011111597,-0.0488462,5007,5007,0
163455149,163454046,2162698,2162698,-5.9909603e-06,7.2614966e-06,7.812063e-06,-0.0011901363,-0.0011816943,-0.04846491,4966,4966,0
169453590,169452513,2162698,2162698,-8.784534e-05,2.2687434e-05,3.6078185e-05,-0.00024052957,-0.0028039066,-0.048062503,4996,4996,0
169953943,169952836,2162698,2162698,-6.408509e-05,1.3519743e-05,1.6718366e-05,-0.0009161041,-0.001450569,-0.048962496,5032,5032,0
170454188,170453093,2162698,2162698,0.00011035142,8.51854e-06,1.2096693e-06,-0.0009709191,-0.0013382513,-0.04882499,5002,5002,0
171454750,171453675,2162698,2162698,-2.746927e-06,4.377099e-06,2.0215079e-05,-0.0010295574,-0.0025506334,-0.04851582,4989,4989,0
171955208,171953977,2162698,2162698,-6.9165864e-05,3.686161e-07,2.0005462e-05,-0.001025088,-0.00086263486,-0.048873097,5016,5016,0
173956173,173955129,2162698,2162698,3.8902755e-05,1.5189369e-05,6.315012e-06,-0.0011029628,-0.0011405665,-0.048855077,5002,5002,0
174956796,174955707,2162698,2162698,1.164385e-05,7.5079224e-06,1.08024415e-05,-0.0010420181,-0.0012753747,-0.048963618,5001,5001,0
175457054,175456011,2162698,2162698,5.373567e-05,7.1892296e-06,6.673674e-06,-0.0011326212,-0.0011559881,-0.04904399,5010,5010,0
176952941,176951872,2162698,2162698,-2.7633912e-05,2.8289053e-06,5.0871845e-06,-0.0011085066,-0.000944721,-0.048967976,5004,5004,0
177953538,177952460,2162698,2162698,4.5248426e-06,6.3156267e-06,7.117062e-06,-0.0010466708,-0.0010750106,-0.048457798,4979,4979,0
181455599,181454494,2162698,2162698,3.4618177e-05,7.0782753e-06,1.5925365e-05,-0.00106553,-0.00096207764,-0.048978433,4999,4999,0
182456126,182455089,2162698,2162698,-2.9449752e-06,1.2978666e-06,8.51539e-06,-0.0011594729,-0.0010399317,-0.048579294,4989,4989,0
186453604,186452417,2162698,2162698,2.3270717e-05,7.786923e-06,1.0870655e-05,-0.0012858674,-0.0008893877,-0.048711676,4980,4980,0
189955549,189954494,2162698,2162698,5.6782674e-06,7.659178e-06,9.561355e-06,-0.0011652143,-0.001183215,-0.049074676,5018,5018,0
191456419,191455378,2162698,2162698,-1.981965e-05,1.2056994e-05,1.825431e-06,-0.00086799246,-0.000689256,-0.04895553,4993,4993,0
191956713,191955655,2162698,2162698,3.799956e-06,7.872311e-08,7.05203e-06,-0.001335445,-0.0011031961,-0.04902962,5003,5003,0
192456974,192455940,2162698,2162698,-7.695858e-05,1.8054438e-05,2.3930581e-05,-0.00096463435,-0.0014464685,-0.048855502,4985,4985,0
192957352,192956239,2162698,2162698,-4.0789353e-05,2.4383883e-06,2.6919724e-05,-0.0016501086,-0.0010974064,-0.049702585,5004,5004,0
193457634,193456528,2162698,2162698,2.4065437e-05,1.0969369e-05,1.2212679e-05,-0.0010041009,-0.0011794321,-0.048715096,5000,5000,0
194453202,194452115,2162698,2162698,0.00017873084,3.2218882e-06,-1.6677814e-05,-0.002247308,-0.00028231015,-0.04868343,4996,4996,0
194953511,194952420,2162698,2162698,0.00010221903,1.1059059e-05,1.702861e-05,-0.0015521985,-0.0017528964,-0.04901079,5008,5008,0
197454999,197453883,2162698,2162698,-1.9032346e-05,3.935285e-06,2.6129378e-06,-0.0010622549,-0.0011568848,-0.04892235,5003,5003,0
198455547,198454494,2162698,2162698,-8.980519e-06,-1.695789e-06,6.3039424e-06,-0.0012316612,-0.0010703576,-0.048865147,5005,5005,0
202452951,202451845,2162698,2162698,3.491921e-06,5.8650967e-06,1.1201382e-05,-0.0011107463,-0.0012109007,-0.048877534,5011,5011,0
205454670,205453632,2162698,2162698,5.8247383e-06,5.9876274e-06,7.646243e-06,-0.0011212793,-0.0011870491,-0.049086135,5011,5011,0
206455287,206454209,2162698,2162698,1.0744884e-05,4.7381067e-07,1.1622911e-05,-0.0012137162,-0.0012150639,-0.04873631,5007,5007,0
206955545,206954502,2162698,2162698,-2.7432134e-06,3.1739908e-06,5.652745e-06,-0.0011308474,-0.0010668911,-0.048431113,4939,4939,0
207455879,207454799,2162698,2162698,2.6913865e-06,4.278812e-06,1.1746798e-05,-0.0011961476,-0.0011290844,-0.04896758,5003,5003,0
207956189,207955106,2162698,2162698,1.6471009e-05,4.2264073e-06,8.62841e-06,-0.0011627369,-0.0009386742,-0.049015332,5007,5007,0
208456443,208455393,2162698,2162698,5.1505644e-06,2.5918087e-06,1.004524e-05,-0.0010205937,-0.0010501873,-0.048891813,5001,5001,0
208956855,208955688,2162698,2162698,2.0530304e-06,6.690376e-06,9.633912e-06,-0.0011063747,-0.0011611664,-0.048673224,4978,4978,0
209457031,209455987,2162698,2162698,4.016998e-06,1.0394907e-05,5.054916e-06,-0.0011088741,-0.0012498809,-0.04871192,4986,4986,0
210953013,210951886,2162698,2162698,1.3848748e-05,-3.0690883e-06,2.3943521e-06,-0.0011230145,-0.0011741836,-0.048626464,4989,4989,0
214955388,214954279,2162698,2162698,1.0810668e-05,3.2428165e-06,8.7593e-06,-0.0011538175,-0.0010826377,-0.049078893,5022,5022,0
216456249,216455174,2162698,2162698,1.0817166e-05,6.7105657e-06,5.286126e-06,-0.0012162896,-0.0011309711,-0.0489012,5013,5013,0
218957710,218956666,2162698,2162698,4.4469684e-06,3.5180758e-06,9.391537e-06,-0.0011259526,-0.001072955,-0.049051594,5020,5020,0
219953328,219952264,2162698,2162698,9.482165e-08,3.2324224e-06,3.199789e-06,-0.0011110081,-0.0012353348,-0.04898961,5014,5014,0
221954678,221953451,2162698,2162698,9.992728e-06,1.4867074e-06,3.9241945e-06,-0.001146273,-0.001179455,-0.049102116,5002,5002,0
222454927,222453741,2162698,2162698,1.9074487e-05,7.949897e-06,6.3220546e-06,-0.0011620538,-0.0012334745,-0.048779696,5000,5000,0
222955250,222954041,2162698,2162698,1.4124453e-05,4.182927e-06,1.10039255e-05,-0.0011296989,-0.0011474277,-0.048796266,5000,5000,0
224956428,224955304,2162698,2162698,6.4576425e-06,7.359892e-06,7.4414393e-06,-0.0011306611,-0.0011904808,-0.04932752,5050,5050,0
226457195,226456154,2162698,2162698,-5.5407363e-06,7.2748453e-06,1.1746943e-05,-0.001133642,-0.0011440959,-0.04873484,5004,5004,0
226957507,226956445,2162698,2162698,1.31446195e-05,1.2896103e-05,4.3409736e-06,-0.0012733961,-0.0012509014,-0.048820976,4999,4999,0
227953078,227952041,2162698,2162698,1.0331626e-05,3.6079168e-06,1.7265418e-05,-0.0011842427,-0.001087357,-0.048929293,4999,4999,0
229454035,229452943,2162698,2162698,-1.9425583e-05,2.94521e-06,1.7424265e-05,-0.0012204978,-0.0013384566,-0.04888643,4999,4999,0
230454645,230453570,2162698,2162698,5.2850068e-05,1.1108822e-05,2.0849147e-05,-0.0033089546,-0.000996758,-0.049066454,5016,5016,0
230954929,230953849,2162698,2162698,-0.0001527073,-1.9509702e-05,1.4584556e-05,-0.0003662262,-0.003097075,-0.0485346,5005,5005,0
231955514,231954457,2162698,2162698,3.2193377e-05,1.6807451e-06,-7.4960435e-06,-0.00046917333,-0.0017986662,-0.049126517,5006,5006,0
232956197,232955057,2162698,2162698,-3.6804566e-05,1.6539776e-05,1.50235655e-05,-0.0017524827,-0.00095354195,-0.048757914,5004,5004,0
233456404,233455357,2162698,2162698,-4.1581025e-06,5.013719e-06,1.5010241e-05,-0.0010889265,-0.00082577777,-0.04865762,5003,5003,0
233956732,233955673,2162698,2162698,4.0909e-05,1.12624175e-05,4.440197e-06,-0.0014088319,-0.0006917541,-0.04893601,5008,5008,0
234457006,234455961,2162698,2162698,-0.00010644746,-5.8955493e-06,9.118721e-06,-0.0010213163,-0.00061697286,-0.048864115,5005,5005,0
236453251,236452165,2162698,2162698,8.490284e-05,-4.9999206e-05,1.9902014e-05,-0.0008863086,-0.0013410404,-0.048272032,4960,4960,0
236953532,236952471,2162698,2162698,2.0151117e-06,2.4648143e-05,1.0747997e-06,-0.0009891898,-0.0009991553,-0.048179805,4997,4997,0
238954731,238953678,2162698,2162698,-2.9858786e-05,-1.8986819e-05,1.0105132e-05,-0.0010446092,-0.0016439243,-0.04895841,4999,4999,0
239455208,239454017,2162698,2162698,4.0310675e-05,6.914178e-07,1.195836e-05,-0.0010008399,-0.0013427797,-0.04886764,4998,4998,0
239955673,239954465,2162698,2162698,-9.0774025e-05,-1.5992745e-06,1.7084534e-05,-0.0010810088,-0.0014402205,-0.04909247,5009,5009,0
240956424,240955076,2162698,2162698,4.73599e-06,-2.3063105e-06,9.998184e-06,-0.0008592841,-0.001412822,-0.04905968,5018,5018,0
241956808,241955677,2162698,2162698,1.4525187e-05,2.2777426e-06,7.979834e-06,-0.001014363,-0.0012521367,-0.048941877,5009,5009,0
242457234,242455981,2162698,2162698,1.08587965e-05,6.279007e-06,6.517986e-06,-0.0011370888,-0.0011442538,-0.048863214,5000,5000,0
242957582,242956285,2162698,2162698,5.4734273e-06,-1.8795307e-06,1.9273935e-05,-0.0010829665,-0.001382365,-0.048835095,5004,5004,0
243457857,243456619,2162698,2162698,-4.7361442e-05,4.1269604e-06,5.1854354e-06,-0.00096172874,-0.0015212132,-0.049109437,5013,5013,0
243953094,243951884,2162698,2162698,-4.6335326e-06,7.2519124e-06,9.58019e-06,-0.0010892028,-0.0013954056,-0.048913572,5004,5004,0
244953552,244952491,2162698,2162698,4.0422565e-06,-1.3523597e-06,7.972279e-06,-0.00095816184,-0.0014842532,-0.048350945,4963,4963,0
245453853,245452793,2162698,2162698,8.391095e-06,1.5427069e-06,6.3792213e-06,-0.0010205791,-0.0012715511,-0.048486292,4962,4962,0
245954204,245953100,2162698,2162698,-1.2562228e-05,2.9385835e-06,1.0942294e-05,-0.0010693889,-0.0011983991,-0.048870277,4999,4999,0
