timestamp,q[0],q[1],q[2],q[3],delta_q_reset[0],delta_q_reset[1],delta_q_reset[2],delta_q_reset[3],quat_reset_counter
10085851,0.99795383,0.009856165,-0.012442047,-0.061937142,1.0,3.5145817e-09,-1.1724501e-09,0.00012391566,2
10090849,0.9979536,0.0098544685,-0.012443667,-0.061940957,1.0,3.5145817e-09,-1.1724501e-09,0.00012391566,2
10095861,0.9979534,0.009861088,-0.012443001,-0.061942983,1.0,3.5145817e-09,-1.1724501e-09,0.00012391566,2
10100857,0.9979533,0.009861601,-0.012445415,-0.061945513,1.0,3.5145817e-09,-1.1724501e-09,0.00012391566,2
10105860,0.99795336,0.00985781,-0.012446037,-0.06194517,1.0,3.5145817e-09,-1.1724501e-09,0.00012391566,2
10110858,0.9979531,0.009854508,-0.012447343,-0.061948065,1.0,3.5145817e-09,-1.1724501e-09,0.00012391566,2
10115872,0.99795264,0.009855275,-0.012448214,-0.061955314,1.0,3.5145817e-09,-1.1724501e-09,0.00012391566,2
10120877,0.99795234,0.009855223,-0.012448982,-0.061960034,1.0,3.5145817e-09,-1.1724501e-09,0.00012391566,2
10125875,0.997952,0.0098566385,-0.01245315,-0.06196494,1.0,3.5145817e-09,-1.1724501e-09,0.00012391566,2
10130866,0.9979516,0.009857345,-0.012455592,-0.061971202,1.0,3.5145817e-09,-1.1724501e-09,0.00012391566,2
10135878,0.99795127,0.009861505,-0.01245981,-0.06197474,1.0,3.5145817e-09,-1.1724501e-09,0.00012391566,2
10140871,0.99795115,0.00986419,-0.012460386,-0.06197691,1.0,3.5145817e-09,-1.1724501e-09,0.00012391566,2
10165906,0.9979508,0.009855524,-0.012460526,-0.061982997,1.0,3.5145817e-09,-1.1724501e-09,0.00012391566,2
10170883,0.99795073,0.009860835,-0.012460599,-0.061984416,1.0,3.5145817e-09,-1.1724501e-09,0.00012391566,2
10175894,0.9979505,0.00985932,-0.012459934,-0.06198675,1.0,3.5145817e-09,-1.1724501e-09,0.00012391566,2
10180888,0.99795055,0.00985663,-0.012459618,-0.061987296,1.0,3.5145817e-09,-1.1724501e-09,0.00012391566,2
10185892,0.9979504,0.009850535,-0.01245913,-0.061991442,1.0,3.5145817e-09,-1.1724501e-09,0.00012391566,2
10190891,0.9979503,0.009843538,-0.012459264,-0.061993647,1.0,3.5145817e-09,-1.1724501e-09,0.00012391566,2
10195904,0.9979502,0.009843838,-0.0124594215,-0.061995625,1.0,3.5145817e-09,-1.1724501e-09,0.00012391566,2
10200897,0.99795014,0.00984601,-0.012459696,-0.061996322,1.0,3.5145817e-09,-1.1724501e-09,0.00012391566,2
10205900,0.9979498,0.009854328,-0.012460549,-0.06199951,1.0,3.5145817e-09,-1.1724501e-09,0.00012391566,2
10210917,0.9979495,0.009852243,-0.012461944,-0.062003925,1.0,3.5145817e-09,-1.1724501e-09,0.00012391566,2
10215902,0.9979495,0.009844982,-0.0124632865,-0.062005285,1.0,3.5145817e-09,-1.1724501e-09,0.00012391566,2
10220907,0.9979495,0.009843935,-0.012461791,-0.06200481,1.0,3.5145817e-09,-1.1724501e-09,0.00012391566,2
10255929,0.997948,0.009862165,-0.012471615,-0.062023874,1.0,3.5145817e-09,-1.1724501e-09,0.00012391566,2
10260921,0.99794805,0.0098666735,-0.012470804,-0.062024094,1.0,3.5145817e-09,-1.1724501e-09,0.00012391566,2
10265931,0.99794793,0.009863571,-0.01247173,-0.06202477,1.0,3.5145817e-09,-1.1724501e-09,0.00012391566,2
10270926,0.997948,0.009858494,-0.012469442,-0.062025152,1.0,3.5145817e-09,-1.1724501e-09,0.00012391566,2
10275938,0.99794805,0.009852695,-0.012470425,-0.06202528,1.0,3.5145817e-09,-1.1724501e-09,0.00012391566,2
10280930,0.99794793,0.0098562315,-0.012471913,-0.06202623,1.0,3.5145817e-09,-1.1724501e-09,0.00012391566,2
10285942,0.99794793,0.009863833,-0.012473185,-0.062025517,1.0,3.5145817e-09,-1.1724501e-09,0.00012391566,2
10290934,0.9979479,0.0098671615,-0.012473164,-0.062025763,1.0,3.5145817e-09,-1.1724501e-09,0.00012391566,2
10295946,0.99794793,0.009865545,-0.012472348,-0.062025063,1.0,3.5145817e-09,-1.1724501e-09,0.00012391566,2
10300938,0.99794793,0.009864084,-0.0124735385,-0.06202534,1.0,3.5145817e-09,-1.1724501e-09,0.00012391566,2
10305940,0.99794805,0.00985912,-0.012473174,-0.062023994,1.0,3.5145817e-09,-1.1724501e-09,0.00012391566,2
10336007,0.9979475,0.009855268,-0.0124756005,-0.062032394,1.0,3.5145817e-09,-1.1724501e-09,0.00012391566,2
10340957,0.99794763,0.009848911,-0.012472281,-0.062032703,1.0,3.5145817e-09,-1.1724501e-09,0.00012391566,2
10345965,0.9979476,0.009849342,-0.012472097,-0.062033188,1.0,3.5145817e-09,-1.1724501e-09,0.00012391566,2
10350964,0.99794745,0.009854182,-0.012472864,-0.0620345,1.0,3.5145817e-09,-1.1724501e-09,0.00012391566,2
10355966,0.99794734,0.009856551,-0.0124732,-0.06203621,1.0,3.5145817e-09,-1.1724501e-09,0.00012391566,2
10360964,0.99794734,0.009852421,-0.012473104,-0.06203688,1.0,3.5145817e-09,-1.1724501e-09,0.00012391566,2
10365969,0.99794745,0.009852346,-0.012470993,-0.06203493,1.0,3.5145817e-09,-1.1724501e-09,0.00012391566,2
10436005,0.9979473,0.009862894,-0.012461571,-0.06203906,1.0,3.5145817e-09,-1.1724501e-09,0.00012391566,2
10441026,0.9979476,0.009865551,-0.0124595035,-0.062034126,1.0,3.5145817e-09,-1.1724501e-09,0.00012391566,2
10446014,0.9979478,0.009863328,-0.012456863,-0.062031306,1.0,3.5145817e-09,-1.1724501e-09,0.00012391566,2
10451010,0.997948,0.00985804,-0.012453637,-0.06202832,1.0,3.5145817e-09,-1.1724501e-09,0.00012391566,2
10456026,0.99794817,0.009852521,-0.0124525055,-0.062026855,1.0,3.5145817e-09,-1.1724501e-09,0.00012391566,2
10486037,0.9979487,0.009859201,-0.012440911,-0.06202002,1.0,3.5145817e-09,-1.1724501e-09,0.00012391566,2
10491029,0.99794865,0.009862956,-0.0124396505,-0.0620204,1.0,3.5145817e-09,-1.1724501e-09,0.00012391566,2
10496030,0.9979485,0.009858914,-0.0124376,-0.062022887,1.0,3.5145817e-09,-1.1724501e-09,0.00012391566,2
10501023,0.9979486,0.009851519,-0.012435851,-0.062023308,1.0,3.5145817e-09,-1.1724501e-09,0.00012391566,2
10506019,0.99794847,0.009847275,-0.012434316,-0.062026333,1.0,3.5145817e-09,-1.1724501e-09,0.00012391566,2
10511057,0.9979485,0.009858547,-0.0124339005,-0.062024754,1.0,3.5145817e-09,-1.1724501e-09,0.00012391566,2
10516046,0.99794817,0.009877248,-0.012437024,-0.062025215,1.0,3.5145817e-09,-1.1724501e-09,0.00012391566,2
10521033,0.9979485,0.00986072,-0.012435611,-0.062024344,1.0,3.5145817e-09,-1.1724501e-09,0.00012391566,2
10526066,0.9979487,0.009850083,-0.012433651,-0.062021513,1.0,3.5145817e-09,-1.1724501e-09,0.00012391566,2
10531046,0.9979489,0.009855212,-0.01243158,-0.06202004,1.0,3.5145817e-09,-1.1724501e-09,0.00012391566,2
10536040,0.9979485,0.009863773,-0.012432082,-0.06202297,1.0,3.5145817e-09,-1.1724501e-09,0.00012391566,2
10586112,0.99794835,0.009878042,-0.01243083,-0.06202419,1.0,3.5145817e-09,-1.1724501e-09,0.00012391566,2
10591101,0.99794817,0.009874722,-0.012430073,-0.06202808,1.0,3.5145817e-09,-1.1724501e-09,0.00012391566,2
10596091,0.9979482,0.009876081,-0.012429999,-0.062026978,1.0,3.5145817e-09,-1.1724501e-09,0.00012391566,2
10601072,0.9979484,0.009877825,-0.01242782,-0.062023584,1.0,3.5145817e-09,-1.1724501e-09,0.00012391566,2
10606078,0.9979489,0.009870271,-0.012424737,-0.0620195,1.0,3.5145817e-09,-1.1724501e-09,0.00012391566,2
10611119,0.99794954,0.00984394,-0.0124208955,-0.06201299,1.0,3.5145817e-09,-1.1724501e-09,0.00012391566,2
10616078,0.99795,0.009819906,-0.012418246,-0.062009007,1.0,3.5145817e-09,-1.1724501e-09,0.00012391566,2
10626076,0.99794906,0.009930985,-0.0124226585,-0.06200604,1.0,3.5145817e-09,-1.1724501e-09,0.00012391566,2
10631082,0.9979493,0.009925753,-0.012425715,-0.062002655,1.0,3.5145817e-09,-1.1724501e-09,0.00012391566,2
10636086,0.99795043,0.00983852,-0.012419807,-0.06199983,1.0,3.5145817e-09,-1.1724501e-09,0.00012391566,2
10641082,0.9979509,0.009768571,-0.01241906,-0.062003408,1.0,3.5145817e-09,-1.1724501e-09,0.00012391566,2
10681099,0.99795043,0.009831427,-0.0124051515,-0.0620037,1.0,3.5145817e-09,-1.1724501e-09,0.00012391566,2
10686101,0.99794996,0.009844091,-0.012403541,-0.062009294,1.0,3.5145817e-09,-1.1724501e-09,0.00012391566,2
10691113,0.9979496,0.00984773,-0.012404956,-0.062014457,1.0,3.5145817e-09,-1.1724501e-09,0.00012391566,2
10696130,0.99794984,0.009838252,-0.012406704,-0.062012468,1.0,3.5145817e-09,-1.1724501e-09,0.00012391566,2
10701107,0.9979503,0.009823451,-0.012408371,-0.062006403,1.0,3.5145817e-09,-1.1724501e-09,0.00012391566,2
10706113,0.9979506,0.009841249,-0.012411474,-0.061998837,1.0,3.5145817e-09,-1.1724501e-09,0.00012391566,2
10711112,0.99795,0.009893969,-0.012413783,-0.06199891,1.0,3.5145817e-09,-1.1724501e-09,0.00012391566,2
10966237,0.99794614,0.009864905,-0.012427601,-0.062062453,1.0,3.5145817e-09,-1.1724501e-09,0.00012391566,2
10971237,0.9979461,0.009845447,-0.012429108,-0.062066004,1.0,3.5145817e-09,-1.1724501e-09,0.00012391566,2
10976229,0.997946,0.009830613,-0.012427167,-0.06207096,1.0,3.5145817e-09,-1.1724501e-09,0.00012391566,2
10981228,0.997946,0.009820207,-0.012427845,-0.062071294,1.0,3.5145817e-09,-1.1724501e-09,0.00012391566,2
10986240,0.99794596,0.009825275,-0.012430013,-0.062070798,1.0,3.5145817e-09,-1.1724501e-09,0.00012391566,2
11031252,0.9979448,0.009895132,-0.012445079,-0.062076434,1.0,3.5145817e-09,-1.1724501e-09,0.00012391566,2
11036251,0.99794436,0.009900617,-0.012449637,-0.06208115,1.0,3.5145817e-09,-1.1724501e-09,0.00012391566,2
11041254,0.997944,0.009904032,-0.012453612,-0.062085092,1.0,3.5145817e-09,-1.1724501e-09,0.00012391566,2
11046263,0.9979438,0.00989623,-0.012457653,-0.062089615,1.0,3.5145817e-09,-1.1724501e-09,0.00012391566,2
11051256,0.99794346,0.0098932255,-0.012456765,-0.062095955,1.0,3.5145817e-09,-1.1724501e-09,0.00012391566,2
11056289,0.99794316,0.0098937405,-0.0124546,-0.06210096,1.0,3.5145817e-09,-1.1724501e-09,0.00012391566,2
11061263,0.9979432,0.009893888,-0.012456317,-0.062100135,1.0,3.5145817e-09,-1.1724501e-09,0.00012391566,2
11066266,0.9979432,0.009885188,-0.012454469,-0.062101267,1.0,3.5145817e-09,-1.1724501e-09,0.00012391566,2
11076277,0.9979437,0.009846361,-0.012451504,-0.062100187,1.0,3.5145817e-09,-1.1724501e-09,0.00012391566,2
11081279,0.99794394,0.009839356,-0.012448974,-0.062099203,1.0,3.5145817e-09,-1.1724501e-09,0.00012391566,2
11086281,0.99794376,0.009839466,-0.012450893,-0.062100295,1.0,3.5145817e-09,-1.1724501e-09,0.00012391566,2
11091291,0.9979436,0.009849247,-0.012451922,-0.062101506,1.0,3.5145817e-09,-1.1724501e-09,0.00012391566,2
11161315,0.9979412,0.009865612,-0.012454697,-0.06213774,1.0,3.5145817e-09,-1.1724501e-09,0.00012391566,2
11166308,0.9979411,0.009868196,-0.012457042,-0.062137444,1.0,3.5145817e-09,-1.1724501e-09,0.00012391566,2
11171307,0.9979412,0.009867055,-0.012455619,-0.062137153,1.0,3.5145817e-09,-1.1724501e-09,0.00012391566,2
11176311,0.9979411,0.009861219,-0.01245569,-0.06213846,1.0,3.5145817e-09,-1.1724501e-09,0.00012391566,2
11181319,0.9979412,0.009858123,-0.01245294,-0.062138885,1.0,3.5145817e-09,-1.1724501e-09,0.00012391566,2
11186332,0.9979413,0.009854422,-0.012451898,-0.06213767,1.0,3.5145817e-09,-1.1724501e-09,0.00012391566,2
11191315,0.9979413,0.009856542,-0.012451515,-0.0621373,1.0,3.5145817e-09,-1.1724501e-09,0.00012391566,2
11196320,0.9979412,0.009861252,-0.0124534825,-0.062138263,1.0,3.5145817e-09,-1.1724501e-09,0.00012391566,2
11201320,0.9979409,0.009872036,-0.01245524,-0.06214113,1.0,3.5145817e-09,-1.1724501e-09,0.00012391566,2
11206324,0.9979408,0.009877316,-0.012453581,-0.062142435,1.0,3.5145817e-09,-1.1724501e-09,0.00012391566,2
11211324,0.99794084,0.009878821,-0.012451951,-0.062141623,1.0,3.5145817e-09,-1.1724501e-09,0.00012391566,2
11216335,0.9979409,0.009878046,-0.012454431,-0.062139872,1.0,3.5145817e-09,-1.1724501e-09,0.00012391566,2
11246349,0.99794066,0.009866405,-0.0124478955,-0.06214743,1.0,3.5145817e-09,-1.1724501e-09,0.00012391566,2
11251341,0.99794054,0.0098680025,-0.012446441,-0.06214939,1.0,3.5145817e-09,-1.1724501e-09,0.00012391566,2
11256346,0.9979403,0.0098721655,-0.012446547,-0.06215228,1.0,3.5145817e-09,-1.1724501e-09,0.00012391566,2
11261345,0.9979403,0.009872618,-0.0124490075,-0.062151816,1.0,3.5145817e-09,-1.1724501e-09,0.00012391566,2
11266351,0.9979405,0.009865847,-0.012449034,-0.06214971,1.0,3.5145817e-09,-1.1724501e-09,0.00012391566,2
11296363,0.99794036,0.00984988,-0.012456229,-0.062152945,1.0,3.5145817e-09,-1.1724501e-09,0.00012391566,2
11301362,0.99794036,0.009848652,-0.012453887,-0.06215448,1.0,3.5145817e-09,-1.1724501e-09,0.00012391566,2
11306367,0.9979402,0.009848519,-0.0124515435,-0.062157117,1.0,3.5145817e-09,-1.1724501e-09,0.00012391566,2
11311372,0.9979401,0.009848306,-0.012450701,-0.062158223,1.0,3.5145817e-09,-1.1724501e-09,0.00012391566,2
11316371,0.9979399,0.009854667,-0.012453669,-0.06215992,1.0,3.5145817e-09,-1.1724501e-09,0.00012391566,2
11321381,0.99793965,0.009860589,-0.012450491,-0.062163487,1.0,3.5145817e-09,-1.1724501e-09,0.00012391566,2
11346383,0.99793947,0.009866241,-0.012448797,-0.06216653,1.0,3.5145817e-09,-1.1724501e-09,0.00012391566,2
11351383,0.99793947,0.00987017,-0.012450286,-0.062165394,1.0,3.5145817e-09,-1.1724501e-09,0.00012391566,2
11356388,0.99793947,0.009868863,-0.012450635,-0.06216564,1.0,3.5145817e-09,-1.1724501e-09,0.00012391566,2
11361407,0.9979392,0.009865915,-0.012450473,-0.062169254,1.0,3.5145817e-09,-1.1724501e-09,0.00012391566,2
11366392,0.99793905,0.00986153,-0.012451103,-0.06217345,1.0,3.5145817e-09,-1.1724501e-09,0.00012391566,2
11371397,0.99793893,0.009862228,-0.012452037,-0.062175054,1.0,3.5145817e-09,-1.1724501e-09,0.00012391566,2
11406410,0.9979382,0.009883498,-0.0124513665,-0.062182616,1.0,3.5145817e-09,-1.1724501e-09,0.00012391566,2
11411418,0.99793804,0.009891131,-0.012450689,-0.062184166,1.0,3.5145817e-09,-1.1724501e-09,0.00012391566,2
11416436,0.99793804,0.009893536,-0.012450639,-0.062183864,1.0,3.5145817e-09,-1.1724501e-09,0.00012391566,2
11421417,0.9979379,0.009895164,-0.012450352,-0.06218607,1.0,3.5145817e-09,-1.1724501e-09,0.00012391566,2
11426417,0.9979381,0.009893072,-0.0124496585,-0.06218367,1.0,3.5145817e-09,-1.1724501e-09,0.00012391566,2
11466435,0.99793714,0.009892692,-0.012461639,-0.062196635,1.0,3.5145817e-09,-1.1724501e-09,0.00012391566,2
11471434,0.997937,0.0098974975,-0.012462521,-0.062197685,1.0,3.5145817e-09,-1.1724501e-09,0.00012391566,2
11476442,0.99793714,0.0098939305,-0.012462625,-0.0621969,1.0,3.5145817e-09,-1.1724501e-09,0.00012391566,2
11481442,0.99793714,0.009887415,-0.012461323,-0.062198002,1.0,3.5145817e-09,-1.1724501e-09,0.00012391566,2
11486443,0.9979372,0.0098791225,-0.012463135,-0.06219797,1.0,3.5145817e-09,-1.1724501e-09,0.00012391566,2
11516455,0.99793655,0.009895592,-0.012467839,-0.062205046,1.0,3.5145817e-09,-1.1724501e-09,0.00012391566,2
11521486,0.99793655,0.009898669,-0.012468627,-0.06220415,1.0,3.5145817e-09,-1.1724501e-09,0.00012391566,2
11526460,0.9979363,0.009901323,-0.012467662,-0.06220618,1.0,3.5145817e-09,-1.1724501e-09,0.00012391566,2
11531460,0.9979361,0.009907433,-0.012465826,-0.062209766,1.0,3.5145817e-09,-1.1724501e-09,0.00012391566,2
11536468,0.9979359,0.009910798,-0.012466552,-0.06221269,1.0,3.5145817e-09,-1.1724501e-09,0.00012391566,2
11541467,0.99793595,0.009907587,-0.012464672,-0.062212385,1.0,3.5145817e-09,-1.1724501e-09,0.00012391566,2
11576482,0.99793595,0.009898563,-0.012459765,-0.06221511,1.0,3.5145817e-09,-1.1724501e-09,0.00012391566,2
11581485,0.9979359,0.0098993825,-0.01246085,-0.062216524,1.0,3.5145817e-09,-1.1724501e-09,0.00012391566,2
11586493,0.9979356,0.009901117,-0.012461059,-0.06221926,1.0,3.5145817e-09,-1.1724501e-09,0.00012391566,2
11591485,0.9979355,0.009900626,-0.012460411,-0.06222126,1.0,3.5145817e-09,-1.1724501e-09,0.00012391566,2
11596490,0.99793553,0.009896828,-0.012463767,-0.062220518,1.0,3.5145817e-09,-1.1724501e-09,0.00012391566,2
11626506,0.99793494,0.009903017,-0.0124721285,-0.06222825,1.0,3.5145817e-09,-1.1724501e-09,0.00012391566,2
11631504,0.9979347,0.009903811,-0.012476268,-0.062231187,1.0,3.5145817e-09,-1.1724501e-09,0.00012391566,2
11636507,0.9979344,0.009907979,-0.012475636,-0.062235117,1.0,3.5145817e-09,-1.1724501e-09,0.00012391566,2
11641510,0.9979343,0.009905168,-0.0124737155,-0.062238537,1.0,3.5145817e-09,-1.1724501e-09,0.00012391566,2
11646511,0.997934,0.009903529,-0.012473029,-0.06224166,1.0,3.5145817e-09,-1.1724501e-09,0.00012391566,2
11671519,0.9979341,0.0099038035,-0.012473733,-0.062241368,1.0,3.5145817e-09,-1.1724501e-09,0.00012391566,2
11676521,0.9979339,0.009902008,-0.012472157,-0.06224383,1.0,3.5145817e-09,-1.1724501e-09,0.00012391566,2
11681527,0.99793386,0.009907347,-0.012473882,-0.062244173,1.0,3.5145817e-09,-1.1724501e-09,0.00012391566,2
11686528,0.99793375,0.009911813,-0.0124761965,-0.062245313,1.0,3.5145817e-09,-1.1724501e-09,0.00012391566,2
11691548,0.9979335,0.009920261,-0.0124778235,-0.062246248,1.0,3.5145817e-09,-1.1724501e-09,0.00012391566,2
11696531,0.99793375,0.009922402,-0.01247592,-0.0622428,1.0,3.5145817e-09,-1.1724501e-09,0.00012391566,2
11701535,0.99793386,0.009913796,-0.012471624,-0.062242407,1.0,3.5145817e-09,-1.1724501e-09,0.00012391566,2
11736554,0.9979337,0.0098966,-0.012467898,-0.062249374,1.0,3.5145817e-09,-1.1724501e-09,0.00012391566,2
11741543,0.9979335,0.009900717,-0.012470119,-0.062251147,1.0,3.5145817e-09,-1.1724501e-09,0.00012391566,2
11746561,0.9979333,0.009902321,-0.01247164,-0.062253892,1.0,3.5145817e-09,-1.1724501e-09,0.00012391566,2
11751548,0.9979333,0.009902209,-0.012473044,-0.062254325,1.0,3.5145817e-09,-1.1724501e-09,0.00012391566,2
11756550,0.9979333,0.0098994365,-0.012474359,-0.062254295,1.0,3.5145817e-09,-1.1724501e-09,0.00012391566,2
11761568,0.99793327,0.009901273,-0.012480306,-0.06225205,1.0,3.5145817e-09,-1.1724501e-09,0.00012391566,2
11791582,0.9979336,0.009900871,-0.012481118,-0.062246315,1.0,3.5145817e-09,-1.1724501e-09,0.00012391566,2
11796597,0.9979336,0.00990569,-0.012480245,-0.06224695,1.0,3.5145817e-09,-1.1724501e-09,0.00012391566,2
11801594,0.99793357,0.009906948,-0.012480528,-0.062248133,1.0,3.5145817e-09,-1.1724501e-09,0.00012391566,2
11806600,0.99793315,0.009910834,-0.012482477,-0.06225239,1.0,3.5145817e-09,-1.1724501e-09,0.00012391566,2
11811649,0.99793315,0.009908508,-0.012482639,-0.062252756,1.0,3.5145817e-09,-1.1724501e-09,0.00012391566,2
11816619,0.997933,0.009907955,-0.012486557,-0.06225484,1.0,3.5145817e-09,-1.1724501e-09,0.00012391566,2
11866622,0.9979326,0.009898446,-0.012488724,-0.06226171,1.0,3.5145817e-09,-1.1724501e-09,0.00012391566,2
11871604,0.99793255,0.009898314,-0.012488522,-0.062263068,1.0,3.5145817e-09,-1.1724501e-09,0.00012391566,2
11876626,0.9979326,0.009897893,-0.012489898,-0.06226178,1.0,3.5145817e-09,-1.1724501e-09,0.00012391566,2
11881608,0.99793285,0.0098994365,-0.012490114,-0.06225767,1.0,3.5145817e-09,-1.1724501e-09,0.00012391566,2
11886621,0.9979332,0.009903597,-0.01249162,-0.062251385,1.0,3.5145817e-09,-1.1724501e-09,0.00012391566,2
11906619,0.99793303,0.009904084,-0.0124902455,-0.06225458,1.0,3.5145817e-09,-1.1724501e-09,0.00012391566,2
11911621,0.997933,0.009905595,-0.012491842,-0.062254027,1.0,3.5145817e-09,-1.1724501e-09,0.00012391566,2
11916627,0.99793303,0.00991387,-0.01249508,-0.062252637,1.0,3.5145817e-09,-1.1724501e-09,0.00012391566,2
11921625,0.99793273,0.009917299,-0.012497133,-0.062254902,1.0,3.5145817e-09,-1.1724501e-09,0.00012391566,2
11926635,0.99793273,0.009918539,-0.012497183,-0.06225529,1.0,3.5145817e-09,-1.1724501e-09,0.00012391566,2
11931629,0.9979328,0.009914908,-0.012497815,-0.062255707,1.0,3.5145817e-09,-1.1724501e-09,0.00012391566,2
11956644,0.9979327,0.009892411,-0.012503067,-0.06225888,1.0,3.5145817e-09,-1.1724501e-09,0.00012391566,2
11961642,0.9979327,0.009891522,-0.012502428,-0.06225915,1.0,3.5145817e-09,-1.1724501e-09,0.00012391566,2
11966648,0.9979325,0.009897655,-0.012501239,-0.06226094,1.0,3.5145817e-09,-1.1724501e-09,0.00012391566,2
11971646,0.9979325,0.00990622,-0.01250095,-0.06226168,1.0,3.5145817e-09,-1.1724501e-09,0.00012391566,2
11976652,0.9979326,0.00991059,-0.012499255,-0.0622592,1.0,3.5145817e-09,-1.1724501e-09,0.00012391566,2
12011664,0.997933,0.009923496,-0.012499532,-0.062251315,1.0,3.5145817e-09,-1.1724501e-09,0.00012391566,2
12016670,0.9979331,0.009930071,-0.012499299,-0.062247917,1.0,3.5145817e-09,-1.1724501e-09,0.00012391566,2
12021677,0.997933,0.009936953,-0.012499406,-0.06224727,1.0,3.5145817e-09,-1.1724501e-09,0.00012391566,2
12026679,0.9979332,0.009936345,-0.012499035,-0.062245518,1.0,3.5145817e-09,-1.1724501e-09,0.00012391566,2
12031692,0.9979333,0.009929387,-0.0124994125,-0.0622448,1.0,3.5145817e-09,-1.1724501e-09,0.00012391566,2
12036678,0.9979334,0.0099225445,-0.012498663,-0.06224337,1.0,3.5145817e-09,-1.1724501e-09,0.00012391566,2
12041695,0.99793357,0.009916853,-0.012500259,-0.062241815,1.0,3.5145817e-09,-1.1724501e-09,0.00012391566,2
12066687,0.9979335,0.009919572,-0.012502369,-0.06224208,1.0,3.5145817e-09,-1.1724501e-09,0.00012391566,2
12071689,0.9979334,0.009916387,-0.012503536,-0.062243264,1.0,3.5145817e-09,-1.1724501e-09,0.00012391566,2
12076703,0.99793345,0.009910922,-0.012505382,-0.062243026,1.0,3.5145817e-09,-1.1724501e-09,0.00012391566,2
12081693,0.99793357,0.009913084,-0.01250589,-0.062240805,1.0,3.5145817e-09,-1.1724501e-09,0.00012391566,2
12086698,0.9979336,0.009916964,-0.01250565,-0.062240716,1.0,3.5145817e-09,-1.1724501e-09,0.00012391566,2
12116718,0.9979339,0.00991837,-0.0124947475,-0.06223816,1.0,3.5145817e-09,-1.1724501e-09,0.00012391566,2
12121710,0.9979338,0.009913746,-0.01249657,-0.062239226,1.0,3.5145817e-09,-1.1724501e-09,0.00012391566,2
12126712,0.9979338,0.0099093765,-0.012500189,-0.062238913,1.0,3.5145817e-09,-1.1724501e-09,0.00012391566,2
12131728,0.99793416,0.009908431,-0.012498346,-0.062234994,1.0,3.5145817e-09,-1.1724501e-09,0.00012391566,2
12136734,0.9979339,0.009910616,-0.012499275,-0.062236674,1.0,3.5145817e-09,-1.1724501e-09,0.00012391566,2
12141719,0.9979339,0.009909479,-0.012504136,-0.062236257,1.0,3.5145817e-09,-1.1724501e-09,0.00012391566,2
12146721,0.99793404,0.009907112,-0.01250465,-0.062234327,1.0,3.5145817e-09,-1.1724501e-09,0.00012391566,2
12156729,0.9979346,0.009905066,-0.0125063555,-0.06222536,1.0,3.5145817e-09,-1.1724501e-09,0.00012391566,2
12161730,0.9979346,0.009912503,-0.012508336,-0.062224217,1.0,3.5145817e-09,-1.1724501e-09,0.00012391566,2
12166729,0.9979345,0.009917293,-0.012510053,-0.06222457,1.0,3.5145817e-09,-1.1724501e-09,0.00012391566,2
12171732,0.9979347,0.009920459,-0.012509012,-0.062222347,1.0,3.5145817e-09,-1.1724501e-09,0.00012391566,2
12176738,0.99793464,0.009919788,-0.012511167,-0.062221542,1.0,3.5145817e-09,-1.1724501e-09,0.00012391566,2
12181745,0.9979347,0.009914501,-0.012509629,-0.06222309,1.0,3.5145817e-09,-1.1724501e-09,0.00012391566,2
12196745,0.9979348,0.009919891,-0.012507172,-0.06222066,1.0,3.5145817e-09,-1.1724501e-09,0.00012391566,2
12201745,0.9979349,0.009917981,-0.012506876,-0.06221942,1.0,3.5145817e-09,-1.1724501e-09,0.00012391566,2
12206753,0.997935,0.009914136,-0.012509653,-0.06221801,1.0,3.5145817e-09,-1.1724501e-09,0.00012391566,2
12211749,0.997935,0.009916838,-0.012506676,-0.062218506,1.0,3.5145817e-09,-1.1724501e-09,0.00012391566,2
12216751,0.9979349,0.009919031,-0.012504558,-0.062220376,1.0,3.5145817e-09,-1.1724501e-09,0.00012391566,2
12221782,0.99793476,0.009921063,-0.012506974,-0.062220577,1.0,3.5145817e-09,-1.1724501e-09,0.00012391566,2
12236760,0.99793464,0.009914274,-0.012503184,-0.06222426,1.0,3.5145817e-09,-1.1724501e-09,0.00012391566,2
12241776,0.99793476,0.0099136215,-0.012504617,-0.062222414,1.0,3.5145817e-09,-1.1724501e-09,0.00012391566,2
12246764,0.997935,0.009918629,-0.012506001,-0.062217914,1.0,3.5145817e-09,-1.1724501e-09,0.00012391566,2
12251766,0.9979351,0.009917318,-0.012506564,-0.06221615,1.0,3.5145817e-09,-1.1724501e-09,0.00012391566,2
12256768,0.9979351,0.009914031,-0.012511199,-0.062215604,1.0,3.5145817e-09,-1.1724501e-09,0.00012391566,2
12316794,0.99793535,0.009913707,-0.012513064,-0.06221112,1.0,3.5145817e-09,-1.1724501e-09,0.00012391566,2
12321795,0.9979357,0.009907673,-0.012512918,-0.062206022,1.0,3.5145817e-09,-1.1724501e-09,0.00012391566,2
12326798,0.9979358,0.00990972,-0.012512712,-0.062205367,1.0,3.5145817e-09,-1.1724501e-09,0.00012391566,2
12331806,0.9979359,0.009921401,-0.012510512,-0.06220235,1.0,3.5145817e-09,-1.1724501e-09,0.00012391566,2
12336802,0.9979358,0.009930499,-0.012512417,-0.062202062,1.0,3.5145817e-09,-1.1724501e-09,0.00012391566,2
12341804,0.99793565,0.009937607,-0.012514286,-0.062203035,1.0,3.5145817e-09,-1.1724501e-09,0.00012391566,2
12401830,0.99793583,0.009933984,-0.012520625,-0.062199175,1.0,3.5145817e-09,-1.1724501e-09,0.00012391566,2
12406841,0.99793583,0.009936828,-0.012519288,-0.06219873,1.0,3.5145817e-09,-1.1724501e-09,0.00012391566,2
12411841,0.9979359,0.009935752,-0.012520098,-0.062197566,1.0,3.5145817e-09,-1.1724501e-09,0.00012391566,2
12416836,0.9979358,0.009932755,-0.01251974,-0.062200062,1.0,3.5145817e-09,-1.1724501e-09,0.00012391566,2
12421838,0.9979359,0.00992661,-0.012519064,-0.062199645,1.0,3.5145817e-09,-1.1724501e-09,0.00012391566,2
12441847,0.99793607,0.009938669,-0.012522083,-0.06219426,1.0,3.5145817e-09,-1.1724501e-09,0.00012391566,2
12446850,0.99793625,0.009938635,-0.012521619,-0.06219098,1.0,3.5145817e-09,-1.1724501e-09,0.00012391566,2
12451855,0.9979363,0.009935905,-0.012520994,-0.062191673,1.0,3.5145817e-09,-1.1724501e-09,0.00012391566,2
12456863,0.9979364,0.009932492,-0.012519215,-0.06218893,1.0,3.5145817e-09,-1.1724501e-09,0.00012391566,2
12461855,0.99793667,0.00993507,-0.012518679,-0.062186785,1.0,3.5145817e-09,-1.1724501e-09,0.00012391566,2
12466863,0.9979366,0.009941344,-0.012517849,-0.062184963,1.0,3.5145817e-09,-1.1724501e-09,0.00012391566,2
12486866,0.99793667,0.009935445,-0.012522763,-0.0621857,1.0,3.5145817e-09,-1.1724501e-09,0.00012391566,2
12491872,0.99793667,0.00992906,-0.012524372,-0.0621845,1.0,3.5145817e-09,-1.1724501e-09,0.00012391566,2
12496907,0.99793684,0.009923646,-0.012528713,-0.06218398,1.0,3.5145817e-09,-1.1724501e-09,0.00012391566,2
12501872,0.9979367,0.009922646,-0.012530976,-0.062184136,1.0,3.5145817e-09,-1.1724501e-09,0.00012391566,2
12506875,0.9979367,0.00992431,-0.01253129,-0.0621843,1.0,3.5145817e-09,-1.1724501e-09,0.00012391566,2
12531889,0.9979366,0.009929464,-0.012534086,-0.062184375,1.0,3.5145817e-09,-1.1724501e-09,0.00012391566,2
12536888,0.99793655,0.009929904,-0.012534086,-0.062184934,1.0,3.5145817e-09,-1.1724501e-09,0.00012391566,2
12541890,0.9979367,0.009930509,-0.012532497,-0.062183972,1.0,3.5145817e-09,-1.1724501e-09,0.00012391566,2
12546892,0.99793655,0.009933335,-0.012534278,-0.062184572,1.0,3.5145817e-09,-1.1724501e-09,0.00012391566,2
12551914,0.9979367,0.00992964,-0.012534234,-0.062182277,1.0,3.5145817e-09,-1.1724501e-09,0.00012391566,2
12586905,0.99793667,0.009923415,-0.012543514,-0.06218163,1.0,3.5145817e-09,-1.1724501e-09,0.00012391566,2
12591918,0.99793684,0.009926406,-0.012542432,-0.062180746,1.0,3.5145817e-09,-1.1724501e-09,0.00012391566,2
12596931,0.9979367,0.009929956,-0.01254281,-0.062181983,1.0,3.5145817e-09,-1.1724501e-09,0.00012391566,2
12601915,0.99793667,0.009927737,-0.0125437295,-0.062181026,1.0,3.5145817e-09,-1.1724501e-09,0.00012391566,2
12606917,0.9979368,0.009927504,-0.012544771,-0.062179487,1.0,3.5145817e-09,-1.1724501e-09,0.00012391566,2
12611930,0.99793667,0.009925127,-0.012546,-0.06218132,1.0,3.5145817e-09,-1.1724501e-09,0.00012391566,2
12626926,0.99793684,0.009931171,-0.012540485,-0.062179256,1.0,3.5145817e-09,-1.1724501e-09,0.00012391566,2
12631928,0.9979368,0.009931136,-0.012539322,-0.062180042,1.0,3.5145817e-09,-1.1724501e-09,0.00012391566,2
12636930,0.9979368,0.009928691,-0.012539812,-0.06218028,1.0,3.5145817e-09,-1.1724501e-09,0.00012391566,2
12641934,0.9979368,0.009925515,-0.0125383735,-0.062181126,1.0,3.5145817e-09,-1.1724501e-09,0.00012391566,2
12646934,0.9979368,0.009927155,-0.012537457,-0.0621809,1.0,3.5145817e-09,-1.1724501e-09,0.00012391566,2
12651936,0.9979369,0.009928742,-0.012539113,-0.062179316,1.0,3.5145817e-09,-1.1724501e-09,0.00012391566,2
12671947,0.99793696,0.00991701,-0.012541184,-0.062179822,1.0,3.5145817e-09,-1.1724501e-09,0.00012391566,2
12676949,0.99793684,0.009919262,-0.012541501,-0.062180005,1.0,3.5145817e-09,-1.1724501e-09,0.00012391566,2
12681949,0.9979368,0.009922057,-0.012540652,-0.06218054,1.0,3.5145817e-09,-1.1724501e-09,0.00012391566,2
12686951,0.997937,0.009918671,-0.012540276,-0.062179204,1.0,3.5145817e-09,-1.1724501e-09,0.00012391566,2
12691954,0.997937,0.009916681,-0.01254011,-0.062179316,1.0,3.5145817e-09,-1.1724501e-09,0.00012391566,2
12696956,0.99793684,0.0099139465,-0.012542006,-0.06218214,1.0,3.5145817e-09,-1.1724501e-09,0.00012391566,2
12721966,0.9979369,0.009917918,-0.012546397,-0.06217859,1.0,3.5145817e-09,-1.1724501e-09,0.00012391566,2
12726979,0.99793696,0.009917347,-0.012548158,-0.062177926,1.0,3.5145817e-09,-1.1724501e-09,0.00012391566,2
12731971,0.99793696,0.00991623,-0.012551879,-0.06217848,1.0,3.5145817e-09,-1.1724501e-09,0.00012391566,2
12736972,0.9979368,0.009912673,-0.012554407,-0.06217996,1.0,3.5145817e-09,-1.1724501e-09,0.00012391566,2
12741975,0.9979369,0.009912557,-0.012555724,-0.06217781,1.0,3.5145817e-09,-1.1724501e-09,0.00012391566,2
12746999,0.99793696,0.00991542,-0.012553554,-0.06217833,1.0,3.5145817e-09,-1.1724501e-09,0.00012391566,2
12776990,0.9979366,0.009914962,-0.012552513,-0.06218255,1.0,3.5145817e-09,-1.1724501e-09,0.00012391566,2
12781992,0.99793667,0.00991623,-0.01254833,-0.062182967,1.0,3.5145817e-09,-1.1724501e-09,0.00012391566,2
12787001,0.9979367,0.009914722,-0.012549308,-0.062181935,1.0,3.5145817e-09,-1.1724501e-09,0.00012391566,2
12792000,0.9979367,0.009916353,-0.012549353,-0.0621819,1.0,3.5145817e-09,-1.1724501e-09,0.00012391566,2
12796998,0.9979366,0.009918109,-0.012549501,-0.062183835,1.0,3.5145817e-09,-1.1724501e-09,0.00012391566,2
12802012,0.9979366,0.009919934,-0.0125469165,-0.062183253,1.0,3.5145817e-09,-1.1724501e-09,0.00012391566,2
12862028,0.99793684,0.009922719,-0.012546747,-0.062178597,1.0,3.5145817e-09,-1.1724501e-09,0.00012391566,2
12867032,0.9979371,0.009921684,-0.012549868,-0.06217576,1.0,3.5145817e-09,-1.1724501e-09,0.00012391566,2
12872041,0.99793684,0.009923115,-0.012555523,-0.062176578,1.0,3.5145817e-09,-1.1724501e-09,0.00012391566,2
12877025,0.9979366,0.00992465,-0.012557778,-0.062179957,1.0,3.5145817e-09,-1.1724501e-09,0.00012391566,2
12882051,0.9979367,0.009915405,-0.012557855,-0.062179644,1.0,3.5145817e-09,-1.1724501e-09,0.00012391566,2
12887040,0.997937,0.009915263,-0.01255827,-0.0621765,1.0,3.5145817e-09,-1.1724501e-09,0.00012391566,2
12892039,0.99793696,0.009917391,-0.012561359,-0.06217621,1.0,3.5145817e-09,-1.1724501e-09,0.00012391566,2
12897045,0.99793684,0.0099166185,-0.012563008,-0.06217592,1.0,3.5145817e-09,-1.1724501e-09,0.00012391566,2
12902043,0.99793696,0.009918151,-0.012565248,-0.062174376,1.0,3.5145817e-09,-1.1724501e-09,0.00012391566,2
12907047,0.9979369,0.009919479,-0.012567834,-0.06217449,1.0,3.5145817e-09,-1.1724501e-09,0.00012391566,2
12912066,0.9979367,0.00992223,-0.012570726,-0.06217628,1.0,3.5145817e-09,-1.1724501e-09,0.00012391566,2
12917051,0.9979368,0.009923723,-0.012571033,-0.062175494,1.0,3.5145817e-09,-1.1724501e-09,0.00012391566,2
12957067,0.99793607,0.0099317,-0.012585874,-0.062181324,1.0,3.5145817e-09,-1.1724501e-09,0.00012391566,2
12962071,0.997936,0.009931153,-0.012588143,-0.062182106,1.0,3.5145817e-09,-1.1724501e-09,0.00012391566,2
12967091,0.99793595,0.0099329,-0.012587096,-0.062185053,1.0,3.5145817e-09,-1.1724501e-09,0.00012391566,2
12972077,0.9979357,0.009935551,-0.012585747,-0.062187113,1.0,3.5145817e-09,-1.1724501e-09,0.00012391566,2
12977079,0.99793583,0.009933041,-0.012585506,-0.062187523,1.0,3.5145817e-09,-1.1724501e-09,0.00012391566,2
12982078,0.9979356,0.009933263,-0.012583834,-0.062189355,1.0,3.5145817e-09,-1.1724501e-09,0.00012391566,2
12992077,0.99793583,0.009927045,-0.012583855,-0.06218666,1.0,3.5145817e-09,-1.1724501e-09,0.00012391566,2
12997085,0.9979359,0.009926499,-0.012585349,-0.062185884,1.0,3.5145817e-09,-1.1724501e-09,0.00012391566,2
13002090,0.9979357,0.009925827,-0.012588288,-0.062187627,1.0,3.5145817e-09,-1.1724501e-09,0.00012391566,2
13007083,0.99793565,0.009926356,-0.012592695,-0.062189184,1.0,3.5145817e-09,-1.1724501e-09,0.00012391566,2
13047119,0.9979352,0.009921701,-0.012598298,-0.06219409,1.0,3.5145817e-09,-1.1724501e-09,0.00012391566,2
13052127,0.99793535,0.0099272095,-0.012598904,-0.062191904,1.0,3.5145817e-09,-1.1724501e-09,0.00012391566,2
13057132,0.9979352,0.009928021,-0.012600845,-0.06219434,1.0,3.5145817e-09,-1.1724501e-09,0.00012391566,2
13062142,0.9979352,0.009930836,-0.012602679,-0.062192414,1.0,3.5145817e-09,-1.1724501e-09,0.00012391566,2
13067141,0.99793524,0.009929631,-0.01260354,-0.06219295,1.0,3.5145817e-09,-1.1724501e-09,0.00012391566,2
13072145,0.9979351,0.009931813,-0.012605948,-0.062192682,1.0,3.5145817e-09,-1.1724501e-09,0.00012391566,2
13077148,0.9979351,0.009934379,-0.01260722,-0.062192284,1.0,3.5145817e-09,-1.1724501e-09,0.00012391566,2
13092132,0.9979353,0.009929684,-0.012608607,-0.062191118,1.0,3.5145817e-09,-1.1724501e-09,0.00012391566,2
13097133,0.9979351,0.009927284,-0.012611216,-0.062193155,1.0,3.5145817e-09,-1.1724501e-09,0.00012391566,2
13102135,0.99793494,0.009934338,-0.012613385,-0.062194783,1.0,3.5145817e-09,-1.1724501e-09,0.00012391566,2
13107138,0.9979347,0.009936213,-0.012615725,-0.062196814,1.0,3.5145817e-09,-1.1724501e-09,0.00012391566,2
13157165,0.9979346,0.009932329,-0.012622265,-0.06219756,1.0,3.5145817e-09,-1.1724501e-09,0.00012391566,2
13162154,0.9979346,0.009931609,-0.012622424,-0.062197935,1.0,3.5145817e-09,-1.1724501e-09,0.00012391566,2
13167169,0.99793476,0.009929613,-0.012626465,-0.06219617,1.0,3.5145817e-09,-1.1724501e-09,0.00012391566,2
13172168,0.9979346,0.009932881,-0.012630162,-0.062196914,1.0,3.5145817e-09,-1.1724501e-09,0.00012391566,2
13177161,0.99793446,0.009931576,-0.01263267,-0.062198028,1.0,3.5145817e-09,-1.1724501e-09,0.00012391566,2
13182162,0.99793464,0.009927402,-0.012632598,-0.062196217,1.0,3.5145817e-09,-1.1724501e-09,0.00012391566,2
13187165,0.99793446,0.009928153,-0.012633643,-0.0621991,1.0,3.5145817e-09,-1.1724501e-09,0.00012391566,2
13192167,0.9979345,0.009929044,-0.012636383,-0.06219732,1.0,3.5145817e-09,-1.1724501e-09,0.00012391566,2
13197169,0.9979343,0.009933293,-0.012636682,-0.06220044,1.0,3.5145817e-09,-1.1724501e-09,0.00012391566,2
13202182,0.99793434,0.009937296,-0.012637786,-0.062198207,1.0,3.5145817e-09,-1.1724501e-09,0.00012391566,2
13207173,0.9979344,0.00993772,-0.012636387,-0.062197506,1.0,3.5145817e-09,-1.1724501e-09,0.00012391566,2
13277203,0.9979346,0.009956062,-0.0126327295,-0.06219342,1.0,3.5145817e-09,-1.1724501e-09,0.00012391566,2
13282209,0.99793434,0.009957714,-0.012633123,-0.06219544,1.0,3.5145817e-09,-1.1724501e-09,0.00012391566,2
13287208,0.99793434,0.009958611,-0.012636647,-0.062194582,1.0,3.5145817e-09,-1.1724501e-09,0.00012391566,2
13292210,0.99793446,0.009960998,-0.012637865,-0.062192712,1.0,3.5145817e-09,-1.1724501e-09,0.00012391566,2
13297212,0.9979344,0.009962835,-0.012640369,-0.06219256,1.0,3.5145817e-09,-1.1724501e-09,0.00012391566,2
13302239,0.99793446,0.009962797,-0.0126432115,-0.062190775,1.0,3.5145817e-09,-1.1724501e-09,0.00012391566,2
13307216,0.99793464,0.009957251,-0.012642596,-0.06218907,1.0,3.5145817e-09,-1.1724501e-09,0.00012391566,2
13312218,0.99793476,0.009953266,-0.012642362,-0.062188346,1.0,3.5145817e-09,-1.1724501e-09,0.00012391566,2
13317220,0.99793494,0.0099529335,-0.012642463,-0.06218513,1.0,3.5145817e-09,-1.1724501e-09,0.00012391566,2
13322283,0.997935,0.009951642,-0.012643939,-0.062183768,1.0,3.5145817e-09,-1.1724501e-09,0.00012391566,2
13327234,0.9979352,0.009947077,-0.012643464,-0.062181707,1.0,3.5145817e-09,-1.1724501e-09,0.00012391566,2
13372254,0.99793583,0.009953021,-0.012640798,-0.06217126,1.0,3.5145817e-09,-1.1724501e-09,0.00012391566,2
13377258,0.99793607,0.009952469,-0.012641249,-0.06216889,1.0,3.5145817e-09,-1.1724501e-09,0.00012391566,2
13382252,0.99793607,0.009951104,-0.012643712,-0.062167894,1.0,3.5145817e-09,-1.1724501e-09,0.00012391566,2
13387261,0.99793595,0.0099522015,-0.012641551,-0.062170178,1.0,3.5145817e-09,-1.1724501e-09,0.00012391566,2
13392262,0.9979359,0.009949944,-0.012641311,-0.06217074,1.0,3.5145817e-09,-1.1724501e-09,0.00012391566,2
13397266,0.99793607,0.00994649,-0.012642799,-0.062168874,1.0,3.5145817e-09,-1.1724501e-09,0.00012391566,2
13402260,0.99793607,0.009944551,-0.012640429,-0.062168844,1.0,3.5145817e-09,-1.1724501e-09,0.00012391566,2
13407279,0.99793607,0.009938073,-0.0126420595,-0.06217013,1.0,3.5145817e-09,-1.1724501e-09,0.00012391566,2
13412269,0.9979361,0.009934665,-0.0126410285,-0.062170178,1.0,3.5145817e-09,-1.1724501e-09,0.00012391566,2
13417266,0.9979361,0.009936913,-0.012642028,-0.06216978,1.0,3.5145817e-09,-1.1724501e-09,0.00012391566,2
13422280,0.997936,0.00993321,-0.012641848,-0.062172264,1.0,3.5145817e-09,-1.1724501e-09,0.00012391566,2
13427277,0.99793583,0.009935342,-0.012642514,-0.06217343,1.0,3.5145817e-09,-1.1724501e-09,0.00012391566,2
13457287,0.9979364,0.009954146,-0.012646967,-0.062160682,1.0,3.5145817e-09,-1.1724501e-09,0.00012391566,2
13462296,0.99793655,0.009958343,-0.012647441,-0.06215731,1.0,3.5145817e-09,-1.1724501e-09,0.00012391566,2
13467292,0.99793667,0.009956313,-0.012647334,-0.0621558,1.0,3.5145817e-09,-1.1724501e-09,0.00012391566,2
13472290,0.9979367,0.009959604,-0.012647727,-0.062155664,1.0,3.5145817e-09,-1.1724501e-09,0.00012391566,2
13477290,0.9979368,0.009959776,-0.01264765,-0.062154267,1.0,3.5145817e-09,-1.1724501e-09,0.00012391566,2
13502307,0.9979371,0.009952363,-0.012645529,-0.06215118,1.0,3.5145817e-09,-1.1724501e-09,0.00012391566,2
13507305,0.9979372,0.009953189,-0.012645646,-0.062147643,1.0,3.5145817e-09,-1.1724501e-09,0.00012391566,2
13512310,0.99793726,0.009955188,-0.012647117,-0.062146734,1.0,3.5145817e-09,-1.1724501e-09,0.00012391566,2
13517309,0.99793744,0.009955586,-0.01264618,-0.0621437,1.0,3.5145817e-09,-1.1724501e-09,0.00012391566,2
13522312,0.99793756,0.009957236,-0.012645348,-0.062141586,1.0,3.5145817e-09,-1.1724501e-09,0.00012391566,2
13527313,0.99793774,0.009953365,-0.012644786,-0.06214005,1.0,3.5145817e-09,-1.1724501e-09,0.00012391566,2
13562327,0.9979388,0.00995276,-0.012635099,-0.062125593,1.0,3.5145817e-09,-1.1724501e-09,0.00012391566,2
13567329,0.9979389,0.009957412,-0.012637652,-0.062124074,1.0,3.5145817e-09,-1.1724501e-09,0.00012391566,2
13572332,0.9979389,0.009957021,-0.012638834,-0.06212226,1.0,3.5145817e-09,-1.1724501e-09,0.00012391566,2
13577336,0.99793917,0.009952077,-0.012639209,-0.062118646,1.0,3.5145817e-09,-1.1724501e-09,0.00012391566,2
13582355,0.9979392,0.009947359,-0.012642077,-0.062117618,1.0,3.5145817e-09,-1.1724501e-09,0.00012391566,2
13587339,0.99793917,0.0099462755,-0.01264209,-0.062118836,1.0,3.5145817e-09,-1.1724501e-09,0.00012391566,2
13592338,0.99793905,0.009947857,-0.012643195,-0.06212032,1.0,3.5145817e-09,-1.1724501e-09,0.00012391566,2
13617352,0.9979392,0.009957861,-0.012644136,-0.062115796,1.0,3.5145817e-09,-1.1724501e-09,0.00012391566,2
13622365,0.9979393,0.009953955,-0.012644982,-0.062114276,1.0,3.5145817e-09,-1.1724501e-09,0.00012391566,2
13627356,0.9979394,0.009955757,-0.012646502,-0.062112145,1.0,3.5145817e-09,-1.1724501e-09,0.00012391566,2
13632355,0.9979395,0.009959,-0.012648025,-0.06210945,1.0,3.5145817e-09,-1.1724501e-09,0.00012391566,2
13637360,0.9979396,0.0099578975,-0.012649974,-0.06210879,1.0,3.5145817e-09,-1.1724501e-09,0.00012391566,2
13677401,0.9979402,0.009956362,-0.012651688,-0.06209872,1.0,3.5145817e-09,-1.1724501e-09,0.00012391566,2
13682377,0.99794024,0.009958231,-0.012652745,-0.062097915,1.0,3.5145817e-09,-1.1724501e-09,0.00012391566,2
13687391,0.9979402,0.0099570425,-0.01265221,-0.062098604,1.0,3.5145817e-09,-1.1724501e-09,0.00012391566,2
13692383,0.9979403,0.00995556,-0.012654296,-0.062097125,1.0,3.5145817e-09,-1.1724501e-09,0.00012391566,2
13697404,0.99794024,0.009954363,-0.012654532,-0.06209849,1.0,3.5145817e-09,-1.1724501e-09,0.00012391566,2
13702389,0.99794024,0.009953657,-0.012652163,-0.06209886,1.0,3.5145817e-09,-1.1724501e-09,0.00012391566,2
13707390,0.99794024,0.009954141,-0.012651147,-0.062099166,1.0,3.5145817e-09,-1.1724501e-09,0.00012391566,2
13732398,0.99794054,0.00995623,-0.0126464935,-0.062095214,1.0,3.5145817e-09,-1.1724501e-09,0.00012391566,2
13737404,0.9979406,0.009954344,-0.012647368,-0.062092822,1.0,3.5145817e-09,-1.1724501e-09,0.00012391566,2
13742402,0.9979407,0.009952273,-0.012649578,-0.062090985,1.0,3.5145817e-09,-1.1724501e-09,0.00012391566,2
13747429,0.9979409,0.009955691,-0.012649043,-0.0620887,1.0,3.5145817e-09,-1.1724501e-09,0.00012391566,2
13792426,0.997941,0.009956797,-0.012648865,-0.062085822,1.0,3.5145817e-09,-1.1724501e-09,0.00012391566,2
13797430,0.9979409,0.009958839,-0.012650479,-0.062087633,1.0,3.5145817e-09,-1.1724501e-09,0.00012391566,2
13802428,0.9979409,0.00995776,-0.012649384,-0.062087934,1.0,3.5145817e-09,-1.1724501e-09,0.00012391566,2
13807433,0.99794096,0.009950458,-0.01264833,-0.06208807,1.0,3.5145817e-09,-1.1724501e-09,0.00012391566,2
13812443,0.9979411,0.009948098,-0.012644898,-0.06208678,1.0,3.5145817e-09,-1.1724501e-09,0.00012391566,2
13817438,0.99794114,0.009952542,-0.012644805,-0.062086325,1.0,3.5145817e-09,-1.1724501e-09,0.00012391566,2
13822446,0.997941,0.009953988,-0.012649346,-0.062087324,1.0,3.5145817e-09,-1.1724501e-09,0.00012391566,2
13827441,0.997941,0.009955873,-0.012647761,-0.06208576,1.0,3.5145817e-09,-1.1724501e-09,0.00012391566,2
13842452,0.99794114,0.009956138,-0.01265302,-0.062083293,1.0,3.5145817e-09,-1.1724501e-09,0.00012391566,2
13847450,0.99794084,0.009957691,-0.012655442,-0.06208698,1.0,3.5145817e-09,-1.1724501e-09,0.00012391566,2
13852456,0.99794096,0.009962128,-0.012656041,-0.06208444,1.0,3.5145817e-09,-1.1724501e-09,0.00012391566,2
13857455,0.99794126,0.009961425,-0.012658537,-0.062080286,1.0,3.5145817e-09,-1.1724501e-09,0.00012391566,2
13862456,0.9979412,0.009957921,-0.0126590375,-0.062080648,1.0,3.5145817e-09,-1.1724501e-09,0.00012391566,2
13902485,0.9979407,0.009956491,-0.012667355,-0.062086664,1.0,3.5145817e-09,-1.1724501e-09,0.00012391566,2
13907480,0.9979407,0.009954904,-0.0126675,-0.062088143,1.0,3.5145817e-09,-1.1724501e-09,0.00012391566,2
13912484,0.99794066,0.009947617,-0.012671176,-0.062088773,1.0,3.5145817e-09,-1.1724501e-09,0.00012391566,2
13917488,0.9979406,0.00994651,-0.012670695,-0.062089983,1.0,3.5145817e-09,-1.1724501e-09,0.00012391566,2
13922479,0.99794054,0.009949977,-0.012673671,-0.062089182,1.0,3.5145817e-09,-1.1724501e-09,0.00012391566,2
13927484,0.9979405,0.00995204,-0.012674631,-0.062090278,1.0,3.5145817e-09,-1.1724501e-09,0.00012391566,2
13932484,0.99794054,0.0099538565,-0.012677531,-0.062088355,1.0,3.5145817e-09,-1.1724501e-09,0.00012391566,2
13937493,0.9979407,0.009956651,-0.012676766,-0.062084958,1.0,3.5145817e-09,-1.1724501e-09,0.00012391566,2
13942492,0.9979408,0.009956186,-0.01267729,-0.06208366,1.0,3.5145817e-09,-1.1724501e-09,0.00012391566,2
13947490,0.9979408,0.009959639,-0.012677334,-0.06208479,1.0,3.5145817e-09,-1.1724501e-09,0.00012391566,2
13952494,0.99794084,0.009958904,-0.012680002,-0.062083263,1.0,3.5145817e-09,-1.1724501e-09,0.00012391566,2
13957502,0.99794066,0.009960885,-0.012680065,-0.06208395,1.0,3.5145817e-09,-1.1724501e-09,0.00012391566,2
14007519,0.99793994,0.0099624405,-0.012680816,-0.062096175,1.0,3.5145817e-09,-1.1724501e-09,0.00012391566,2
14012518,0.9979402,0.009961264,-0.012682123,-0.062092252,1.0,3.5145817e-09,-1.1724501e-09,0.00012391566,2
14017527,0.9979403,0.009959129,-0.01268106,-0.062090814,1.0,3.5145817e-09,-1.1724501e-09,0.00012391566,2
14022576,0.9979403,0.009960844,-0.01268187,-0.062090687,1.0,3.5145817e-09,-1.1724501e-09,0.00012391566,2
14027524,0.9979405,0.009963375,-0.01268299,-0.062087435,1.0,3.5145817e-09,-1.1724501e-09,0.00012391566,2
14032529,0.9979404,0.009968069,-0.012686324,-0.062086433,1.0,3.5145817e-09,-1.1724501e-09,0.00012391566,2
14047543,0.9979405,0.009975728,-0.012685705,-0.062083434,1.0,3.5145817e-09,-1.1724501e-09,0.00012391566,2
14052539,0.99794054,0.009971643,-0.012686014,-0.062083162,1.0,3.5145817e-09,-1.1724501e-09,0.00012391566,2
14057541,0.99794054,0.009970133,-0.012688208,-0.06208296,1.0,3.5145817e-09,-1.1724501e-09,0.00012391566,2
14062555,0.99794036,0.009976493,-0.012690334,-0.0620847,1.0,3.5145817e-09,-1.1724501e-09,0.00012391566,2
14107577,0.9979401,0.009979644,-0.012693853,-0.06208765,1.0,3.5145817e-09,-1.1724501e-09,0.00012391566,2
14112561,0.99794006,0.0099846,-0.01269413,-0.062087934,1.0,3.5145817e-09,-1.1724501e-09,0.00012391566,2
14117566,0.99794006,0.009986954,-0.012693959,-0.062087912,1.0,3.5145817e-09,-1.1724501e-09,0.00012391566,2
14122574,0.99793977,0.009996748,-0.012695233,-0.062089067,1.0,3.5145817e-09,-1.1724501e-09,0.00012391566,2
14127573,0.9979399,0.0099999225,-0.012696444,-0.062087923,1.0,3.5145817e-09,-1.1724501e-09,0.00012391566,2
14132580,0.99793977,0.009999292,-0.012696816,-0.06208952,1.0,3.5145817e-09,-1.1724501e-09,0.00012391566,2
14137578,0.99793965,0.009999174,-0.012699571,-0.062092017,1.0,3.5145817e-09,-1.1724501e-09,0.00012391566,2
14142576,0.9979394,0.009996128,-0.012700905,-0.062095143,1.0,3.5145817e-09,-1.1724501e-09,0.00012391566,2
14147578,0.99793935,0.009995635,-0.0127001405,-0.062096417,1.0,3.5145817e-09,-1.1724501e-09,0.00012391566,2
14152590,0.9979393,0.009993974,-0.012702845,-0.062096115,1.0,3.5145817e-09,-1.1724501e-09,0.00012391566,2
14157584,0.9979393,0.009991984,-0.012701093,-0.06209799,1.0,3.5145817e-09,-1.1724501e-09,0.00012391566,2
14202600,0.9979393,0.0099910265,-0.012702205,-0.062097747,1.0,3.5145817e-09,-1.1724501e-09,0.00012391566,2
14207604,0.9979392,0.009995261,-0.0126974275,-0.062098645,1.0,3.5145817e-09,-1.1724501e-09,0.00012391566,2
14212667,0.99793917,0.010001236,-0.012696814,-0.062099036,1.0,3.5145817e-09,-1.1724501e-09,0.00012391566,2
14217608,0.997939,0.010004762,-0.012697549,-0.0621009,1.0,3.5145817e-09,-1.1724501e-09,0.00012391566,2
14222610,0.99793893,0.010011312,-0.012695417,-0.06210141,1.0,3.5145817e-09,-1.1724501e-09,0.00012391566,2
14227606,0.9979389,0.010018079,-0.01269667,-0.062101096,1.0,3.5145817e-09,-1.1724501e-09,0.00012391566,2
14242617,0.99793875,0.010014465,-0.012695352,-0.06210367,1.0,3.5145817e-09,-1.1724501e-09,0.00012391566,2
14247629,0.99793863,0.0100181755,-0.01269787,-0.062105007,1.0,3.5145817e-09,-1.1724501e-09,0.00012391566,2
14252619,0.99793863,0.010019477,-0.012701108,-0.062104166,1.0,3.5145817e-09,-1.1724501e-09,0.00012391566,2
14257628,0.99793845,0.0100174835,-0.012702811,-0.062105555,1.0,3.5145817e-09,-1.1724501e-09,0.00012391566,2
14262626,0.9979383,0.0100185275,-0.012703042,-0.062108714,1.0,3.5145817e-09,-1.1724501e-09,0.00012391566,2
14297672,0.9979374,0.010027977,-0.0127065545,-0.062120866,1.0,3.5145817e-09,-1.1724501e-09,0.00012391566,2
14302659,0.9979375,0.010026583,-0.012705313,-0.062119253,1.0,3.5145817e-09,-1.1724501e-09,0.00012391566,2
14307676,0.99793726,0.010029896,-0.012705796,-0.06212253,1.0,3.5145817e-09,-1.1724501e-09,0.00012391566,2
14312681,0.9979372,0.01003072,-0.012706016,-0.062123515,1.0,3.5145817e-09,-1.1724501e-09,0.00012391566,2
14317677,0.99793714,0.010032413,-0.012707353,-0.062124666,1.0,3.5145817e-09,-1.1724501e-09,0.00012391566,2
14322683,0.9979371,0.010027943,-0.012705565,-0.062126752,1.0,3.5145817e-09,-1.1724501e-09,0.00012391566,2
14342667,0.9979371,0.0100339865,-0.012708931,-0.06212503,1.0,3.5145817e-09,-1.1724501e-09,0.00012391566,2
14347672,0.99793696,0.010033548,-0.012708461,-0.06212654,1.0,3.5145817e-09,-1.1724501e-09,0.00012391566,2
14352675,0.99793696,0.010031626,-0.012707958,-0.062128242,1.0,3.5145817e-09,-1.1724501e-09,0.00012391566,2
14357676,0.9979369,0.010028335,-0.012709483,-0.062128596,1.0,3.5145817e-09,-1.1724501e-09,0.00012391566,2
14362684,0.9979371,0.010026512,-0.012712852,-0.06212509,1.0,3.5145817e-09,-1.1724501e-09,0.00012391566,2
14392698,0.9979366,0.010026576,-0.01272021,-0.062130142,1.0,3.5145817e-09,-1.1724501e-09,0.00012391566,2
14397686,0.9979366,0.010026971,-0.012724297,-0.062131334,1.0,3.5145817e-09,-1.1724501e-09,0.00012391566,2
14402685,0.9979367,0.010025138,-0.012724445,-0.062129457,1.0,3.5145817e-09,-1.1724501e-09,0.00012391566,2
14407697,0.99793684,0.010024123,-0.012726103,-0.06212731,1.0,3.5145817e-09,-1.1724501e-09,0.00012391566,2
14412695,0.99793684,0.0100243725,-0.012725755,-0.062127218,1.0,3.5145817e-09,-1.1724501e-09,0.00012391566,2
14417692,0.99793684,0.01002153,-0.01272522,-0.06212751,1.0,3.5145817e-09,-1.1724501e-09,0.00012391566,2
14437713,0.9979365,0.010015204,-0.01272299,-0.062133953,1.0,3.5145817e-09,-1.1724501e-09,0.00012391566,2
14442702,0.99793667,0.010013011,-0.012721714,-0.062132675,1.0,3.5145817e-09,-1.1724501e-09,0.00012391566,2
14447706,0.99793667,0.010009123,-0.012722733,-0.062132034,1.0,3.5145817e-09,-1.1724501e-09,0.00012391566,2
14452710,0.9979368,0.01000626,-0.012724975,-0.06213107,1.0,3.5145817e-09,-1.1724501e-09,0.00012391566,2
14457720,0.9979369,0.010007903,-0.012725603,-0.062127594,1.0,3.5145817e-09,-1.1724501e-09,0.00012391566,2
14482719,0.9979366,0.0100056045,-0.012728927,-0.06213314,1.0,3.5145817e-09,-1.1724501e-09,0.00012391566,2
14487722,0.99793655,0.010001645,-0.012731772,-0.06213397,1.0,3.5145817e-09,-1.1724501e-09,0.00012391566,2
14492725,0.99793655,0.010000969,-0.012731175,-0.062134113,1.0,3.5145817e-09,-1.1724501e-09,0.00012391566,2
14497736,0.99793625,0.010007534,-0.012732852,-0.0621374,1.0,3.5145817e-09,-1.1724501e-09,0.00012391566,2
14502732,0.9979362,0.010013277,-0.0127326,-0.06213757,1.0,3.5145817e-09,-1.1724501e-09,0.00012391566,2
14507734,0.99793607,0.010019642,-0.012733194,-0.062138278,1.0,3.5145817e-09,-1.1724501e-09,0.00012391566,2
14522737,0.9979366,0.010013354,-0.012726363,-0.062131766,1.0,3.5145817e-09,-1.1724501e-09,0.00012391566,2
14527746,0.9979367,0.010012493,-0.0127257295,-0.062131338,1.0,3.5145817e-09,-1.1724501e-09,0.00012391566,2
14532741,0.99793667,0.010017678,-0.012727314,-0.06212937,1.0,3.5145817e-09,-1.1724501e-09,0.00012391566,2
14537752,0.9979366,0.010022454,-0.012726435,-0.062130887,1.0,3.5145817e-09,-1.1724501e-09,0.00012391566,2
14542745,0.99793655,0.01002797,-0.012724406,-0.062131457,1.0,3.5145817e-09,-1.1724501e-09,0.00012391566,2
14547748,0.9979364,0.010027271,-0.0127273295,-0.062131997,1.0,3.5145817e-09,-1.1724501e-09,0.00012391566,2
14567756,0.9979361,0.010012677,-0.01273493,-0.062137596,1.0,3.5145817e-09,-1.1724501e-09,0.00012391566,2
14572761,0.9979362,0.010008711,-0.0127367135,-0.062137906,1.0,3.5145817e-09,-1.1724501e-09,0.00012391566,2
14577762,0.99793607,0.0100062275,-0.012735608,-0.062139854,1.0,3.5145817e-09,-1.1724501e-09,0.00012391566,2
14582770,0.9979359,0.010010275,-0.012737235,-0.062141318,1.0,3.5145817e-09,-1.1724501e-09,0.00012391566,2
14587765,0.997936,0.01001109,-0.012737775,-0.06214086,1.0,3.5145817e-09,-1.1724501e-09,0.00012391566,2
14592767,0.9979357,0.010015598,-0.01273845,-0.062144402,1.0,3.5145817e-09,-1.1724501e-09,0.00012391566,2
14637810,0.9979356,0.0100249695,-0.012750339,-0.06214178,1.0,3.5145817e-09,-1.1724501e-09,0.00012391566,2
14642788,0.99793565,0.010027881,-0.012748429,-0.062141225,1.0,3.5145817e-09,-1.1724501e-09,0.00012391566,2
14647816,0.99793553,0.010031702,-0.01274781,-0.062141966,1.0,3.5145817e-09,-1.1724501e-09,0.00012391566,2
14652793,0.9979354,0.010026957,-0.012750793,-0.06214358,1.0,3.5145817e-09,-1.1724501e-09,0.00012391566,2
14657806,0.99793535,0.010020874,-0.01275326,-0.06214424,1.0,3.5145817e-09,-1.1724501e-09,0.00012391566,2
14687812,0.99793553,0.010026055,-0.012752318,-0.062142834,1.0,3.5145817e-09,-1.1724501e-09,0.00012391566,2
14692828,0.9979356,0.010028626,-0.012751716,-0.062140334,1.0,3.5145817e-09,-1.1724501e-09,0.00012391566,2
14697821,0.99793583,0.010026374,-0.012752013,-0.062138114,1.0,3.5145817e-09,-1.1724501e-09,0.00012391566,2
14702827,0.9979357,0.010025152,-0.012756449,-0.062137533,1.0,3.5145817e-09,-1.1724501e-09,0.00012391566,2
14707820,0.99793565,0.010023474,-0.012759386,-0.062139552,1.0,3.5145817e-09,-1.1724501e-09,0.00012391566,2
14712819,0.99793535,0.0100242775,-0.01276073,-0.062142663,1.0,3.5145817e-09,-1.1724501e-09,0.00012391566,2
14717831,0.99793524,0.010033144,-0.012761948,-0.062142856,1.0,3.5145817e-09,-1.1724501e-09,0.00012391566,2
14722823,0.9979355,0.01003475,-0.012759958,-0.062139284,1.0,3.5145817e-09,-1.1724501e-09,0.00012391566,2
14727829,0.9979355,0.01004079,-0.012758801,-0.062138505,1.0,3.5145817e-09,-1.1724501e-09,0.00012391566,2
14732833,0.9979353,0.01004284,-0.01275808,-0.062141404,1.0,3.5145817e-09,-1.1724501e-09,0.00012391566,2
14737841,0.9979352,0.010036956,-0.012757754,-0.062144127,1.0,3.5145817e-09,-1.1724501e-09,0.00012391566,2
14742830,0.9979351,0.010039779,-0.012759803,-0.062144715,1.0,3.5145817e-09,-1.1724501e-09,0.00012391566,2
14777855,0.99793553,0.010045809,-0.012756032,-0.06213797,1.0,3.5145817e-09,-1.1724501e-09,0.00012391566,2
14782849,0.9979355,0.010044897,-0.012754887,-0.062139325,1.0,3.5145817e-09,-1.1724501e-09,0.00012391566,2
14787854,0.9979354,0.010041277,-0.0127564855,-0.06213894,1.0,3.5145817e-09,-1.1724501e-09,0.00012391566,2
14792853,0.9979354,0.010040538,-0.01275745,-0.06214047,1.0,3.5145817e-09,-1.1724501e-09,0.00012391566,2
14797855,0.9979356,0.010038752,-0.012756068,-0.06213726,1.0,3.5145817e-09,-1.1724501e-09,0.00012391566,2
14802857,0.99793553,0.010040314,-0.0127563495,-0.06213779,1.0,3.5145817e-09,-1.1724501e-09,0.00012391566,2
14812869,0.9979351,0.010047625,-0.012756428,-0.062143747,1.0,3.5145817e-09,-1.1724501e-09,0.00012391566,2
14817863,0.99793506,0.010051503,-0.01275858,-0.062144138,1.0,3.5145817e-09,-1.1724501e-09,0.00012391566,2
14822866,0.9979351,0.010055171,-0.0127616655,-0.06214291,1.0,3.5145817e-09,-1.1724501e-09,0.00012391566,2
14827883,0.9979352,0.010052251,-0.012764058,-0.06214125,1.0,3.5145817e-09,-1.1724501e-09,0.00012391566,2
14832872,0.997935,0.010049625,-0.012764481,-0.062144108,1.0,3.5145817e-09,-1.1724501e-09,0.00012391566,2
14862883,0.99793476,0.010050098,-0.01276529,-0.06214695,1.0,3.5145817e-09,-1.1724501e-09,0.00012391566,2
14867889,0.9979348,0.010052784,-0.012766106,-0.062145952,1.0,3.5145817e-09,-1.1724501e-09,0.00012391566,2
14872893,0.99793476,0.010059579,-0.012766296,-0.06214558,1.0,3.5145817e-09,-1.1724501e-09,0.00012391566,2
14877906,0.997935,0.010058628,-0.012764015,-0.062143564,1.0,3.5145817e-09,-1.1724501e-09,0.00012391566,2
14882899,0.9979348,0.0100569315,-0.012765656,-0.062144287,1.0,3.5145817e-09,-1.1724501e-09,0.00012391566,2
14887897,0.9979349,0.010050935,-0.012766571,-0.062144667,1.0,3.5145817e-09,-1.1724501e-09,0.00012391566,2
14907912,0.9979347,0.010057746,-0.012773133,-0.062146585,1.0,3.5145817e-09,-1.1724501e-09,0.00012391566,2
14912930,0.99793476,0.010058094,-0.012769458,-0.062146105,1.0,3.5145817e-09,-1.1724501e-09,0.00012391566,2
14917939,0.997935,0.010056782,-0.012768037,-0.062142607,1.0,3.5145817e-09,-1.1724501e-09,0.00012391566,2
14922909,0.99793494,0.010059769,-0.012770947,-0.06214204,1.0,3.5145817e-09,-1.1724501e-09,0.00012391566,2
14927917,0.9979348,0.010059412,-0.012772712,-0.062143624,1.0,3.5145817e-09,-1.1724501e-09,0.00012391566,2
14967932,0.99793535,0.010040392,-0.012775592,-0.062138647,1.0,3.5145817e-09,-1.1724501e-09,0.00012391566,2
14972930,0.99793535,0.010040775,-0.012774977,-0.062138356,1.0,3.5145817e-09,-1.1724501e-09,0.00012391566,2
14977941,0.9979353,0.010042475,-0.01277766,-0.06213806,1.0,3.5145817e-09,-1.1724501e-09,0.00012391566,2
14982934,0.9979351,0.01004729,-0.012778721,-0.062138002,1.0,3.5145817e-09,-1.1724501e-09,0.00012391566,2
14987938,0.99793524,0.010052671,-0.0127802035,-0.062137015,1.0,3.5145817e-09,-1.1724501e-09,0.00012391566,2
14992939,0.99793494,0.010057508,-0.012782906,-0.062139645,1.0,3.5145817e-09,-1.1724501e-09,0.00012391566,2
14997948,0.99793494,0.010062184,-0.012787752,-0.062138185,1.0,3.5145817e-09,-1.1724501e-09,0.00012391566,2
15007946,0.997935,0.010060197,-0.01279056,-0.06213677,1.0,3.5145817e-09,-1.1724501e-09,0.00012391566,2
15012950,0.99793524,0.01005664,-0.012790341,-0.06213354,1.0,3.5145817e-09,-1.1724501e-09,0.00012391566,2
15017950,0.99793524,0.010057007,-0.012789916,-0.062133573,1.0,3.5145817e-09,-1.1724501e-09,0.00012391566,2
15022952,0.9979353,0.010058096,-0.012790968,-0.062132988,1.0,3.5145817e-09,-1.1724501e-09,0.00012391566,2
15027954,0.9979351,0.010060866,-0.012791475,-0.062134057,1.0,3.5145817e-09,-1.1724501e-09,0.00012391566,2
15087982,0.9979348,0.010061642,-0.01279592,-0.062138442,1.0,3.5145817e-09,-1.1724501e-09,0.00012391566,2
15092982,0.9979348,0.010060946,-0.012795708,-0.062138524,1.0,3.5145817e-09,-1.1724501e-09,0.00012391566,2
15097984,0.9979347,0.010060838,-0.012796735,-0.062140316,1.0,3.5145817e-09,-1.1724501e-09,0.00012391566,2
15102980,0.99793464,0.01005776,-0.0127994595,-0.06214025,1.0,3.5145817e-09,-1.1724501e-09,0.00012391566,2
15107998,0.9979345,0.01005929,-0.012797549,-0.06214223,1.0,3.5145817e-09,-1.1724501e-09,0.00012391566,2
15112997,0.99793464,0.010057803,-0.012798371,-0.062142286,1.0,3.5145817e-09,-1.1724501e-09,0.00012391566,2
15128010,0.9979346,0.010050321,-0.012803274,-0.06214314,1.0,3.5145817e-09,-1.1724501e-09,0.00012391566,2
15132999,0.9979344,0.010053899,-0.012805987,-0.062144056,1.0,3.5145817e-09,-1.1724501e-09,0.00012391566,2
15138010,0.9979344,0.010051309,-0.012805338,-0.062144496,1.0,3.5145817e-09,-1.1724501e-09,0.00012391566,2
15143007,0.99793464,0.010046252,-0.012807692,-0.0621408,1.0,3.5145817e-09,-1.1724501e-09,0.00012391566,2
15148006,0.9979346,0.010049562,-0.012814341,-0.062140048,1.0,3.5145817e-09,-1.1724501e-09,0.00012391566,2
15173030,0.9979346,0.010045847,-0.012808588,-0.06214281,1.0,3.5145817e-09,-1.1724501e-09,0.00012391566,2
15178025,0.9979345,0.010048193,-0.012808619,-0.062141918,1.0,3.5145817e-09,-1.1724501e-09,0.00012391566,2
15183024,0.99793464,0.01005164,-0.012811592,-0.062139846,1.0,3.5145817e-09,-1.1724501e-09,0.00012391566,2
15188030,0.99793464,0.010053559,-0.012812295,-0.06213968,1.0,3.5145817e-09,-1.1724501e-09,0.00012391566,2
15193025,0.9979345,0.010057016,-0.012812337,-0.062140446,1.0,3.5145817e-09,-1.1724501e-09,0.00012391566,2
15198039,0.99793464,0.01005335,-0.012812725,-0.06213922,1.0,3.5145817e-09,-1.1724501e-09,0.00012391566,2
15208031,0.99793476,0.010052661,-0.012813424,-0.062137734,1.0,3.5145817e-09,-1.1724501e-09,0.00012391566,2
15213054,0.9979347,0.010054793,-0.012810233,-0.062137987,1.0,3.5145817e-09,-1.1724501e-09,0.00012391566,2
15218051,0.99793476,0.010053073,-0.012809811,-0.062136933,1.0,3.5145817e-09,-1.1724501e-09,0.00012391566,2
15223042,0.9979347,0.010055933,-0.012808871,-0.062137477,1.0,3.5145817e-09,-1.1724501e-09,0.00012391566,2
15228053,0.99793464,0.010059531,-0.012810949,-0.06213897,1.0,3.5145817e-09,-1.1724501e-09,0.00012391566,2
15253051,0.9979344,0.010058092,-0.012811179,-0.0621417,1.0,3.5145817e-09,-1.1724501e-09,0.00012391566,2
15258053,0.99793446,0.010055483,-0.012810222,-0.062142637,1.0,3.5145817e-09,-1.1724501e-09,0.00012391566,2
15263059,0.99793446,0.010056231,-0.012808976,-0.062142484,1.0,3.5145817e-09,-1.1724501e-09,0.00012391566,2
15268058,0.99793446,0.010054026,-0.012809165,-0.062142972,1.0,3.5145817e-09,-1.1724501e-09,0.00012391566,2
15273094,0.99793434,0.010055047,-0.012806134,-0.062144227,1.0,3.5145817e-09,-1.1724501e-09,0.00012391566,2
15278061,0.99793446,0.010055243,-0.0128042195,-0.062144343,1.0,3.5145817e-09,-1.1724501e-09,0.00012391566,2
15293068,0.9979341,0.010078493,-0.01281119,-0.062144354,1.0,3.5145817e-09,-1.1724501e-09,0.00012391566,2
15298077,0.997934,0.010075633,-0.012813344,-0.062145572,1.0,3.5145817e-09,-1.1724501e-09,0.00012391566,2
15303076,0.99793416,0.01006493,-0.01281411,-0.06214432,1.0,3.5145817e-09,-1.1724501e-09,0.00012391566,2
15308075,0.99793434,0.010057965,-0.012814179,-0.06214266,1.0,3.5145817e-09,-1.1724501e-09,0.00012391566,2
15313079,0.99793434,0.010062836,-0.012813677,-0.06214162,1.0,3.5145817e-09,-1.1724501e-09,0.00012391566,2
15338095,0.997934,0.01007196,-0.0128205065,-0.062144723,1.0,3.5145817e-09,-1.1724501e-09,0.00012391566,2
15343093,0.9979339,0.010074728,-0.012820291,-0.062145524,1.0,3.5145817e-09,-1.1724501e-09,0.00012391566,2
15348107,0.997934,0.010068432,-0.012818637,-0.062145557,1.0,3.5145817e-09,-1.1724501e-09,0.00012391566,2
15353094,0.9979339,0.010062675,-0.012816812,-0.062147543,1.0,3.5145817e-09,-1.1724501e-09,0.00012391566,2
15358130,0.9979337,0.010064737,-0.012818393,-0.062151074,1.0,3.5145817e-09,-1.1724501e-09,0.00012391566,2
15363102,0.99793327,0.010073707,-0.012820302,-0.06215531,1.0,3.5145817e-09,-1.1724501e-09,0.00012391566,2
15368100,0.9979333,0.010081543,-0.012819696,-0.06215497,1.0,3.5145817e-09,-1.1724501e-09,0.00012391566,2
