timestamp,gyro_rad[0],gyro_rad[1],gyro_rad[2],gyro_integral_dt,accelerometer_timestamp_relative,accelerometer_m_s2[0],accelerometer_m_s2[1],accelerometer_m_s2[2],accelerometer_integral_dt,accelerometer_clipping
2952880,-0.0015858962,0.0053743045,-0.0025640065,5003,0,-0.18941694,-0.26607117,-9.751471,5003,0
2957881,-0.0030293975,0.0045945705,-0.0023988346,5001,0,-0.22279972,-0.24827315,-9.743293,5001,0
3017902,-0.00023683753,0.004291784,-0.0017799311,5002,0,-0.23182188,-0.18858762,-9.736881,5002,0
3022907,0.00048162937,0.0043982156,-9.845672e-05,5005,0,-0.23964386,-0.19736102,-9.725623,5005,0
3027908,0.0013319501,0.0047977963,-0.00217772,5001,0,-0.20853639,-0.23330045,-9.731146,5001,0
3032908,1.0635681e-05,0.003817708,-0.0024982125,5000,0,-0.23330285,-0.22396682,-9.807763,5000,0
3037912,0.0018349593,0.0041308487,-0.0029915953,5004,0,-0.21077344,-0.20347416,-9.771591,5004,0
3042916,-0.0034997095,0.004182388,-0.0033331506,5004,0,-0.21739006,-0.22899064,-9.759166,5004,0
3047969,-0.0034373454,0.003451962,-0.0022298417,5053,0,-0.19843546,-0.21505007,-9.752193,5053,0
3052917,-0.0005635188,0.005918795,-0.002775344,4948,0,-0.23166175,-0.19741946,-9.742162,4948,0
3057921,-0.0010534892,0.005822283,-0.0028505994,5004,0,-0.23972373,-0.2363105,-9.719497,5004,0
3062921,0.0028704812,0.0053473986,-0.0005142151,5000,0,-0.2629214,-0.23415221,-9.722619,5000,0
3067918,-0.0010357061,0.004757525,-0.0013922042,4997,0,-0.23497991,-0.22956142,-9.746666,4997,0
3072930,0.0011071945,0.0040481347,-0.0006722732,5012,0,-0.24920183,-0.20851526,-9.778145,5012,0
3077927,-0.0007390133,0.0041682017,-0.00052100985,4997,0,-0.24496956,-0.1884724,-9.761462,4997,0
3082934,-0.0009171684,0.004448234,-0.0020539556,5007,0,-0.22069497,-0.20829508,-9.721473,5007,0
3087933,-0.00096124294,0.00322996,-0.0014172477,4999,0,-0.18329255,-0.21521865,-9.742384,4999,0
3092943,-0.0007542837,0.0046646683,-0.0018652048,5010,0,-0.20164208,-0.19495691,-9.753929,5010,0
3097935,0.00069932215,0.005564477,-0.0005744493,4992,0,-0.2190758,-0.18433225,-9.781342,4992,0
3102937,-0.0016165774,0.0028381532,-0.0014284933,5002,0,-0.27333513,-0.18433122,-9.757058,5002,0
3107943,0.00042132672,0.0034983514,-0.0018535574,5006,0,-0.2668183,-0.1820426,-9.778906,5006,0
3112947,0.0008333699,0.004953513,-0.001956576,5004,0,-0.2584573,-0.21595275,-9.754621,5004,0
3117943,-0.00040294748,0.0043754545,-0.0015937147,4996,0,-0.23078915,-0.21245468,-9.776414,4996,0
3122945,-0.00025920302,0.005797864,-8.758885e-05,5002,0,-0.22709654,-0.23594518,-9.799294,5002,0
3127947,0.0019925702,0.0040527084,-0.00072317716,5002,0,-0.23026946,-0.24428223,-9.769462,5002,0
3132957,0.00013235964,0.0055384333,-0.001031473,5010,0,-0.20707323,-0.22798938,-9.742452,5010,0
3147955,7.646441e-05,0.0056037502,-0.0032994645,4994,0,-0.24781509,-0.21526907,-9.779261,4994,0
3152991,-0.0003403452,0.004863978,-0.0020106644,5036,0,-0.23448224,-0.18224455,-9.755266,5036,0
3157957,0.0014643645,0.0050474075,-0.0017631282,4966,0,-0.22558329,-0.2044396,-9.745378,4966,0
3162958,0.00012725536,0.004282243,-0.0009841152,5001,0,-0.23820953,-0.20448339,-9.695148,5001,0
3167963,-0.001520831,0.004268027,-0.0011126606,5005,0,-0.2232977,-0.20122385,-9.717381,5005,0
3172968,-0.00013585096,0.0042058206,-0.0013478814,5005,0,-0.22439401,-0.2013154,-9.743687,5005,0
3177974,-0.0013205869,0.005507538,-0.0013039855,5006,0,-0.24441327,-0.22564398,-9.772475,5006,0
3182978,-0.0016559175,0.005344045,-0.00200257,5004,0,-0.2257936,-0.18808724,-9.761427,5004,0
3188002,-0.000407479,0.0054644994,-0.001046093,5024,0,-0.23406368,-0.18852118,-9.774079,5024,0
3192999,0.0004002026,0.0043324945,-0.0007305916,4997,0,-0.25947714,-0.20766282,-9.737752,4997,0
3197997,-0.0010818689,0.0040353667,-0.0011126244,4998,0,-0.2619739,-0.17569602,-9.745517,4998,0
3203002,-0.0009449475,0.005063362,-0.0022980666,5005,0,-0.26550373,-0.17697258,-9.745992,5005,0
3208007,0.00034351277,0.0039151944,-0.0014014018,5005,0,-0.25246382,-0.19632773,-9.770239,5005,0
3213012,0.00029932128,0.0046568224,-0.00091334013,5005,0,-0.21065335,-0.2086819,-9.755401,5005,0
3218017,0.0023066213,0.0048763794,-0.00086739653,5005,0,-0.21308437,-0.20815055,-9.731448,5005,0
3223033,-0.000286226,0.004939407,-0.002151837,5016,0,-0.22156505,-0.22340094,-9.73546,5016,0
3227996,0.0015268895,0.005134159,-0.0018175774,4963,0,-0.20816208,-0.20612854,-9.772054,4963,0
3232997,0.0025528413,0.004441193,-0.0012764583,5001,0,-0.21559,-0.21522343,-9.727613,5001,0
3238004,-0.00031992953,0.003550561,-0.0025171607,5007,0,-0.23318157,-0.23235093,-9.753067,5007,0
3278012,-0.00031262485,0.0044265976,-0.0025744345,5005,0,-0.22687674,-0.20372114,-9.768204,5005,0
3283015,-0.00034728955,0.003959919,-0.002762234,5003,0,-0.21474221,-0.2171337,-9.768955,5003,0
3288013,0.00016080539,0.0056856293,-0.002144006,4998,0,-0.23904659,-0.20825993,-9.776465,4998,0
3293015,-0.00024402887,0.004699339,-0.0018278207,5002,0,-0.2130342,-0.2027025,-9.765076,5002,0
3298017,-0.0006722964,0.0036035548,-0.0023603165,5002,0,-0.24287705,-0.20952165,-9.763497,5002,0
3303023,-0.00054542004,0.0043867966,-0.0022798409,5006,0,-0.24312381,-0.20854014,-9.749356,5006,0
3313023,0.0018912312,0.0035812831,-0.00068317686,5002,0,-0.2288417,-0.16873868,-9.711217,5002,0
3318025,0.0013588782,0.0031758114,-0.0022435135,5002,0,-0.23560685,-0.1940529,-9.787129,5002,0
3323038,0.00015217182,0.003849555,-0.002227064,5013,0,-0.23452152,-0.21168639,-9.736533,5013,0
3328029,-0.0018585616,0.0038019603,-0.0028768186,4991,0,-0.24003322,-0.20759538,-9.774545,4991,0
3333031,3.5303834e-05,0.005131969,-0.0016610781,5002,0,-0.23138383,-0.2186947,-9.773133,5002,0
3338033,0.0033555848,0.0046130554,-0.00070530537,5002,0,-0.23005553,-0.24028036,-9.766853,5002,0
3343039,0.0035543852,0.004108312,-0.0009853664,5006,0,-0.20133509,-0.21750224,-9.751989,5006,0
3348037,-0.0005067637,0.0056612226,-0.0027129888,4998,0,-0.21475306,-0.21090072,-9.772829,4998,0
3353039,-0.0017622837,0.005009669,-0.002055142,5002,0,-0.22306377,-0.25585172,-9.786456,5002,0
3358042,-0.0031621975,0.0034690336,-0.0016839178,5003,0,-0.22060463,-0.24185632,-9.750069,5003,0
3363047,-0.003090064,0.0038248743,-0.0010527974,5005,0,-0.23853825,-0.21976894,-9.748433,5005,0
3368045,-0.0016340306,0.0040190313,-0.0013781076,4998,0,-0.263002,-0.21824658,-9.757426,4998,0
3373048,0.0009099601,0.0033388613,-0.0012090583,5003,0,-0.25283575,-0.19576296,-9.71332,5003,0
3378050,0.003004095,0.0024365943,-0.00191224,5002,0,-0.2633532,-0.19265343,-9.765453,5002,0
3383056,0.0014187142,0.0046814755,-0.0021000616,5006,0,-0.27504167,-0.21755302,-9.771727,5006,0
3388054,0.0016444079,0.0045639,-0.0022371113,4998,0,-0.25423396,-0.21867493,-9.762308,4998,0
3393056,0.0012868324,0.004468967,-0.0022152301,5002,0,-0.24080057,-0.23597069,-9.769315,5002,0
3398058,-0.0014420627,0.0048326747,-0.0014941664,5002,0,-0.2596048,-0.21284342,-9.792991,5002,0
3403064,-0.0017444766,0.0043471176,-0.00066108734,5006,0,-0.25035304,-0.21285583,-9.766748,5006,0
3408080,-0.0025045213,0.004039271,-0.0010184825,5016,0,-0.2342601,-0.2289972,-9.773662,5016,0
3413064,-0.00059797545,0.005317577,-0.0013240371,4984,0,-0.23291822,-0.22395279,-9.755125,4984,0
3418066,-0.000686261,0.0048889844,-0.0025403134,5002,0,-0.22800085,-0.22043581,-9.750198,5002,0
3423072,0.00031244796,0.0042425916,-0.0017788894,5006,0,-0.23885335,-0.22794262,-9.716908,5006,0
3428070,0.00050261756,0.004428693,-0.0015995322,4998,0,-0.25502047,-0.19817612,-9.739984,4998,0
3433072,0.0018793388,0.005213872,-0.0019507768,5002,0,-0.23612598,-0.22293632,-9.767064,5002,0
3438076,-2.8829458e-05,0.005459012,-0.0018276109,5004,0,-0.2519325,-0.24140872,-9.743123,5004,0
3443080,-0.0009444358,0.0045024925,-0.0015265569,5004,0,-0.22688003,-0.20248166,-9.7871275,5004,0
3483099,0.0018465845,0.003634744,-0.00051968783,5008,0,-0.2542053,-0.20212485,-9.753983,5008,0
3488095,0.001939871,0.0042218985,-0.001770014,4996,0,-0.23504584,-0.2102107,-9.743936,4996,0
3493124,0.001426979,0.0031852068,-0.0018576819,5029,0,-0.26264817,-0.20642726,-9.729832,5029,0
3498101,0.00030269555,0.0032147933,-0.0028934956,4977,0,-0.23626019,-0.19492799,-9.7797365,4977,0
3503102,-0.0029819799,0.0060018464,-0.002211211,5001,0,-0.2335107,-0.1930254,-9.760115,5001,0
3508103,-0.00118815,0.0045012357,-0.0014565614,5001,0,-0.2428401,-0.20003164,-9.80639,5001,0
3513105,0.0014401088,0.0037298978,-0.001900463,5002,0,-0.2521291,-0.22991341,-9.7884035,5002,0
3518107,-0.00040252367,0.004793168,-0.0014845298,5002,0,-0.2237749,-0.19566841,-9.763756,5002,0
3523109,0.0010307383,0.0043261657,-0.0008780461,5002,0,-0.2341549,-0.2135475,-9.745089,5002,0
3528111,0.00081129343,0.004609493,-0.00094843196,5002,0,-0.2291566,-0.21514371,-9.738496,5002,0
3533114,0.00019824812,0.0044016037,-0.0014439957,5003,0,-0.23895907,-0.22363876,-9.7385025,5003,0
3538117,-0.0019108709,0.0027786577,-0.000429582,5003,0,-0.25157157,-0.23827203,-9.744428,5003,0
3543120,-0.0005482988,0.0030930482,-0.0013395373,5003,0,-0.2281478,-0.21623947,-9.762005,5003,0
3548119,-0.001392009,0.004196318,-0.0017008818,4999,0,-0.21465433,-0.21314001,-9.75475,4999,0
3553122,-0.0012287224,0.0033669265,-0.0016484965,5003,0,-0.2135142,-0.20476328,-9.735567,5003,0
3558124,-0.0019316818,0.0028571582,-0.00092466857,5002,0,-0.23440509,-0.18881059,-9.759507,5002,0
3563126,-0.002072014,0.0036531158,-0.002437026,5002,0,-0.23740971,-0.1967634,-9.739734,5002,0
3573130,0.0014745203,0.0044749645,-0.0016118228,5002,0,-0.23277667,-0.20454863,-9.77576,5002,0
3578139,-0.0016407392,0.0035492198,-0.0014278285,5009,0,-0.24719508,-0.18135083,-9.748039,5009,0
3583134,-0.0009810217,0.003741636,-0.0012918093,4995,0,-0.2360945,-0.18153307,-9.733323,4995,0
3588136,-0.002422577,0.0044973665,-0.00217737,5002,0,-0.22677469,-0.1895711,-9.741917,5002,0
3593138,0.00036980628,0.006110646,-0.0013691848,5002,0,-0.22455919,-0.16919735,-9.760458,5002,0
3633166,-0.00076576194,0.0053890874,-0.0026124844,5014,0,-0.20788333,-0.19617695,-9.724035,5014,0
3638159,-0.0009090537,0.003695307,-0.0015892257,4993,0,-0.23104492,-0.19867927,-9.707319,4993,0
3643159,-0.0020872199,0.004029531,-0.0015591171,5000,0,-0.24001363,-0.18616797,-9.784709,5000,0
3648161,-0.0025397066,0.004200014,-0.0014781468,5002,0,-0.22988996,-0.22368473,-9.775461,5002,0
3683180,-0.0021348726,0.0043755295,-0.0014335566,4996,0,-0.2284183,-0.20455241,-9.753976,4996,0
3688178,0.0015997704,0.0049270983,-0.0017598071,4998,0,-0.22688939,-0.18318821,-9.74656,4998,0
3693179,-0.0010450163,0.0046645408,-0.0007368789,5001,0,-0.24503784,-0.17489125,-9.755856,5001,0
3698203,-4.9718088e-05,0.003198966,-0.0016416202,5024,0,-0.2272343,-0.20841524,-9.753861,5024,0
3703183,-0.00050491665,0.0029961532,-0.002708862,4980,0,-0.2351186,-0.2145328,-9.745041,4980,0
3708217,0.0005265547,0.0040041874,-0.0023610594,5034,0,-0.23228145,-0.18551996,-9.747601,5034,0
3713187,-0.00034280284,0.004366648,-0.0028669594,4970,0,-0.24154441,-0.21783647,-9.740006,4970,0
3718202,0.0007019571,0.00452827,-0.001778153,5015,0,-0.22698234,-0.20880318,-9.772677,5015,0
3723192,-0.00017444274,0.0044076815,-0.0014624094,4990,0,-0.22467187,-0.20881139,-9.744972,4990,0
3728194,-0.00050331315,0.0040508797,-0.0017194386,5002,0,-0.23552616,-0.21621223,-9.766162,5002,0
3733196,0.00023846228,0.003741758,-0.002729247,5002,0,-0.20857257,-0.19881625,-9.743653,5002,0
3738201,-0.00088225503,0.0059196344,-0.002764733,5005,0,-0.21899109,-0.19705434,-9.757278,5005,0
3743206,0.0003735919,0.0045081233,-0.002569161,5005,0,-0.2446694,-0.20401064,-9.760119,5005,0
3748202,1.3299315e-06,0.0048798206,-0.0005168183,4996,0,-0.24668667,-0.19633605,-9.743795,4996,0
3753204,2.9263956e-05,0.003540279,-0.0016469745,5002,0,-0.23849149,-0.20835572,-9.761995,5002,0
3758210,-0.00019401113,0.004650272,-0.0010663364,5006,0,-0.22840302,-0.2161995,-9.746663,5006,0
3763208,-0.0005091298,0.005439633,-0.0014510689,4998,0,-0.22219902,-0.22998017,-9.730224,4998,0
3768230,-0.0006271332,0.0041968646,-0.0010988908,5022,0,-0.23762652,-0.20369647,-9.698232,5022,0
3773212,-0.0006654779,0.004800294,-0.0008949454,4982,0,-0.22070865,-0.20692031,-9.762848,4982,0
3778218,0.0004478863,0.0036191188,-0.0003990957,5006,0,-0.22535455,-0.19845082,-9.78964,5006,0
3783216,0.0011614193,0.004232572,-0.0012656068,4998,0,-0.2572429,-0.17961368,-9.772461,4998,0
3788218,6.555218e-05,0.0042191497,-0.0010970726,5002,0,-0.2665882,-0.20137234,-9.772034,5002,0
3793221,0.00032228144,0.0031069806,-0.0014394965,5003,0,-0.22089943,-0.18260328,-9.746425,5003,0
3798233,0.0016718702,0.00537462,-0.0014675799,5012,0,-0.23487708,-0.18933448,-9.763812,5012,0
3803226,-0.00057066843,0.004983612,-0.0020317468,4993,0,-0.2753962,-0.2267583,-9.755229,4993,0
3808233,0.00028737998,0.004299524,-0.0013725202,5007,0,-0.23944224,-0.21615636,-9.763898,5007,0
3813232,-0.00217169,0.0050727474,-0.0020421026,4999,0,-0.24426922,-0.23287512,-9.729696,4999,0
3818246,-0.00048183464,0.004949154,-0.0010183019,5014,0,-0.22275092,-0.2155015,-9.7776375,5014,0
3823237,-0.00029849043,0.004092349,-0.0026707433,4991,0,-0.2299126,-0.18227926,-9.769241,4991,0
3828244,0.00026441153,0.0048850174,-0.0028102105,5007,0,-0.22026259,-0.19902724,-9.797738,5007,0
3833250,-0.00011389271,0.003078093,-0.0024387925,5006,0,-0.2148245,-0.22640361,-9.725981,5006,0
3838248,0.0021917205,0.0038906203,-0.0020230666,4998,0,-0.25658217,-0.22160332,-9.706768,4998,0
3843250,0.0005968923,0.00386336,-0.0010894337,5002,0,-0.22496793,-0.19911139,-9.737869,5002,0
3848243,-0.00045320106,0.004819641,-0.0010056224,4993,0,-0.23199461,-0.19000001,-9.754797,4993,0
3853259,-0.0012731394,0.0041382415,-0.0012007903,5016,0,-0.2545946,-0.19984473,-9.730142,5016,0
3858251,-0.003068255,0.003951561,-0.0021519486,4992,0,-0.23093395,-0.21409827,-9.787215,4992,0
3863251,-0.001807149,0.0035276124,-0.0016379519,5000,0,-0.2344862,-0.19740765,-9.79634,5000,0
3868254,-0.00023228902,0.0030728136,-0.00055389834,5003,0,-0.22482884,-0.23649503,-9.778551,5003,0
3873258,-0.00017673873,0.0038823208,-0.0019272236,5004,0,-0.22773115,-0.2377224,-9.783004,5004,0
3878259,0.000248378,0.0047308393,-0.0018633672,5001,0,-0.22719318,-0.18678859,-9.770751,5001,0
3883269,-4.130079e-05,0.004055236,-0.0008033103,5010,0,-0.23455389,-0.18480325,-9.7732725,5010,0
3888262,-0.0012603384,0.00499258,-0.001202022,4993,0,-0.23805866,-0.22065677,-9.80535,4993,0
3893277,-0.001763491,0.004256872,-0.0018450173,5015,0,-0.24721786,-0.20822936,-9.746886,5015,0
3898267,-0.00046465293,0.0048660203,-0.0007182409,4990,0,-0.22152403,-0.20100254,-9.73144,4990,0
3903266,-0.0014157288,0.0051364773,-0.0018752873,4999,0,-0.21872322,-0.20277749,-9.719029,4999,0
3948307,-0.00016375097,0.0036909557,-0.0018789038,5018,0,-0.23551211,-0.16578022,-9.761801,5018,0
3953292,-0.0009866764,0.0042197113,-0.00086466066,4985,0,-0.2418719,-0.21032935,-9.757935,4985,0
3958287,-0.00021923424,0.0036822653,-3.8678645e-05,4995,0,-0.2513525,-0.22659779,-9.767056,4995,0
3963304,0.00030810677,0.004453247,-8.718276e-05,5017,0,-0.22934312,-0.1877416,-9.712665,5017,0
4008311,-0.0009165329,0.0044133626,-0.00020736111,5004,0,-0.20958368,-0.18190575,-9.725489,5004,0
4013314,0.00033158466,0.004586031,-0.00093630643,5003,0,-0.2254422,-0.20101447,-9.733371,5003,0
4018317,0.00047982656,0.0040039974,-0.0022016382,5003,0,-0.24459691,-0.18950275,-9.744799,5003,0
4023339,0.0001518723,0.003997732,-0.0013689653,5022,0,-0.23745087,-0.19895339,-9.730607,5022,0
4028324,0.0016392979,0.004161684,-0.00341245,4985,0,-0.23507513,-0.23972239,-9.753467,4985,0
4033322,0.00053518364,0.004685181,-0.0018213971,4998,0,-0.24741471,-0.21458465,-9.756256,4998,0
4038324,-0.00013319332,0.0046834117,-0.00076110347,5002,0,-0.21145326,-0.2134075,-9.768243,5002,0
4043332,-0.0016847426,0.003197171,-0.002173083,5008,0,-0.22428586,-0.20646678,-9.766604,5008,0
4048328,-0.002243121,0.0047190525,-0.0023069084,4996,0,-0.21633707,-0.22016327,-9.746054,4996,0
4053328,-0.0013276697,0.0037651963,-0.001364652,5000,0,-0.22940962,-0.20705205,-9.75456,5000,0
4058332,-0.0010913276,0.003780445,-0.0022787156,5004,0,-0.24517745,-0.21356031,-9.742997,5004,0
4063340,-0.001678568,0.003704692,-0.0026529527,5008,0,-0.23943222,-0.21659282,-9.722558,5008,0
4068334,0.00013879732,0.004534234,-0.0009891595,4994,0,-0.26571465,-0.20884117,-9.775752,4994,0
4073338,0.00032628348,0.0042520235,-0.0007314152,5004,0,-0.23865168,-0.19779973,-9.769017,5004,0
4078341,0.00076365075,0.004545088,-0.001390776,5003,0,-0.24084692,-0.18261413,-9.756248,5003,0
4083342,0.0011439029,0.0035305195,-0.0010847236,5001,0,-0.2513711,-0.19580764,-9.745301,5001,0
4098349,0.0008263129,0.00493171,-0.0015163653,5002,0,-0.2282833,-0.20239048,-9.804428,5002,0
4103348,-0.0013239079,0.0030977698,-0.002189765,4999,0,-0.22738786,-0.22761402,-9.771694,4999,0
4108353,-0.0023863395,0.0039569647,-0.001382289,5005,0,-0.21224675,-0.23200078,-9.766871,5005,0
4113355,-0.003751643,0.006095166,0.0001866989,5002,0,-0.23897277,-0.24343707,-9.782712,5002,0
4118357,-0.003110518,0.005159222,-0.0010096309,5002,0,-0.22315097,-0.220421,-9.730881,5002,0
4123359,-0.0031451192,0.004424812,-0.0013585695,5002,0,-0.23319241,-0.26283917,-9.729062,5002,0
4128380,-0.0029244244,0.0051794085,-0.0020291111,5021,0,-0.24286327,-0.20960325,-9.719288,5021,0
4133363,-0.0041355146,0.003581245,-0.0011131773,4983,0,-0.22030805,-0.22233392,-9.690514,4983,0
4138364,0.00011708418,0.0045245066,-0.0012156882,5001,0,-0.22706242,-0.20227757,-9.68782,5001,0
4143368,0.0020147522,0.0041714786,-0.001221918,5004,0,-0.23016718,-0.17978282,-9.743976,5004,0
4163376,0.00029724094,0.0050964644,-0.001718494,5002,0,-0.26430073,-0.15997358,-9.799793,5002,0
4168378,-0.00018231236,0.004150537,0.00036063418,5002,0,-0.23318875,-0.15366286,-9.753747,5002,0
4173388,-0.000562577,0.0041667195,-0.0021301114,5010,0,-0.23658256,-0.17459948,-9.735825,5010,0
4178383,0.00086759246,0.003824119,-0.0018687798,4995,0,-0.21705623,-0.21409112,-9.751092,4995,0
4183384,0.0024393746,0.0035824664,-0.0014854927,5001,0,-0.214747,-0.22819367,-9.789128,5001,0
4188383,0.0020702903,0.003070849,-0.00077582465,4999,0,-0.22706114,-0.21239215,-9.763235,4999,0
4193404,0.0007411481,0.0046737827,-0.0019526511,5021,0,-0.23363294,-0.20017523,-9.741468,5021,0
4198389,0.0002151711,0.00343469,-0.0024352102,4985,0,-0.21655172,-0.23511949,-9.803222,4985,0
4203392,-0.0009951522,0.0051367567,-0.0017098835,5003,0,-0.22011009,-0.2632693,-9.768073,5003,0
4208394,-0.00089369016,0.004032881,-0.001017619,5002,0,-0.22468883,-0.22690012,-9.742711,5002,0
4213440,-0.0005793009,0.003956422,-0.0018222916,5046,0,-0.22959934,-0.20410359,-9.719645,5046,0
4218406,0.0010719728,0.00395271,-0.0014162203,4966,0,-0.23485467,-0.23525788,-9.721229,4966,0
4223401,-0.0007071779,0.003387032,-0.0008178801,4995,0,-0.23355612,-0.24216871,-9.7137165,4995,0
4228403,0.0008204817,0.004244881,-0.0020128356,5002,0,-0.25423357,-0.23429038,-9.766619,5002,0
4233415,0.00074451754,0.004406246,-0.0012266296,5012,0,-0.2546501,-0.23907009,-9.785367,5012,0
4238407,-0.00092834915,0.00355395,-0.0015974372,4992,0,-0.21446303,-0.23435101,-9.747285,4992,0
4243408,-0.001107855,0.0023575411,-0.003006207,5001,0,-0.23815995,-0.20826003,-9.749821,5001,0
4248411,-6.996222e-06,0.003751597,-0.002488608,5003,0,-0.24879925,-0.20433734,-9.777757,5003,0
4253414,-0.0011793774,0.003687922,-0.0009950891,5003,0,-0.24070336,-0.22869606,-9.76875,5003,0
4308435,0.0012365546,0.0037268058,-0.00070005737,4995,0,-0.24545285,-0.26184702,-9.757812,4995,0
4313488,-0.0006567579,0.0037592857,-0.00069462805,5053,0,-0.23792537,-0.23881134,-9.753078,5053,0
4318469,-0.0016530817,0.0035577905,-0.00012903158,4981,0,-0.22677545,-0.22306645,-9.749893,4981,0
4323442,-0.0012116372,0.004893913,-0.0015830599,4973,0,-0.23595105,-0.21554789,-9.778275,4973,0
4328441,-0.0010694733,0.0033254856,-0.0018402212,4999,0,-0.25029618,-0.20289247,-9.752899,4999,0
4333451,0.00025888812,0.003532515,-0.0012215208,5010,0,-0.23794769,-0.19530118,-9.773858,5010,0
4338454,0.0006845905,0.0045360536,-0.0010917259,5003,0,-0.25911847,-0.2186027,-9.741574,5003,0
4343450,0.0007264114,0.004589881,-0.0020397964,4996,0,-0.23128091,-0.21384314,-9.757609,4996,0
4348455,-0.00050930394,0.0055321245,-0.0015016835,5005,0,-0.21089895,-0.2118974,-9.753551,5005,0
4353466,-0.00037401126,0.0047990377,-0.0014531517,5011,0,-0.22460891,-0.1960836,-9.74791,5011,0
4358459,0.0010790572,0.0049156663,-0.001497153,4993,0,-0.22952282,-0.17095649,-9.749876,4993,0
4363459,-0.00059667625,0.0037792227,-0.001808005,5000,0,-0.25968254,-0.16275729,-9.75406,5000,0
4368452,-0.0013704067,0.0037291907,-0.0023762963,4993,0,-0.2635076,-0.21026662,-9.762421,4993,0
4388473,0.00032999727,0.0036524893,-0.0015199258,5006,0,-0.24030969,-0.22422561,-9.716377,5006,0
4393495,-0.000508805,0.0036653166,-0.0015497428,5022,0,-0.23773931,-0.22162293,-9.770613,5022,0
4398478,-0.0008269097,0.004726587,-0.0009997583,4983,0,-0.23556823,-0.23435672,-9.747338,4983,0
4403511,-0.0008667636,0.004253734,-0.0029337152,5033,0,-0.23240389,-0.23218341,-9.730318,5033,0
4408489,-0.00013293173,0.0028891463,-0.00094516436,4978,0,-0.21344374,-0.21970578,-9.780217,4978,0
4413506,-4.5404537e-05,0.0056460667,-0.002127821,5017,0,-0.23129821,-0.24635397,-9.754678,5017,0
4418498,-0.0023357735,0.004111124,-0.0017531401,4992,0,-0.25370643,-0.22350709,-9.743044,4992,0
4423509,-0.0021607752,0.0038358702,-0.002467305,5011,0,-0.25487712,-0.21534587,-9.752962,5011,0
4428512,-0.00091676,0.0045901127,-0.0021162506,5003,0,-0.22690165,-0.24420004,-9.773293,5003,0
4433520,-0.0010546427,0.0038966287,-0.0009907802,5008,0,-0.23242551,-0.2132224,-9.73149,5008,0
4438528,-0.0010841648,0.0026426727,-0.0015706854,5008,0,-0.24402358,-0.20502228,-9.740463,5008,0
4443498,-0.0021962726,0.0050775567,-0.0009054148,4970,0,-0.22492586,-0.20142563,-9.756902,4970,0
4448498,-0.0017030503,0.003960433,-0.000666208,5000,0,-0.21592797,-0.19536586,-9.814256,5000,0
4453512,-0.00056066463,0.0044566207,-0.0010971262,5014,0,-0.24649982,-0.17249031,-9.8029785,5014,0
4483505,0.0004158084,0.0047077257,-0.0016494278,4985,0,-0.25814286,-0.20434569,-9.748635,4985,0
4488530,0.0011215451,0.0029632042,-0.0012085827,5025,0,-0.2275997,-0.23334359,-9.729489,5025,0
4493512,7.6711294e-05,0.0045696693,-0.0019349412,4982,0,-0.22920296,-0.22415975,-9.731915,4982,0
4498526,-0.00038973286,0.004782351,0.00034806944,5014,0,-0.21015273,-0.22579215,-9.716488,5014,0
4503516,-0.0007975277,0.0051928964,-0.001959395,4990,0,-0.2324388,-0.22249338,-9.715892,4990,0
4508516,0.001835469,0.003552168,-0.0012287032,5000,0,-0.2492328,-0.22984701,-9.810574,5000,0
4513532,0.0016558032,0.004213966,-0.00078564073,5016,0,-0.23969817,-0.18986586,-9.800268,5016,0
4518520,0.00067756965,0.00460984,-0.0022406254,4988,0,-0.26024732,-0.22134219,-9.731356,4988,0
4523522,-0.00028689974,0.0057606874,-0.0025715907,5002,0,-0.23726024,-0.20324433,-9.751663,5002,0
4528526,-0.0016193418,0.0039815996,-0.0011261685,5004,0,-0.24345985,-0.1964004,-9.759736,5004,0
4533526,-0.0011595773,0.0057563805,-0.0026745945,5000,0,-0.2242357,-0.207897,-9.753,5000,0
4538528,-0.0028286646,0.004301813,-0.00050934084,5002,0,-0.21555583,-0.20928836,-9.723429,5002,0
4543540,-3.7031812e-05,0.004403618,-0.0001305966,5012,0,-0.24850887,-0.23450519,-9.774759,5012,0
4548533,1.5841691e-05,0.0046801902,-0.0018014781,4993,0,-0.28061548,-0.20953444,-9.768422,4993,0
4573582,4.633428e-05,0.0042598313,-0.0011649547,5042,0,-0.2193191,-0.19383784,-9.72481,5042,0
4578545,0.00043621124,0.0041000415,-0.0011658941,4963,0,-0.24032187,-0.19371614,-9.769925,4963,0
4583549,0.0011299723,0.004988338,-0.001285233,5004,0,-0.23031527,-0.18270849,-9.756647,5004,0
4588549,0.00034316457,0.0042953813,-0.0012737177,5000,0,-0.23413238,-0.1887739,-9.742111,5000,0
4593561,0.0002405151,0.0047498755,-0.0006120304,5012,0,-0.21528856,-0.2078873,-9.75538,5012,0
4598561,9.495948e-05,0.005500663,-0.0013366223,5000,0,-0.2235884,-0.209245,-9.770489,5000,0
4603558,0.00030747784,0.0056963335,-0.0017511987,4997,0,-0.22193338,-0.22788687,-9.761603,4997,0
4613565,-0.0016313235,0.0045115654,-0.00089523103,4985,0,-0.2229734,-0.22435866,-9.710684,4985,0
4618575,0.00030991482,0.0038084846,-0.0014463211,5010,0,-0.21695627,-0.21520613,-9.751541,5010,0
4623563,-0.0024918634,0.0041167336,-0.0015412433,4988,0,-0.20894124,-0.21567397,-9.758271,4988,0
4628579,-0.000440606,0.00324279,-0.0024611142,5016,0,-0.22782809,-0.21914591,-9.738984,5016,0
4633570,0.00067084923,0.0040430664,-0.00319655,4991,0,-0.2438237,-0.21549356,-9.744203,4991,0
4638569,1.7075807e-05,0.0038360201,-0.0014331543,4999,0,-0.25439328,-0.18808869,-9.780274,4999,0
4703596,-0.002446802,0.0036626004,-0.0015758874,4999,0,-0.24268317,-0.23339751,-9.764361,4999,0
4708619,-0.00032934602,0.004106153,-7.723993e-05,5023,0,-0.24908267,-0.2309966,-9.797947,5023,0
4713603,0.00054377114,0.0034913684,-0.0024412398,4984,0,-0.22770734,-0.19406074,-9.747391,4984,0
4718603,0.0010126919,0.0047698133,-0.0021950637,5000,0,-0.21910469,-0.21406636,-9.738595,5000,0
4723604,0.001790693,0.0026834216,-0.0007919109,5001,0,-0.24911669,-0.21014753,-9.780836,5001,0
4728610,-0.0006667583,0.004256096,-0.0010943069,5006,0,-0.24492511,-0.22774136,-9.777185,5006,0
4733611,-0.0025276348,0.0044999537,-0.0017973025,5001,0,-0.25130573,-0.21984297,-9.731082,5001,0
4738611,-0.0013554554,0.0046700453,-0.00059124804,5000,0,-0.2723234,-0.20839298,-9.742197,5000,0
4743613,-0.0013546762,0.0034729962,-0.0014990428,5002,0,-0.2124673,-0.19777209,-9.747295,5002,0
4748619,-0.0012253049,0.0049508843,-0.00074168685,5006,0,-0.24917941,-0.20666222,-9.720971,5006,0
4753619,-0.0008272628,0.003358785,-0.0010432232,5000,0,-0.2526225,-0.19020148,-9.788006,5000,0
4758619,0.0010568497,0.0036691204,-0.0011235577,5000,0,-0.26278943,-0.19130683,-9.740329,5000,0
4763629,0.00021149,0.004878544,-0.0010235704,5010,0,-0.24877118,-0.2118194,-9.722632,5010,0
4778627,-0.0007446198,0.005321894,-0.00047252825,4999,0,-0.2460226,-0.24475005,-9.778246,4999,0
4783629,0.0015251918,0.004438724,-0.00056431134,5002,0,-0.23668265,-0.2509001,-9.782311,5002,0
4788635,0.0003742551,0.0040216045,-0.000335837,5006,0,-0.23468435,-0.2592428,-9.728914,5006,0
4793636,0.000592835,0.003823499,-0.00061496685,5001,0,-0.22692408,-0.20457056,-9.754777,5001,0
4798640,-0.0024570862,0.0041261124,-0.0007088342,5004,0,-0.21796611,-0.21351008,-9.756202,5004,0
4803638,-0.0038231194,0.0052714325,-0.0010250489,4998,0,-0.23314248,-0.23760167,-9.764814,4998,0
4808643,-0.0028677583,0.003945057,-0.0019992925,5005,0,-0.25092295,-0.20789993,-9.734038,5005,0
4813647,-0.00122191,0.0045844666,-0.0016924634,5004,0,-0.25740302,-0.22046536,-9.736405,5004,0
4818644,-0.00014234401,0.003239329,-0.0013540825,4997,0,-0.25940236,-0.19813669,-9.739086,4997,0
4823649,-0.0018464656,0.0042260094,-0.0013355424,5005,0,-0.24327865,-0.19633245,-9.738836,5005,0
4828665,-0.0007643466,0.005028167,-0.0016125293,5016,0,-0.22486131,-0.21262857,-9.759819,5016,0
4833657,-0.0008239114,0.003544947,-0.002299858,4992,0,-0.22981231,-0.22756931,-9.752503,4992,0
4838652,0.00065246323,0.0033186502,-0.0023408446,4995,0,-0.25499624,-0.23100911,-9.730684,4995,0
4853660,-0.0011059787,0.0050649736,-0.00149445,4972,0,-0.26652634,-0.20004791,-9.779468,4972,0
4858660,0.00012062618,0.0055355486,-0.0009303665,5000,0,-0.2691664,-0.18086763,-9.77126,5000,0
4863663,3.029556e-05,0.004509368,-0.0014210385,5003,0,-0.24658275,-0.18554159,-9.743378,5003,0
4868671,-9.039854e-05,0.0051717972,-0.0016747257,5008,0,-0.21554266,-0.22400339,-9.745019,5008,0
4873669,0.0005561229,0.0043340186,-0.001615721,4998,0,-0.22683318,-0.22227119,-9.75606,4998,0
4878669,0.00063830934,0.0051037828,-0.0009150337,5000,0,-0.23743103,-0.20003442,-9.796551,5000,0
4893678,0.00090624153,0.004530757,-0.000912201,5002,0,-0.23290397,-0.23517635,-9.759621,5002,0
4898677,-0.0011123499,0.00410433,-0.00091358286,4999,0,-0.21718486,-0.23629215,-9.752725,4999,0
4903679,-0.0017547016,0.0046491846,-0.0009789886,5002,0,-0.22240713,-0.25679004,-9.813492,5002,0
4908691,-0.002354166,0.0047878167,-0.0011026443,5012,0,-0.22260635,-0.23667005,-9.747447,5012,0
4913686,-0.0015476444,0.004769926,3.8369188e-05,4995,0,-0.22477563,-0.22460654,-9.742311,4995,0
4918685,-0.0007517606,0.0042470214,-0.0006811023,4999,0,-0.24458745,-0.19719325,-9.766842,4999,0
4928706,0.0016057305,0.004799097,-0.0021327338,5019,0,-0.25166476,-0.17696252,-9.752444,5019,0
4933768,4.2525186e-05,0.005212781,-0.003119439,5062,0,-0.2665529,-0.20881295,-9.764055,5062,0
4938693,0.00048207687,0.0040835985,-0.0025547787,4925,0,-0.26523963,-0.18636481,-9.782053,4925,0
4943696,0.0007619094,0.0040361397,-0.001583121,5003,0,-0.26010638,-0.17536245,-9.76457,5003,0
4948698,-0.0010661324,0.004721853,-0.0022141768,5002,0,-0.23419711,-0.18635711,-9.725555,5002,0
4953711,-0.0013996332,0.00570949,-0.0010857681,5013,0,-0.24442276,-0.23797494,-9.775801,5013,0
5023729,-0.0003688293,0.0041636727,-0.0015371257,5002,0,-0.24161488,-0.19523129,-9.755104,5002,0
5028732,-0.0010387022,0.0031447462,-0.0015868471,5003,0,-0.2356859,-0.17159078,-9.773604,5003,0
5033733,-0.0005677144,0.003402183,-0.001570139,5001,0,-0.22968295,-0.16496524,-9.764143,5001,0
5038755,-0.00022838055,0.0039019182,-0.0009083618,5022,0,-0.2576999,-0.17433636,-9.756731,5022,0
5043737,0.00045197614,0.0046426947,-0.00088342594,4982,0,-0.2440598,-0.1835289,-9.743268,4982,0
5048745,-6.451449e-05,0.0047241757,-0.0018809291,5008,0,-0.23672447,-0.18954453,-9.719089,5008,0
5053747,5.1871448e-05,0.004614573,-0.0024295372,5002,0,-0.25447124,-0.21212077,-9.730524,5002,0
5073749,7.338799e-05,0.003215265,-0.00013264439,4994,0,-0.22892417,-0.24082018,-9.742068,4994,0
5078752,0.0012166613,0.003089098,-0.0014467351,5003,0,-0.23648322,-0.21643013,-9.756263,5003,0
5083753,0.00067354087,0.003992271,-0.0021479912,5001,0,-0.23216863,-0.2012554,-9.770843,5001,0
5088769,0.00041065481,0.0051611452,-0.0014501754,5016,0,-0.231002,-0.20068678,-9.752308,5016,0
5093767,-0.0011969414,0.0042372905,-0.0028562383,4998,0,-0.23626532,-0.21319896,-9.77517,4998,0
5098760,-0.00020075006,0.0050066332,-0.001154585,4993,0,-0.2458597,-0.19589669,-9.738156,4993,0
5108764,-0.0022792206,0.0035565058,-0.0009127065,5002,0,-0.25140145,-0.21070051,-9.805886,5002,0
5113766,-0.0023201369,0.003580973,-0.0016198929,5002,0,-0.24153796,-0.22195877,-9.8034525,5002,0
5118771,-0.002307273,0.004934135,-0.0014829199,5005,0,-0.22765446,-0.20380285,-9.738299,5005,0
5123815,-0.001589666,0.004292925,-0.0010527942,5044,0,-0.23942697,-0.18650408,-9.721992,5044,0
5128772,0.0005526766,0.0033263771,-0.0023078164,4957,0,-0.24493486,-0.1917119,-9.763969,4957,0
5133774,-0.00021306115,0.004765763,-0.0021461945,5002,0,-0.21132796,-0.18093088,-9.739899,5002,0
5138776,-0.000344566,0.004098013,-0.001397888,5002,0,-0.25205377,-0.20661913,-9.761067,5002,0
5148781,0.0001748618,0.0040994724,-7.317391e-05,4992,0,-0.22976345,-0.20172116,-9.732702,4992,0
5153786,0.0027036064,0.004841769,-0.00015898477,5005,0,-0.20395923,-0.21690652,-9.760775,5005,0
5158785,0.0023497122,0.00428532,-0.0012137961,4999,0,-0.22592309,-0.17639518,-9.763031,4999,0
5163801,0.0017072991,0.0035293284,-0.00089147297,5016,0,-0.25472668,-0.20272708,-9.776874,5016,0
5168790,0.0015213714,0.0037123258,-0.0015408742,4989,0,-0.21993744,-0.22203758,-9.800573,4989,0
5173791,-0.0007243882,0.0035565523,-0.0022419463,5001,0,-0.23834959,-0.2247342,-9.755409,5001,0
5178793,0.001722096,0.0032510988,-0.0018986817,5002,0,-0.25430548,-0.2476853,-9.792892,5002,0
5183801,0.0024337294,0.0033687335,-0.0016158362,5008,0,-0.24559838,-0.24543434,-9.823343,5008,0
5188807,0.0016211815,0.004233337,-0.0010236985,5006,0,-0.22781743,-0.24382065,-9.756424,5006,0
5193799,-0.00083309313,0.0031859898,-0.0026422027,4992,0,-0.25556156,-0.23200676,-9.750295,4992,0
5198801,-0.0018922234,0.0036186103,-0.0013302315,5002,0,-0.22271575,-0.2249598,-9.746036,5002,0
5203807,-0.0013546436,0.0039197914,-0.0014910516,5006,0,-0.22103241,-0.21571165,-9.749348,5006,0
5208836,0.00082024,0.0038889735,-0.0006935663,5029,0,-0.21342932,-0.19536377,-9.778502,5029,0
5213807,-0.0013960951,0.0040350067,-0.0024973194,4971,0,-0.21464516,-0.18556067,-9.801878,4971,0
5218809,-0.0029327574,0.0045301807,-0.0013456714,5002,0,-0.20676394,-0.19038898,-9.733117,5002,0
5223815,-0.00023779468,0.005266388,-0.00195838,5006,0,-0.20942643,-0.185897,-9.756805,5006,0
5228822,-0.0012426205,0.004656391,-0.001890063,5007,0,-0.22508638,-0.1775304,-9.743885,5007,0
5233816,0.0006741947,0.005012585,-0.0021441474,4994,0,-0.23206055,-0.21482362,-9.723378,4994,0
5238818,0.0005267989,0.004607996,-0.0021479516,5002,0,-0.23390248,-0.21969822,-9.749277,5002,0
5243824,0.0001050201,0.003423926,-0.0009363115,5006,0,-0.26273492,-0.18463501,-9.726351,5006,0
5248822,0.00033759707,0.0054728063,-0.0021595615,4998,0,-0.25745934,-0.1830954,-9.733413,4998,0
5263832,0.0021539251,0.0046429345,-0.0014020447,5006,0,-0.23568302,-0.21401231,-9.779282,5006,0
5268831,0.0018317966,0.0045263474,-0.0023015053,4999,0,-0.2395613,-0.19753933,-9.756088,4999,0
5273833,-0.00036103424,0.0049199834,-0.0025501694,5002,0,-0.25126225,-0.2340376,-9.739597,5002,0
5278834,-0.00044467158,0.005187516,-0.0021072992,5001,0,-0.2356752,-0.22702338,-9.805268,5001,0
5283840,0.0011689143,0.0042604813,-0.0010027721,5006,0,-0.24089353,-0.23486324,-9.787545,5006,0
5288839,0.00057738705,0.005458934,-0.0013426832,4999,0,-0.22701791,-0.21898563,-9.753579,4999,0
5293848,1.5509765e-06,0.004959729,-0.0021192508,5009,0,-0.22442064,-0.2376314,-9.753681,5009,0
5363874,-0.00074728235,0.0049570804,-0.00030429527,5006,0,-0.22109032,-0.21020862,-9.7623005,5006,0
5368872,5.3168187e-05,0.004516677,-0.00060163846,4998,0,-0.2319643,-0.22508213,-9.773242,4998,0
5373877,0.00076365354,0.004583775,-0.0012336157,5005,0,-0.2593257,-0.22650112,-9.771224,5005,0
5378876,0.0016181312,0.0051001343,-0.00096502044,4999,0,-0.25070888,-0.22505063,-9.753353,4999,0
5383882,0.00016390013,0.0045002587,-0.0013548838,5006,0,-0.25537962,-0.2091184,-9.752318,5006,0
5388886,-0.0013911433,0.0037548572,-0.0004912555,5004,0,-0.227863,-0.19593847,-9.741451,5004,0
5393882,-0.002119302,0.0048300414,-0.0012328622,4996,0,-0.22641382,-0.23415299,-9.751489,4996,0
5403890,-0.0022597187,0.0037590717,-0.0013307653,4999,0,-0.22186592,-0.21497539,-9.75835,4999,0
5408889,-0.0021649452,0.004421531,-0.0009622726,4999,0,-0.22694902,-0.19859225,-9.735773,4999,0
5413892,-0.003574959,0.0049980925,-0.0010288603,5003,0,-0.24118797,-0.18309487,-9.720384,5003,0
5418893,-0.0034795667,0.003976607,-0.0017183119,5001,0,-0.26730904,-0.19967172,-9.725706,5001,0
5423898,0.00012472812,0.003962941,-0.0012992943,5005,0,-0.25690672,-0.17316827,-9.730803,5005,0
5428897,0.0007164903,0.0034762805,-0.0012673956,4999,0,-0.23942289,-0.20866169,-9.745366,4999,0
5438901,-0.0018883061,0.0044440157,-0.0015513797,4992,0,-0.25302503,-0.18469776,-9.737233,4992,0
5443907,0.00065859023,0.004599241,-0.0008334179,5006,0,-0.21772668,-0.17482476,-9.737947,5006,0
5448905,0.0006645831,0.0064071207,-0.00097621937,4998,0,-0.21388723,-0.20158082,-9.778789,4998,0
5453910,0.0018225155,0.0054998766,-0.0011559377,5005,0,-0.20905322,-0.19893134,-9.78928,5005,0
5458909,0.001119915,0.0041004634,-5.4590513e-05,4999,0,-0.23360254,-0.21737945,-9.74078,4999,0
5463913,0.0009667614,0.004250417,-0.0009208095,5004,0,-0.2417577,-0.22505794,-9.732163,5004,0
5508930,-0.00038233324,0.0054709865,-0.0015706228,5010,0,-0.23151541,-0.21369226,-9.734521,5010,0
5513932,-0.0025046542,0.0043464564,-0.0011391281,5002,0,-0.23108283,-0.19844201,-9.772401,5002,0
5518934,-0.0027813832,0.0044258824,-0.0015368337,5002,0,-0.2386289,-0.19363217,-9.760457,5002,0
5523940,0.00016568616,0.0036913897,-0.0024936704,5006,0,-0.24994737,-0.19499664,-9.738094,5006,0
5528938,0.0019358242,0.0045016604,-0.0027343358,4998,0,-0.24142474,-0.1975323,-9.722279,4998,0
5533941,0.0022560987,0.00453158,-0.00089749927,5003,0,-0.24086434,-0.20879254,-9.73168,5003,0
5538943,0.00051690347,0.0035974544,-0.0010651305,5002,0,-0.22115193,-0.17649633,-9.795067,5002,0
5543948,0.00016863136,0.0037768213,-0.0018903929,5005,0,-0.2529532,-0.18427704,-9.746343,5005,0
5548952,0.00022354552,0.004311463,-0.0015330915,5004,0,-0.26521033,-0.17458895,-9.77464,5004,0
5553952,0.0024360223,0.0050602835,-0.00082743017,5000,0,-0.24049021,-0.20308317,-9.740324,5000,0
5558951,0.0030386,0.0035479143,-4.0079132e-05,4999,0,-0.24488889,-0.18832625,-9.742977,4999,0
5563953,0.0023536813,0.0033271054,-0.00020033216,5002,0,-0.24879006,-0.20439088,-9.724316,5002,0
5568967,-0.0011887177,0.005671163,-0.0014982028,5014,0,-0.24292378,-0.214303,-9.749094,5014,0
5573960,0.000823641,0.0042159106,-0.001218578,4993,0,-0.24745853,-0.24145813,-9.737657,4993,0
5578966,0.000111973815,0.0050366535,-0.0010902425,5006,0,-0.23738095,-0.20929684,-9.710475,5006,0
5583971,0.0012174929,0.0041008713,-0.0008289352,5005,0,-0.2456661,-0.19969615,-9.707296,5005,0
5589004,-0.000202737,0.004084266,-0.0010469604,5033,0,-0.24616615,-0.20901573,-9.701504,5033,0
5593962,-0.0008129608,0.0042322786,-0.00041830752,4958,0,-0.22482996,-0.21700138,-9.738267,4958,0
5623989,-0.000596946,0.004610868,-0.0018625901,5001,0,-0.26863196,-0.2019219,-9.810613,5001,0
5628994,0.0018945402,0.004475316,-0.00014695716,5005,0,-0.245205,-0.20585687,-9.775626,5005,0
5633998,-0.0016059927,0.0039174277,-0.0015135764,5004,0,-0.2352396,-0.20583293,-9.763596,5004,0
5639010,-0.0031270543,0.0022312147,-0.0008862448,5012,0,-0.2361202,-0.21461362,-9.748444,5012,0
5644019,-0.0011610256,0.004666444,-0.000848488,5009,0,-0.22463794,-0.21972997,-9.746199,5009,0
5649017,0.00053263723,0.0038445177,-0.00024315745,4998,0,-0.2323824,-0.18940088,-9.723426,4998,0
5654055,0.0015476416,0.0045380644,-0.0014240509,5038,0,-0.23062618,-0.20282242,-9.739575,5038,0
5659037,0.00017504205,0.005701822,-0.00060785655,4982,0,-0.25377268,-0.19731556,-9.740195,4982,0
5719028,-0.0035101396,0.003741816,-0.0014087186,5006,0,-0.2477175,-0.16494551,-9.775311,5006,0
5724019,-0.0019560999,0.0037259993,-0.0010322263,4991,0,-0.2315727,-0.19694819,-9.751631,4991,0
5729021,0.0009861507,0.0046860194,-0.00069838285,5002,0,-0.2297783,-0.18964103,-9.748359,5002,0
5734023,0.0005780295,0.0039201025,-0.0010121074,5002,0,-0.2534783,-0.19987547,-9.725846,5002,0
5739029,-0.0008409177,0.004728135,-0.001280213,5006,0,-0.24730834,-0.21428765,-9.727033,5006,0
5769038,-0.0012812194,0.004055991,-0.0014171654,5002,0,-0.21502894,-0.19731887,-9.769981,5002,0
5774040,-0.0002522656,0.004548123,-0.0014228337,5002,0,-0.25663263,-0.20589872,-9.761342,5002,0
5779046,0.00033160564,0.004734406,-0.001004792,5006,0,-0.25874358,-0.21767317,-9.767591,5006,0
5784044,-0.001144449,0.0033426678,-0.0022274319,4998,0,-0.22239509,-0.19005261,-9.741523,4998,0
5789046,0.00014072683,0.0033293415,-0.0020588355,5002,0,-0.24303941,-0.2147682,-9.731621,5002,0
5794048,-0.0019363099,0.00474336,-0.0026002112,5002,0,-0.249532,-0.21137373,-9.74827,5002,0
5799054,-0.00029833952,0.004413999,-0.001949027,5006,0,-0.25428942,-0.21744584,-9.755006,5006,0
5804053,0.00066457776,0.0033275546,-0.00086099975,4999,0,-0.22816008,-0.23229976,-9.792881,4999,0
5809055,0.00089205254,0.0035599568,-0.0026107416,5002,0,-0.24147981,-0.20553665,-9.78977,5002,0
5814067,-0.0005451463,0.0032794357,-0.002313901,5012,0,-0.2592861,-0.18840398,-9.735565,5012,0
5819063,-0.00010810928,0.004471715,-0.00089845114,4996,0,-0.22517733,-0.16930038,-9.722146,4996,0
5824061,-0.000993684,0.0042556454,-0.0011133146,4998,0,-0.21771806,-0.20375808,-9.716337,4998,0
5834065,-2.2134138e-05,0.0044776476,-0.0015399333,5002,0,-0.2267658,-0.21811223,-9.785368,5002,0
5839071,-0.0011211229,0.004873483,-0.0006644727,5006,0,-0.21047944,-0.20825377,-9.777208,5006,0
5844075,0.0009520916,0.0034638587,-0.002373701,5004,0,-0.21874022,-0.17223772,-9.745185,5004,0
5849071,-0.0012335291,0.0052346,-0.0028791295,4996,0,-0.24678634,-0.19790605,-9.719311,4996,0
5854073,-0.002097608,0.0039113513,-0.000735262,5002,0,-0.24890806,-0.22865862,-9.727195,5002,0
5859079,6.231601e-05,0.0047249254,-0.00018023736,5006,0,-0.22472687,-0.21360032,-9.780506,5006,0
5864078,0.0009897802,0.005053176,-0.0014808304,4999,0,-0.24063537,-0.21266834,-9.774413,4999,0
5869080,0.0023612606,0.0046294485,-0.0015948107,5002,0,-0.23715346,-0.21015516,-9.774047,5002,0
5879092,-0.00036921425,0.0034794607,-0.0016703685,5010,0,-0.22929594,-0.24601567,-9.748198,5010,0
5884086,-0.0002576872,0.004015358,-0.0017657743,4994,0,-0.23090664,-0.2258642,-9.72983,4994,0
5889088,-0.0012717391,0.0037321993,-0.00071720785,5002,0,-0.21773092,-0.23609085,-9.7191,5002,0
5894090,-0.0010726724,0.0048688496,-0.0017819006,5002,0,-0.21801607,-0.22458813,-9.757035,5002,0
5899093,0.0005953624,0.003692633,-0.0021587634,5003,0,-0.24535896,-0.22280438,-9.748724,5003,0
5904094,0.0030326368,0.004226812,9.849265e-05,5001,0,-0.23808625,-0.23030967,-9.759719,5001,0
5909099,0.0016592403,0.0038633165,-0.0004673235,5005,0,-0.23759171,-0.20346628,-9.761727,5005,0
5914099,-0.0009787341,0.0044314405,-0.0007341809,5000,0,-0.26930636,-0.19241121,-9.752384,5000,0
5919109,-0.0011955766,0.004347385,-0.0010098699,5010,0,-0.24952562,-0.23190184,-9.768298,5010,0
5924102,-0.0004876673,0.0031350576,-0.0011293291,4993,0,-0.22659104,-0.21116847,-9.748026,4993,0
5929130,-0.0020884585,0.0049514994,-0.0025025818,5028,0,-0.21294461,-0.21055509,-9.708753,5028,0
5934107,-0.00053434586,0.003387845,-0.0012685664,4977,0,-0.23407917,-0.21453933,-9.734528,4977,0
5939109,-0.0013176756,0.0043085096,-0.0018865496,5002,0,-0.24090691,-0.19250405,-9.753124,5002,0
5944111,1.4615233e-05,0.004660838,-0.00083188055,5002,0,-0.2335309,-0.20922512,-9.775131,5002,0
5954115,-0.0016803067,0.0046233144,-0.001392587,5002,0,-0.24154094,-0.19395502,-9.701133,5002,0
5959117,0.000499518,0.003894524,6.79837e-05,5002,0,-0.24633679,-0.21777192,-9.732773,5002,0
5964119,0.0017551271,0.0040057315,-0.0013600944,5002,0,-0.21878037,-0.20373656,-9.758749,5002,0
5969121,-0.002100994,0.004194548,-0.0016129754,5002,0,-0.2041656,-0.19052245,-9.762587,5002,0
5974123,-0.0009503299,0.005719542,-0.0019475992,5002,0,-0.23155247,-0.18124817,-9.771562,5002,0
5979126,0.00025327344,0.004604751,-0.0007331829,5003,0,-0.23380601,-0.18997033,-9.758973,5003,0
6064161,0.002433577,0.004261983,0.0002921631,4988,0,-0.25096875,-0.22717433,-9.722758,4988,0
6069163,-0.0011815688,0.0046618856,-0.00037146438,5002,0,-0.26066357,-0.24161331,-9.708235,5002,0
6074165,-0.002313403,0.0039461344,-0.0014949538,5002,0,-0.25503623,-0.20708844,-9.767027,5002,0
6079169,-0.0024963066,0.0040737246,-0.00052075123,5004,0,-0.2202517,-0.19188623,-9.749413,5004,0
6084182,0.00015378241,0.0058701425,-0.00090614724,5013,0,-0.23754843,-0.17656839,-9.7695265,5013,0
6114202,0.0031902143,0.004036749,-0.0018155645,5011,0,-0.24491753,-0.19684489,-9.727706,5011,0
6119191,0.003857337,0.0036343306,-0.0010856736,4989,0,-0.22835052,-0.19756351,-9.732652,4989,0
6124186,-0.0007361381,0.0037351148,-0.0016057057,4995,0,-0.2535854,-0.21795258,-9.779028,4995,0
6129188,-0.002876431,0.0051744115,-0.00046478573,5002,0,-0.2524508,-0.22786011,-9.743843,5002,0
6134201,0.00016403646,0.004270185,-0.0012381825,5013,0,-0.25359204,-0.18494298,-9.735948,5013,0
6139192,0.00022856133,0.003336328,-0.002188674,4991,0,-0.21880905,-0.20819074,-9.729373,4991,0
6144194,0.0016763342,0.0041056736,-0.0027058048,5002,0,-0.23059282,-0.23023629,-9.717464,5002,0
6149196,-0.0006586485,0.0034650185,-0.0005751472,5002,0,-0.24120742,-0.21605657,-9.743198,5002,0
6154202,-0.0020428854,0.0044936854,-0.0012949213,5006,0,-0.2435616,-0.2132491,-9.762193,5006,0
6159201,0.002163675,0.0036189219,-0.0007258853,4999,0,-0.22515287,-0.19522126,-9.757799,4999,0
6164202,0.0012421643,0.004788389,-0.0014440169,5001,0,-0.23313963,-0.23068142,-9.792647,5001,0
6169215,0.0005153498,0.0041659526,-0.0016616787,5013,0,-0.21531048,-0.22497402,-9.737341,5013,0
6174210,-0.0006545998,0.0039283186,-0.0012034788,4995,0,-0.23166414,-0.19838808,-9.739894,4995,0
6179209,-0.0025991977,0.0040628132,-0.0011051064,4999,0,-0.24496764,-0.17925683,-9.7648325,4999,0
6194219,0.0019553248,0.004447635,-0.0010259309,5006,0,-0.21566692,-0.16597894,-9.776023,5006,0
6199217,-0.00034430754,0.0047670356,-0.0014426283,4998,0,-0.25932914,-0.18664062,-9.786233,4998,0
6204232,-0.0015464947,0.0048661157,-0.0011770072,5015,0,-0.268557,-0.22803466,-9.767117,5015,0
6209221,-0.0007516205,0.004963693,-0.0018902716,4989,0,-0.24897596,-0.22858755,-9.795181,4989,0
6214245,0.00091209984,0.005075369,-0.0011693578,5024,0,-0.23439069,-0.21418199,-9.764607,5024,0
6219228,-0.001123346,0.004428617,-0.002512673,4983,0,-0.22011489,-0.21207559,-9.77498,4983,0
6224245,0.0005582192,0.004564631,-0.001519068,5017,0,-0.20743006,-0.23078738,-9.774274,5017,0
6229236,-0.0020137383,0.0041204044,-0.002090036,4991,0,-0.23916604,-0.21957171,-9.755587,4991,0
6234257,-0.003912025,0.005432725,-0.0021165144,5021,0,-0.23776512,-0.20902449,-9.806483,5021,0
6239239,0.00064110226,0.0039459704,-0.0013534481,4982,0,-0.23136914,-0.21287695,-9.7486105,4982,0
6244259,0.00097351614,0.0044149156,-0.0005136747,5020,0,-0.24667,-0.21443298,-9.768312,5020,0
6249250,-0.0007275169,0.004515465,-0.0017456037,4991,0,-0.2527205,-0.1822797,-9.7847395,4991,0
6254254,-0.0022459477,0.004672912,-0.0011593045,5004,0,-0.23356162,-0.20063369,-9.761846,5004,0
6274263,0.00027362822,0.004216425,-0.0012491276,5014,0,-0.23904108,-0.19958758,-9.745535,5014,0
6279254,-0.0021111807,0.005120304,-0.0013104827,4991,0,-0.20310931,-0.19378614,-9.770203,4991,0
6284271,0.00014439231,0.004569889,-0.0014043562,5017,0,-0.21894678,-0.17711262,-9.749109,5017,0
6289280,-8.898922e-05,0.0046665627,-0.0019589895,5009,0,-0.23165418,-0.21229784,-9.760542,5009,0
6294268,0.0014010101,0.0039131627,-0.0011877146,4988,0,-0.23255804,-0.2182853,-9.801146,4988,0
6299262,0.0013395408,0.004523496,-0.0023599488,4994,0,-0.2606891,-0.23454529,-9.787519,4994,0
6304279,-0.00042202658,0.0042293556,-0.0015936805,5017,0,-0.263377,-0.22172843,-9.769953,5017,0
6384297,-0.00043753357,0.00542434,-0.0018572151,5002,0,-0.24388094,-0.20749274,-9.7922125,5002,0
6389299,-0.0023351742,0.0051329387,-0.0019576866,5002,0,-0.23344302,-0.18604589,-9.79363,5002,0
6394294,-7.943887e-05,0.0039171465,-0.0002649323,4995,0,-0.21266124,-0.19938852,-9.769824,4995,0
6399303,-0.0005285573,0.0041801683,-5.8008405e-05,5009,0,-0.2062549,-0.21340364,-9.787077,5009,0
6404310,-0.0010798319,0.0034257104,-0.0013459463,5007,0,-0.23600054,-0.23640105,-9.780769,5007,0
6409308,-0.0012806717,0.003220392,-0.001021695,4998,0,-0.24769174,-0.22507142,-9.775798,4998,0
6424319,0.0015334808,0.005017731,-0.0015581467,5001,0,-0.2570426,-0.21134517,-9.778819,5001,0
6429323,6.742307e-05,0.0045515248,-0.00025566737,5004,0,-0.27473038,-0.22030847,-9.7832365,5004,0
6434318,0.0015454978,0.003743238,-0.0018947166,4995,0,-0.25381732,-0.23820184,-9.759989,4995,0
6439323,-0.00060045766,0.003381223,-0.000991773,5005,0,-0.24793363,-0.23253578,-9.760469,5005,0
6444327,-0.002593893,0.0031176785,-0.00026596463,5004,0,-0.2312441,-0.23095793,-9.76329,5004,0
6449324,5.792941e-05,0.0046971655,-0.0013895123,4997,0,-0.24350926,-0.22511035,-9.72122,4997,0
6454332,0.0016932136,0.004768517,-0.0017648134,5008,0,-0.22556321,-0.20712605,-9.737183,5008,0
6459335,-0.00014736975,0.003988924,-0.0025451826,5003,0,-0.20867358,-0.21429075,-9.727005,5003,0
6464339,-0.0014112579,0.004078274,-0.0015617762,5004,0,-0.20223957,-0.21333082,-9.767886,5004,0
6469333,-0.0021121092,0.005347778,0.00032513606,4994,0,-0.25524598,-0.17757732,-9.767509,4994,0
6474333,-0.00054328894,0.005564117,-0.0015287641,5000,0,-0.25498933,-0.19499603,-9.752534,5000,0
6479332,-0.0015366002,0.0038896212,-0.00076139095,4999,0,-0.24684973,-0.21338819,-9.792108,4999,0
6499345,0.0011342354,0.0040090545,-0.0017575287,5003,0,-0.24245921,-0.22199793,-9.706301,5003,0
6504346,0.0023609193,0.005420497,-0.0014740244,5001,0,-0.26081306,-0.20348045,-9.740618,5001,0
6509352,0.001330008,0.0045027193,-0.0011059744,5006,0,-0.25590044,-0.2319309,-9.760262,5006,0
6514350,1.2221204e-05,0.005328487,-0.0010134018,4998,0,-0.20988894,-0.20419586,-9.758212,4998,0
6519353,-0.0026234428,0.0035072719,-0.0008356808,5003,0,-0.22378407,-0.20461737,-9.794249,5003,0
6524354,-0.0005142665,0.0038869996,-0.00084679906,5001,0,-0.23761773,-0.23095082,-9.7895,5001,0
6529357,0.0022510097,0.004577123,-0.0008524883,5003,0,-0.22088775,-0.23722528,-9.770718,5003,0
6544366,0.0006457632,0.005429239,-0.0007817592,5005,0,-0.24039944,-0.22157425,-9.7417145,5005,0
6549366,0.00062558765,0.004997881,-0.0007307141,5000,0,-0.22980459,-0.23025416,-9.779876,5000,0
6554367,0.00018822448,0.0049704323,-0.0018674056,5001,0,-0.24509855,-0.24976301,-9.747839,5001,0
6559370,0.00017858564,0.0047200816,-0.0011570948,5003,0,-0.24213816,-0.21463348,-9.725663,5003,0
6564384,-0.0016614429,0.004815549,-0.0017278314,5014,0,-0.21883853,-0.21126097,-9.722711,5014,0
6569386,-0.0006780824,0.0038376094,-0.0023297472,5002,0,-0.2338956,-0.20909981,-9.70478,5002,0
6604388,0.003442693,0.003759177,-0.0024839106,4999,0,-0.24223253,-0.19304529,-9.751269,4999,0
6609404,0.0006669303,0.004342223,-0.0012813583,5016,0,-0.23382469,-0.22972587,-9.733205,5016,0
6614391,-0.0005740149,0.005045324,-0.0010276827,4987,0,-0.22561066,-0.1921004,-9.747482,4987,0
6619392,-0.00041512767,0.005020838,-0.0014339824,5001,0,-0.19967453,-0.23345721,-9.736922,5001,0
6624400,-0.0015407722,0.0051082005,-0.0010079342,5008,0,-0.22383797,-0.20739706,-9.721156,5008,0
6629408,-0.0010054962,0.0032113618,-0.00042353192,5008,0,-0.24116038,-0.20736307,-9.733192,5008,0
6634401,-0.00050368195,0.0040900875,-0.0022160842,4993,0,-0.27092156,-0.21885505,-9.7619095,4993,0
6639402,8.255214e-05,0.0033168513,-0.0018913909,5001,0,-0.23677377,-0.2327684,-9.754144,5001,0
6644405,-0.0035697808,0.004507147,-0.0009803495,5003,0,-0.2603313,-0.2320439,-9.772557,5003,0
6649444,0.0010509065,0.0028090242,-0.0012078945,5039,0,-0.24658222,-0.20095463,-9.755909,5039,0
6654422,-0.0002760036,0.0040624603,-0.0006243865,4978,0,-0.23273437,-0.23645459,-9.77092,4978,0
6659411,0.0010297104,0.0051201363,-0.001158673,4989,0,-0.24187993,-0.20668088,-9.753345,4989,0
6664412,-0.0011673247,0.0042975065,-0.0029737335,5001,0,-0.24108559,-0.1843985,-9.763575,5001,0
6669432,-0.0012916845,0.0037908878,-0.002043534,5020,0,-0.21698523,-0.20725055,-9.772089,5020,0
6944531,-0.0022772488,0.003660916,-0.0008303601,5005,0,-0.19825333,-0.22999907,-9.752456,5005,0
6949533,0.0006095649,0.0032708894,-0.0014049545,5002,0,-0.2053966,-0.18665497,-9.772409,5002,0
6954535,-9.046327e-05,0.0037758343,-0.0015968679,5002,0,-0.2419526,-0.18592104,-9.728317,5002,0
6959537,-0.00010792923,0.0031181693,-0.0017105468,5002,0,-0.2242326,-0.207625,-9.699275,5002,0
6964539,-0.0013811891,0.0034184672,-0.0015234312,5002,0,-0.23403482,-0.21447824,-9.717411,5002,0
6969539,-0.0016964432,0.00406654,-0.00035662603,5000,0,-0.23341341,-0.21269976,-9.763201,5000,0
6974544,-0.0025445453,0.004878316,0.00071881607,5005,0,-0.24635413,-0.21107164,-9.757466,5005,0
6979542,0.0011621348,0.0047454047,-0.0010107764,4998,0,-0.23064496,-0.21039784,-9.725439,4998,0
6984547,-0.0013161121,0.0041215983,-0.0001885446,5005,0,-0.23785368,-0.19033894,-9.752203,5005,0
6989550,0.0010047922,0.005274773,8.9407395e-06,5003,0,-0.23074795,-0.21570233,-9.755547,5003,0
6994551,0.0004380852,0.0045698294,-0.0007795874,5001,0,-0.22512466,-0.19922,-9.777472,5001,0
6999551,0.0005478543,0.004241435,-0.0016321134,5000,0,-0.21675412,-0.19363365,-9.800967,5000,0
7004556,-0.000167062,0.0023094118,-0.0008018839,5005,0,-0.23369668,-0.21116284,-9.833707,5005,0
7024578,0.0017980306,0.0044229,-0.00094388414,5019,0,-0.25937882,-0.20966884,-9.793675,5019,0
7029566,0.0012196257,0.004225121,-0.0005999916,4988,0,-0.25100285,-0.19108436,-9.730426,4988,0
7034568,0.0009957418,0.0052370457,0.0005239593,5002,0,-0.22174351,-0.20837623,-9.752673,5002,0
7039568,0.00039386092,0.0043231626,-0.00029469942,5000,0,-0.2325945,-0.21598199,-9.753483,5000,0
7044583,0.0013473086,0.004906929,-0.001608853,5015,0,-0.2088654,-0.23084418,-9.772807,5015,0
7049572,-0.00012861927,0.00568998,-0.0012555406,4989,0,-0.23031908,-0.20782842,-9.751692,4989,0
7054577,-4.666717e-05,0.00443143,-0.0007438201,5005,0,-0.24028139,-0.20415361,-9.759048,5005,0
7059576,0.00014138475,0.0040809046,-0.0022765857,4999,0,-0.24051484,-0.21787609,-9.770165,4999,0
7064592,-0.0037128718,0.004271282,-0.002002863,5016,0,-0.24141389,-0.21324743,-9.785464,5016,0
7069580,-0.00059968454,0.003968624,0.000303394,4988,0,-0.2443885,-0.22268398,-9.744184,4988,0
7074585,0.00031400853,0.0057570846,-0.0007549422,5005,0,-0.2420472,-0.19376007,-9.78009,5005,0
7079584,-0.0014968956,0.003956173,-0.00045950792,4999,0,-0.23587577,-0.21041006,-9.753823,4999,0
7109597,0.0003208357,0.0049166405,-0.0002931664,4996,0,-0.22478706,-0.19358838,-9.74253,4996,0
7114608,0.0014806507,0.004363219,-0.00044851465,5011,0,-0.24699576,-0.1976622,-9.773536,5011,0
7119610,0.00022303642,0.003932567,-0.00037963977,5002,0,-0.22448193,-0.22759654,-9.8017,5002,0
7124607,0.00051548064,0.003363127,-0.0017815242,4997,0,-0.23611467,-0.21029343,-9.780579,4997,0
7129605,0.00063163054,0.0048546623,-0.0009777177,4998,0,-0.21920924,-0.20922318,-9.73996,4998,0
7134610,-0.0011951425,0.004250843,-0.0013855475,5005,0,-0.21227561,-0.22499384,-9.775876,5005,0
7139610,-0.002316384,0.00443262,-0.002135325,5000,0,-0.20997941,-0.23514244,-9.799192,5000,0
7144615,-0.0013809525,0.0032967525,-0.0012383653,5005,0,-0.23402615,-0.2564661,-9.76272,5005,0
7149617,0.00031381767,0.0025456126,-0.0014413787,5002,0,-0.22390364,-0.2350588,-9.70249,5002,0
7154622,-0.00028088028,0.0033946475,-0.0008269584,5005,0,-0.221521,-0.21044104,-9.747182,5005,0
7159618,0.0002064519,0.0043988703,-0.00055751676,4996,0,-0.22718282,-0.21502379,-9.771054,4996,0
7164624,-0.0006211318,0.0037232907,-0.00061811134,5006,0,-0.2429973,-0.21673942,-9.720702,5006,0
7169622,-0.0015934241,0.0036571473,-0.0011054608,4998,0,-0.24848245,-0.2051258,-9.741819,4998,0
7179626,-6.472889e-05,0.0038812668,-0.0017878856,4999,0,-0.22979444,-0.19387178,-9.751782,4999,0
7184632,-0.0012820279,0.0055415668,-0.0012664951,5006,0,-0.2558759,-0.17026535,-9.735305,5006,0
7189630,-0.0009633767,0.0036127036,-0.00023323385,4998,0,-0.25980017,-0.18351203,-9.737826,4998,0
7194635,0.001321981,0.004921068,-0.0008188068,5005,0,-0.26603305,-0.19907741,-9.755441,5005,0
7199630,0.0006150793,0.0031655787,-0.0004267461,4995,0,-0.2283997,-0.21578622,-9.743394,4995,0
7204640,-0.00090929645,0.0034835082,-0.0017275827,5010,0,-0.21670023,-0.21019843,-9.760735,5010,0
7214653,-0.0006080579,0.005069419,0.0003435155,5014,0,-0.2383792,-0.2144138,-9.761275,5014,0
7219643,-5.751229e-06,0.0037756644,-0.00079832756,4990,0,-0.23809437,-0.2053339,-9.740044,4990,0
7224649,-0.0005428907,0.0056544193,-0.0014535193,5006,0,-0.24982251,-0.21094014,-9.732729,5006,0
7229647,0.0014920371,0.0046266126,-0.0021386156,4998,0,-0.23181172,-0.21486852,-9.7577505,4998,0
7234652,0.00045732877,0.00294759,-0.0019642625,5005,0,-0.25546166,-0.22204965,-9.726602,5005,0
7239665,-0.0023330108,0.0046409676,-0.0005244976,5013,0,-0.23390026,-0.22852793,-9.760474,5013,0
7244657,-0.00056281476,0.0052889315,-0.00029250392,4992,0,-0.25445446,-0.19668457,-9.767282,4992,0
7279674,0.00048839697,0.0036143283,-0.0018123912,5005,0,-0.21808395,-0.19306086,-9.780118,5005,0
7284690,-0.0009441002,0.0042286194,-0.0020855665,5016,0,-0.22166242,-0.16624297,-9.7564945,5016,0
7289673,0.00031668026,0.0035883295,-0.0015950205,4983,0,-0.2514754,-0.2069101,-9.742939,4983,0
7294677,0.00066605234,0.0037546512,0.001100043,5004,0,-0.25094923,-0.23593064,-9.739105,5004,0
7299680,0.0003820987,0.002767281,-5.7038877e-05,5003,0,-0.24951279,-0.21490343,-9.756209,5003,0
7304682,-0.00017339856,0.0050538825,-0.0009899371,5002,0,-0.22595373,-0.19254416,-9.742136,5002,0
7309680,-2.606193e-05,0.0041183196,-0.0005651813,4998,0,-0.22961776,-0.19081,-9.757101,4998,0
7324691,-0.000106782936,0.0031259262,-0.0021407942,5006,0,-0.22330852,-0.2208172,-9.772573,5006,0
7329698,-0.0015346959,0.004491417,-0.0013605615,5007,0,-0.24319324,-0.18758951,-9.7372,5007,0
7334691,0.00032816478,0.0045561823,-0.002230525,4993,0,-0.24830498,-0.20060648,-9.750562,4993,0
7339693,0.0017277792,0.0041389577,-0.0014988838,5002,0,-0.25723386,-0.21243103,-9.76161,5002,0
7344701,0.000907677,0.004411373,-0.0020400696,5008,0,-0.22252801,-0.20274127,-9.797345,5008,0
7349699,-0.002324819,0.004171206,-0.00089123455,4998,0,-0.23155758,-0.23053893,-9.794016,4998,0
7354707,-0.0014351503,0.0037263804,-0.0016625343,5008,0,-0.25154483,-0.19392128,-9.738512,5008,0
7359704,-0.0031366567,0.0039849016,-0.0016881529,4997,0,-0.25856075,-0.2070325,-9.755564,4997,0
7364706,0.0007764516,0.0054236962,-0.0013886461,5002,0,-0.24417646,-0.23440576,-9.79098,5002,0
7369756,0.0015386997,0.0041856654,-0.0004928796,5050,0,-0.23875427,-0.20823684,-9.746873,5050,0
7374710,3.252555e-05,0.003457068,-0.0015893723,4954,0,-0.24250247,-0.21902671,-9.76533,4954,0
7379710,8.992277e-05,0.003695629,-0.0014407714,5000,0,-0.25054953,-0.20592332,-9.739382,5000,0
7384715,-0.00078565645,0.004163524,-0.0011698584,5005,0,-0.21419458,-0.19702692,-9.749789,5005,0
7389714,0.00033805627,0.005096652,-0.0009274884,4999,0,-0.21682091,-0.17129248,-9.717401,4999,0
7404730,-0.0009278619,0.0043600583,-0.0012122855,5012,0,-0.22732517,-0.21124573,-9.747119,5012,0
7409732,-0.00047954998,0.004494415,-0.0020147183,5002,0,-0.23416708,-0.21059927,-9.729562,5002,0
7414727,0.00016845703,0.0044322563,-0.0021392503,4995,0,-0.22289807,-0.18619543,-9.758873,4995,0
7419733,-0.0001284087,0.0040057376,-0.0017137846,5006,0,-0.20694086,-0.19031814,-9.724016,5006,0
7424734,0.002958365,0.0031757976,-0.0016818661,5001,0,-0.25618508,-0.22135843,-9.759308,5001,0
7429732,0.0006972381,0.0042213374,-0.0025778194,4998,0,-0.2335171,-0.2496088,-9.7370405,4998,0
7434736,-0.0011455219,0.0033898614,-0.0010829197,5004,0,-0.23317617,-0.23207891,-9.747428,5004,0
7439735,-0.0017899664,0.0040311515,-0.0007483808,4999,0,-0.2488345,-0.2106286,-9.758916,4999,0
7444740,-3.3266647e-06,0.003909811,-0.0021627478,5005,0,-0.22387859,-0.20335029,-9.7828665,5005,0
7449739,0.00017483628,0.004084861,-0.0023293686,4999,0,-0.24665198,-0.20790121,-9.770136,4999,0
7454748,-0.00021625764,0.0039497158,-0.0015703914,5009,0,-0.23378217,-0.20697719,-9.7481,5009,0
7459743,7.8275254e-05,0.0039307424,-0.0012388288,4995,0,-0.22086246,-0.21723612,-9.763946,4995,0
7464755,-0.0008118378,0.0038424726,-0.000944765,5012,0,-0.23341419,-0.21570975,-9.737685,5012,0
7474753,-0.0012461912,0.0041260934,-0.001106443,4985,0,-0.22936687,-0.2134385,-9.756787,4985,0
7479752,-0.00031267773,0.0038065226,-0.0008159234,4999,0,-0.2281159,-0.2009237,-9.725227,4999,0
7484756,-0.00025861265,0.0038281207,-0.0013914068,5004,0,-0.25281712,-0.22309259,-9.73162,5004,0
7489756,0.0017183147,0.004751164,-0.002382455,5000,0,-0.26678252,-0.19215533,-9.739152,5000,0
7494761,0.0027051312,0.0038929281,-0.0013070358,5005,0,-0.22278136,-0.2023912,-9.74706,5005,0
7499763,0.0011397394,0.004165681,-0.0013732292,5002,0,-0.23402393,-0.21277338,-9.713623,5002,0
7504765,-0.00024599276,0.0052720383,-0.00082362344,5002,0,-0.23043126,-0.20116639,-9.749076,5002,0
7509782,0.0024225994,0.004488801,-0.0024016076,5017,0,-0.22357659,-0.18595548,-9.756841,5017,0
7514774,0.00024152364,0.004373858,-0.0013100135,4992,0,-0.2530498,-0.20386645,-9.77511,4992,0
7519779,-0.0011368417,0.003948571,-0.0024322919,5005,0,-0.24114405,-0.2289644,-9.800843,5005,0
7524771,-0.0010651975,0.004567352,-0.0010059355,4992,0,-0.22255489,-0.19480185,-9.727975,4992,0
7529782,-0.0010811314,0.004897114,-0.00086696143,5011,0,-0.19715774,-0.18543102,-9.719908,5011,0
7534780,0.0020548946,0.003467289,-0.0027966895,4998,0,-0.20084494,-0.21288303,-9.732067,4998,0
7539791,0.003132354,0.0032567426,-0.0014212845,5011,0,-0.22876412,-0.21125025,-9.744978,5011,0
7559790,0.00030871952,0.004104574,-0.0021103176,5004,0,-0.22518179,-0.22546245,-9.760001,5004,0
7564790,-0.00010050755,0.004050452,-0.0022007504,5000,0,-0.19515766,-0.19429989,-9.721231,5000,0
7569789,0.0014837465,0.003713446,-0.0011961703,4999,0,-0.22218266,-0.18287624,-9.738319,4999,0
7574801,-0.0012631494,0.0043275254,-0.0019338833,5012,0,-0.2416539,-0.23087896,-9.754611,5012,0
7579814,-0.002934873,0.004889347,-0.0012582693,5013,0,-0.23694839,-0.22066486,-9.801609,5013,0
7584796,-0.0011481444,0.0037596934,-1.2299209e-05,4982,0,-0.24686214,-0.20482393,-9.7754135,4982,0
7589810,0.0030097465,0.004441823,-0.0006635379,5014,0,-0.2497951,-0.19980611,-9.781476,5014,0
