timestamp,timestamp_sample,xyz[0],xyz[1],xyz[2]
2956234,2955381,-0.08723657,0.0178681,-0.025546856
2958735,2957881,-0.11132746,0.015025772,-0.0329765
2961263,2960392,-0.11558293,0.017590165,-0.05440861
3021255,3020406,0.046692643,6.508844e-05,-0.009064681
3023763,3022907,0.045245085,-0.0012111661,0.014537299
3026288,3025412,0.046789203,-0.0018024159,0.016444303
3028774,3027908,0.053199887,0.0024559158,0.0071464367
3031267,3030419,0.055722952,-0.00079316343,-0.0025483875
3033759,3032908,0.040245555,-0.009127073,-0.0116514005
3036263,3035412,0.028826658,-0.013013224,-0.021310374
3038770,3037912,0.040042073,-0.013853796,-0.031131133
3041262,3040413,0.028266557,-0.0128567945,-0.035113953
3043785,3042916,-0.029260779,-0.012226632,-0.043834485
3046298,3045417,-0.090029955,-0.018707257,-0.050996892
3048829,3047969,-0.11322286,-0.02443043,-0.03856595
3051269,3050419,-0.111476615,-0.011482257,-0.025886016
3053771,3052917,-0.08726213,0.012830107,-0.024398379
3056266,3055418,-0.070583895,0.028806949,-0.03375402
3058779,3057921,-0.0586763,0.040952705,-0.029967712
3061268,3060422,-0.017907431,0.048998702,-0.0051165023
3063801,3062921,0.033128962,0.047735967,0.022289319
3066292,3065425,0.040864382,0.041744564,0.04267951
3068772,3067918,0.027090145,0.032097757,0.046032667
3071402,3070450,0.032489713,0.017111765,0.04236405
3073835,3072930,0.04613924,0.0028647557,0.052773975
3076351,3075443,0.047727074,-0.0062355623,0.06546748
3078819,3077927,0.03143004,-0.013727634,0.06841495
3081310,3080444,0.002448497,-0.019818818,0.05498545
3083798,3082934,-0.006786984,-0.019614626,0.037113857
3086295,3085434,0.0025436806,-0.023471378,0.020942464
3088807,3087933,-0.007206168,-0.036159094,0.016773915
3091316,3090434,-0.032323614,-0.039840013,0.017823087
3093806,3092943,-0.030016081,-0.028272822,0.007678493
3096293,3095438,-0.004254397,-0.0128916325,-0.00062477
3098831,3097935,0.0107048955,0.004861191,0.009495146
3101334,3100477,0.0023615435,0.0070244875,0.019558873
3103807,3102937,-0.013795819,-0.014651483,0.013696404
3106303,3105442,-0.0140556395,-0.030520799,0.0016823292
3108808,3107943,0.0001340801,-0.033518303,-0.0061382665
3111295,3110440,0.018047988,-0.024516312,-0.009992929
3113814,3112947,0.029240746,-0.008815802,-0.015809173
3116297,3115445,0.031737857,-0.0031569153,-0.023581747
3118800,3117943,0.022437599,0.00064182223,-0.02050979
3121319,3120447,0.0010719136,0.015739873,-0.0039453357
3123833,3122945,3.784197e-05,0.03244269,0.014149076
3126311,3125450,0.030821705,0.033914454,0.023305
3128803,3127947,0.050091855,0.022482097,0.02595838
3131306,3130451,0.036172092,0.02200882,0.027935494
3133807,3132957,0.028104031,0.030440794,0.023874896
3136307,3135453,0.023440385,0.022987923,0.007959665
3148805,3147955,-0.04528159,-0.0049592834,-0.062890194
3151339,3150463,-0.022714367,0.011720071,-0.05208012
3153845,3152991,-0.016368568,0.01414833,-0.043077864
3156334,3155459,-0.007728164,0.016883995,-0.045599196
3158808,3157957,0.018334517,0.019410696,-0.032290947
3161397,3160470,0.035323225,0.016813282,-0.00884534
3163836,3162958,0.033131167,0.0088816285,0.0065289903
3166331,3165466,0.013857694,-0.0013990263,0.013174798
3168813,3167963,-0.0056332117,-0.0055737626,0.02126004
3171323,3170465,-0.0028972446,-0.0058239303,0.03067353
3173841,3172968,-0.0009124917,-0.009376666,0.030012084
3176324,3175467,-0.01229497,-0.007221756,0.025059994
3178873,3177974,-0.022457315,0.006328127,0.024474986
3181329,3180469,-0.032395653,0.018937577,0.020088153
3183854,3182978,-0.040210266,0.023445645,0.010542198
3186347,3185490,-0.040860504,0.026898984,0.0074186963
3188862,3188002,-0.028729722,0.029535938,0.012276858
3191330,3190476,-0.009883351,0.026988216,0.020203706
3193859,3192999,0.0063361917,0.013453976,0.024670223
3196328,3195475,0.015729822,-0.0069663003,0.026388947
3198857,3197997,0.006644813,-0.01610335,0.023033293
3201392,3200480,-0.01066602,-0.010409208,0.009613664
3203886,3203002,-0.011596065,-0.0050340164,-0.00533701
3206338,3205483,0.0062163947,-0.0085742865,-0.011575605
3208861,3208007,0.017436009,-0.017455105,-0.009667961
3211335,3210481,0.01683952,-0.024546787,-0.0038750682
3213871,3213012,0.023552854,-0.018988347,0.002617574
3216349,3215486,0.047358546,-0.008075667,0.013492273
3218913,3218017,0.06915474,-0.0029818146,0.015817903
3221345,3220485,0.068881266,0.0016924562,0.0025284013
3223890,3223033,0.048483405,0.0051434734,-0.008958953
3226348,3225491,0.040913943,0.0013937632,-0.014585021
3228846,3227996,0.047832813,0.0070559303,-0.017022476
3231356,3230492,0.06872294,0.017086748,-0.008502283
3233848,3232997,0.07880847,0.009761785,-0.0049550636
3236345,3235491,0.06101526,-0.0064927447,-0.018974297
3276362,3275515,0.014783609,-0.038215604,-0.030523375
3278870,3278012,0.0099416105,-0.022341486,-0.038586717
3281360,3280512,0.00015901169,-0.0064477324,-0.05392223
3283899,3283015,-0.0020478144,-0.0028343387,-0.055768892
3286373,3285512,0.0026181908,0.0060171387,-0.043875758
3288871,3288013,0.0061722985,0.02818042,-0.03722195
3291361,3290517,0.006112833,0.042696435,-0.031818856
3293889,3293015,0.003413275,0.041817617,-0.02198283
3296366,3295518,-0.0020377447,0.02899509,-0.01821316
3298886,3298017,-0.008245846,0.0153509835,-0.016931511
3301365,3300518,-0.011644942,0.010582297,-0.014565088
3303893,3303023,-0.013367732,0.010183204,-0.012106171
3306410,3305523,-0.012265937,0.0143464655,0.0021685846
3311383,3310524,0.026858034,0.023531802,0.034430657
3313874,3313023,0.046560317,0.007817855,0.044003315
3316379,3315524,0.0509223,-0.0102577675,0.041485887
3318882,3318025,0.05523753,-0.023075461,0.027162613
3321395,3320529,0.06323213,-0.029245537,0.014677722
3323913,3323038,0.045798697,-0.027497215,0.005520796
3326382,3325531,0.0029678438,-0.024890186,-0.006837591
3328883,3328029,-0.027025262,-0.023143442,-0.019050824
3331386,3330533,-0.036956076,-0.014565863,-0.023577124
3333886,3333031,-0.031929396,0.0025419367,-0.015357968
3336380,3335532,-0.001796152,0.016373366,0.00050895044
3338890,3338033,0.03764581,0.019164726,0.015541143
3343909,3343039,0.089492224,0.011259151,0.03280923
3346387,3345539,0.08625493,0.013511628,0.022548623
3348894,3348037,0.048034374,0.028248193,0.0041655065
3351404,3350541,0.006510099,0.041501503,-0.011116734
3353896,3353039,-0.030523838,0.03940151,-0.013192355
3356424,3355560,-0.06632175,0.026535673,-0.008821289
3358912,3358042,-0.10197171,0.0066852975,-0.006193933
3361414,3360542,-0.13098411,-0.01254566,-0.007264456
3363910,3363047,-0.14184779,-0.018748956,0.0034090867
3366419,3365555,-0.13326666,-0.016790172,0.020541642
3368901,3368045,-0.11782158,-0.018622149,0.020003986
3371400,3370547,-0.09119005,-0.025671488,0.014742638
3373904,3373048,-0.04647301,-0.032421645,0.01649788
3378906,3378050,0.055853482,-0.055139184,0.0065850886
3381420,3380551,0.08932365,-0.049505323,-0.0015052534
3383931,3383056,0.094761774,-0.028188681,-0.00821302
3386418,3385568,0.091150604,-0.0071457317,-0.015940974
3388921,3388054,0.09417663,0.0038332762,-0.020401012
3391409,3390564,0.09253168,0.008292574,-0.01769318
3393912,3393056,0.0845931,0.014196876,-0.02026659
3396401,3395553,0.059589986,0.021022454,-0.025610859
3398953,3398058,0.02009031,0.027244253,-0.01569418
3401427,3400559,-0.014040544,0.03210568,0.002630586
3403933,3403064,-0.040122133,0.027835019,0.016701253
3406421,3405571,-0.06712924,0.018826684,0.02542897
3413936,3413064,-0.07749539,0.02143766,0.027315017
3416436,3415565,-0.051362697,0.029229043,0.012676283
3418922,3418066,-0.042544004,0.02868816,-0.0035141972
3421438,3420578,-0.038365036,0.02680815,-0.014541024
3423935,3423072,-0.017702363,0.017131444,-0.014344384
3426420,3425572,0.006900099,0.008274987,-0.011380902
3428926,3428070,0.019848324,0.004349963,-0.008811634
3431419,3430571,0.033851862,0.007437361,-0.0069151446
3433938,3433072,0.056013282,0.013157864,-0.009286042
3436434,3435581,0.0661075,0.017767882,-0.012033511
3438948,3438076,0.053291142,0.02326272,-0.011046158
3441478,3440598,0.02871541,0.017963596,-0.003519094
3443943,3443080,0.010661599,0.010282071,-0.00032809234
3446431,3445584,-0.008121417,0.0014514722,-0.012717816
3483962,3483099,0.06082412,-0.00454346,0.037550796
3486441,3485594,0.081393674,-0.00599182,0.043008626
3488959,3488095,0.098686606,-0.0022415419,0.03331973
3491454,3490610,0.1052323,-0.007377445,0.022244122
3493983,3493124,0.104192935,-0.015925838,0.014669442
3496469,3495607,0.09863985,-0.019479757,0.00042627793
3499009,3498101,0.0785297,-0.023727814,-0.015545647
3501486,3500602,0.035221945,-0.009982578,-0.01721001
3503958,3503102,-0.014385756,0.019421056,-0.01945435
3506449,3505605,-0.041078456,0.03351031,-0.023416875
3508954,3508103,-0.04873728,0.032360666,-0.013442289
3511461,3510604,-0.042287238,0.024285696,-0.0036258649
3513964,3513105,-0.013862754,0.013819955,-0.003277643
3516475,3515606,0.008186099,0.0073779663,-0.00074131566
3518958,3518107,0.0019312431,0.013504177,0.0042594695
3521490,3520612,-0.0010815137,0.021546269,0.009276233
3523971,3523109,0.012757953,0.017465936,0.019143304
3526462,3525613,0.023653911,0.015025759,0.027780304
3528962,3528111,0.027850814,0.014979269,0.030982975
3531466,3530619,0.029601581,0.010915005,0.028693268
3533965,3533114,0.022986345,0.008438268,0.023673603
3536476,3535624,-0.0015067899,-0.002097331,0.023181304
3538983,3538117,-0.028073734,-0.022157857,0.03073066
3541474,3540620,-0.035372194,-0.038480774,0.033819556
3543972,3543120,-0.034947082,-0.044152513,0.0253323
3546551,3545653,-0.038158756,-0.03768014,0.017343584
3548970,3548119,-0.046360742,-0.027875476,0.006987799
3551468,3550621,-0.04953575,-0.019826153,-0.008776515
3553973,3553122,-0.04900317,-0.022351649,-0.012472824
3556467,3555623,-0.049003087,-0.03120694,-0.003917252
3558988,3558124,-0.054306094,-0.03576245,0.00081611745
3561493,3560628,-0.06738369,-0.034744117,-0.009172356
3571473,3570629,0.04759185,0.02791994,-0.018960243
3573986,3573130,0.06773663,0.031729203,-0.016312482
3576478,3575634,0.058336582,0.0256229,-0.011671287
3579006,3578139,0.033059116,0.016593156,-0.007550498
3581485,3580637,0.015050572,0.012033468,-0.004050396
3583985,3583134,0.006642457,0.0076978644,0.00035432779
3586485,3585635,-0.0064484593,0.0043472582,-0.0029393355
3588987,3588136,-0.027858475,0.010885415,-0.009794201
3591525,3590640,-0.030666372,0.027477363,-0.007859987
3593989,3593138,-0.009686753,0.04766467,-0.002914624
3596486,3595639,0.0077151563,0.05780698,-0.0039551416
3631522,3630674,-0.012079682,0.01033853,-0.018892517
3634020,3633166,-0.028254729,0.02407069,-0.023042759
3636503,3635656,-0.041008864,0.020825906,-0.022541558
3639034,3638159,-0.049681924,0.009339271,-0.011320797
3641519,3640670,-0.062297173,0.00035439216,0.00014854428
3644017,3643159,-0.07795769,-0.0023977158,0.006740302
3646507,3645660,-0.091240406,-0.0014995745,0.015418955
3684031,3683180,0.012450837,-0.006242439,-0.007711523
3686549,3685687,0.023109114,0.0017912263,-0.012265029
3689029,3688178,0.050958596,0.015542637,-0.0132202655
3691547,3690680,0.05957945,0.029021755,-0.002111854
3694030,3693179,0.0421556,0.03167149,0.007884517
3696527,3695683,0.028036937,0.024945237,0.012920427
3699081,3698203,0.028006407,0.00839761,0.0074120522
3701530,3700682,0.022695282,-0.009400009,-0.007717223
3704050,3703183,0.016647832,-0.020339586,-0.021667354
3706539,3705694,0.020229816,-0.023023993,-0.030930638
3709082,3708217,0.026509127,-0.01680072,-0.033312317
3711539,3710687,0.028263213,-0.012823596,-0.036239196
3714044,3713187,0.020013947,-0.0035322271,-0.04139142
3716543,3715698,0.02000278,0.010771872,-0.040524494
3719079,3718202,0.025766572,0.016277874,-0.02890903
3721535,3720687,0.019682845,0.017510176,-0.015243989
3724044,3723192,0.012978441,0.018751744,-0.004054878
3726540,3725695,0.008065693,0.02143865,0.005375476
3729059,3728194,-0.00055065955,0.01617572,0.008412649
3731541,3730695,0.001909082,0.0016976808,0.0027547746
3734048,3733196,0.003963925,-0.0033903343,-0.0065807938
3736673,3735751,-0.0102748815,0.008084463,-0.0146266855
3739079,3738201,-0.019558478,0.029400524,-0.02029751
3741584,3740710,-0.009592478,0.03644686,-0.022739174
3744069,3743206,-0.0020960749,0.030767415,-0.022190273
3746548,3745701,-0.005041148,0.030007998,-0.006701603
3749062,3748202,-0.0029969846,0.02838672,0.016769858
3751556,3750711,0.001371505,0.015487274,0.02756208
3754061,3753204,0.0023288962,-0.000778904,0.027632788
3756557,3755710,0.0048063826,-0.00853,0.0293401
3759079,3758210,0.0019310013,-0.0050472096,0.034381915
3761550,3760702,-0.0044457475,0.007981271,0.034983832
3764073,3763208,-0.008988447,0.017351365,0.031507023
3766561,3765715,-0.014434864,0.010640555,0.030392617
3769084,3768230,-0.017347284,0.0030020804,0.030500213
3771555,3770708,-0.019866852,0.008486949,0.028324299
3774079,3773212,-0.020742424,0.008528073,0.029476881
3776563,3775719,-0.0101534175,-0.003909363,0.03666595
3779081,3778218,0.001414593,-0.015885217,0.040360432
3781580,3780730,0.0103537105,-0.024673931,0.03764826
3784074,3783216,0.025912846,-0.023004716,0.028005235
3786574,3785730,0.032125227,-0.013227632,0.016530374
3789076,3788218,0.027120993,-0.013251695,0.012421066
3791581,3790733,0.02171214,-0.02519922,0.0129145095
3794073,3793221,0.020780548,-0.03523641,0.004454898
3796617,3795744,0.03189575,-0.024129303,-0.010927722
3799090,3798233,0.04397312,-0.0041206065,-0.014069555
3801598,3800743,0.034240425,0.008665381,-0.0157714
3804077,3803226,0.015095077,0.016295332,-0.024027128
3806599,3805744,0.008463759,0.018407675,-0.02400666
3809084,3808233,0.005171443,0.014122128,-0.020606494
3811598,3810748,-0.019491836,0.010103091,-0.021438332
3814097,3813232,-0.046939146,0.016727062,-0.025737956
3816646,3815753,-0.0535858,0.027033474,-0.02262119
3819117,3818246,-0.048871502,0.026789628,-0.012220575
3821582,3820730,-0.043787263,0.014367824,-0.010016123
3824087,3823237,-0.035432443,0.0047721458,-0.022238344
3826610,3825763,-0.017398827,0.0048240004,-0.03464236
3829109,3828244,-0.007072735,0.0072692707,-0.041790426
3831650,3830791,-0.010097692,-0.003802809,-0.04381823
3834111,3833250,-0.0054615424,-0.022527855,-0.04214282
3836606,3835745,0.018937834,-0.026055008,-0.034752797
3839115,3838248,0.045185823,-0.027428249,-0.02627498
3841607,3840754,0.050333776,-0.031804144,-0.010810273
3844113,3843250,0.046543945,-0.030505667,0.0048117405
3846596,3845749,0.04247885,-0.022849267,0.016322928
3849109,3848243,0.024465522,-0.009923776,0.026057614
3851598,3850754,0.0026279564,-0.0042612366,0.03009867
3854112,3853259,-0.017165242,-0.0037559627,0.032390878
3856613,3855753,-0.046072006,-0.0004288789,0.02697624
3859115,3858251,-0.074968144,-0.0030189692,0.016163416
3861621,3860766,-0.08512394,-0.009515784,0.013318469
3864119,3863251,-0.08501652,-0.015034394,0.01135731
3866605,3865750,-0.073090725,-0.022018941,0.015274958
3869109,3868254,-0.05015313,-0.028951896,0.02543526
3871609,3870752,-0.03423734,-0.03051461,0.023400133
3874151,3873258,-0.017107245,-0.023454761,0.012946443
3876669,3875754,0.0039493293,-0.010319548,0.001526552
3879123,3878259,0.01778926,0.003625466,-0.0034253988
3881614,3880757,0.027888695,0.010558562,0.0054584714
3884128,3883269,0.030958528,0.0106609,0.012744234
3886612,3885759,0.02301622,0.013161196,0.010670048
3889120,3888262,0.010354242,0.023609288,0.01100648
3891613,3890760,-0.00057371135,0.03152348,0.011800357
3894138,3893277,-0.014121891,0.026644817,0.003162038
3896634,3895762,-0.020766947,0.022550562,-0.003377075
3899131,3898267,-0.012260067,0.025869204,0.005619119
3901625,3900765,-0.012580172,0.031920727,0.014707944
3951669,3950795,-0.0037527916,-0.020941095,-0.0059109787
3954146,3953292,-0.010408111,-0.0144231925,0.0033143635
3956660,3955801,-0.015418488,-0.008402319,0.018413387
3959161,3958287,-0.009008841,-0.010986121,0.03180147
3961639,3960790,0.00396919,-0.013924817,0.03985148
3964170,3963304,0.012603093,-0.0046921764,0.04494687
4009162,4008311,-0.019396467,-0.013243161,0.02358766
4011699,4010846,-0.0054277154,-0.006101724,0.027544921
4016688,4015817,-0.0020904702,0.006295078,0.012263933
4019246,4018317,0.006133644,0.002449751,-0.0026584137
4021679,4020817,0.012119487,-0.0023705885,-0.003019115
4024198,4023339,0.012217193,-0.004224556,-0.0037251518
4026676,4025823,0.025951123,-0.008912239,-0.01900049
4029177,4028324,0.040229186,-0.0067961225,-0.040764354
4031672,4030818,0.04000383,0.0035882432,-0.054311763
4034193,4033322,0.034665707,0.009392819,-0.044905163
4036678,4035824,0.0294538,0.010684712,-0.019706806
4039175,4038324,0.016360834,0.014197826,-0.0032664742
4041694,4040823,-0.003322437,0.011316184,-0.0014829327
4044188,4043332,-0.028464068,-0.00469299,-0.0067805313
4046682,4045828,-0.055866584,-0.014809373,-0.015507165
4049180,4048328,-0.07311487,-0.00506863,-0.018542726
4051681,4050829,-0.07928933,0.0014547027,-0.010196511
4054189,4053328,-0.07495273,-0.0044458634,-0.0018143833
4056697,4055832,-0.06478713,-0.008612689,0.0013885689
4059182,4058332,-0.05654101,-0.011567958,-0.004363619
4061685,4060833,-0.0533083,-0.015281733,-0.018454272
4064190,4063340,-0.05145334,-0.016730743,-0.023475634
4066701,4065836,-0.038096495,-0.014895938,-0.016255517
4069184,4068334,-0.014347794,-0.0050952444,0.0003083282
4071702,4070844,0.0073417253,0.004616169,0.018653259
4074212,4073338,0.023064423,0.006347109,0.029809045
4076709,4075848,0.03777283,0.0104573425,0.034625348
4079191,4078341,0.05011311,0.013994683,0.031830885
4081683,4080839,0.057351395,0.00874858,0.028350908
4099207,4098349,0.08647117,0.018551832,0.01374229
4101695,4100849,0.050533168,0.014803186,0.00601816
4104204,4103348,0.008828511,-0.004107658,-0.008934491
4106698,4105852,-0.03650741,-0.022220636,-0.021020869
4109227,4108353,-0.070286855,-0.02090188,-0.018597545
4111762,4110854,-0.099040695,-0.0011549369,-0.0026996625
4114231,4113355,-0.12993553,0.022681484,0.015747907
4116751,4115857,-0.14801581,0.03764989,0.019811729
4119207,4118357,-0.15084071,0.038837455,0.016930792
4121702,4120858,-0.14845774,0.032701302,0.01716998
4124215,4123359,-0.14214653,0.023599215,0.009462085
4126717,4125858,-0.12659311,0.0152481245,-0.0064393184
4129240,4128380,-0.1131706,0.01825311,-0.01706597
4131720,4130869,-0.117677085,0.018804371,-0.016070787
4134253,4133363,-0.11522055,-3.342156e-05,-0.012081194
4136722,4135865,-0.08660584,-0.013805313,-0.012756598
4139215,4138364,-0.03207128,-0.012734597,-0.010085741
4141711,4140863,0.033555564,-0.012720435,-0.0029956799
4161761,4160872,0.045340065,-0.006390633,-0.021729447
4164248,4163376,0.04684022,0.004674094,-0.02154855
4166722,4165877,0.060575113,0.008543888,0.0020015894
4169232,4168378,0.049268465,0.0038664222,0.02321706
4171732,4170876,0.023028262,-0.0027576173,0.018862313
4174274,4173388,0.013382403,-0.00460341,0.0036225927
4176736,4175887,0.019134639,-0.010502628,-0.0042066975
4179240,4178383,0.027416857,-0.014386435,-0.010911418
4181735,4180891,0.040950168,-0.011811607,-0.015176697
4184252,4183384,0.06189974,-0.017675892,-0.013810744
4186731,4185882,0.0759409,-0.03089508,-0.007007569
4189248,4188383,0.079415716,-0.037048653,0.002048649
4191728,4190884,0.07040646,-0.027607886,0.0054903254
4194293,4193404,0.053524483,-0.012388807,-0.0032865154
4196746,4195890,0.047867298,-0.009968635,-0.019729914
4199266,4198389,0.02677175,-0.013742878,-0.027988264
4201733,4200889,-0.016748859,-0.0033979304,-0.02545314
4204270,4203392,-0.038007952,0.013078421,-0.02167804
4206737,4205892,-0.03959767,0.01813192,-0.01657214
4209301,4208394,-0.05180226,0.014785025,-0.005040523
4211789,4210893,-0.06503715,0.012935843,0.005586212
4214315,4213440,-0.062601745,0.00886219,0.0018923545
4216745,4215896,-0.046262942,0.005807494,-0.0063672448
4219264,4218406,-0.024517333,0.002979861,-0.0021090652
4221752,4220908,-0.02457861,-0.0089867795,0.00974399
4229285,4228403,-0.0013990385,-0.0032199705,0.0046534943
4231745,4230901,0.0022567653,-0.003646624,0.0031888853
4234292,4233415,0.010605326,0.0025587291,0.006056236
4236756,4235907,0.005696789,0.012162505,0.0048742145
4239262,4238407,-0.008159322,0.0035719946,0.0020730775
4241755,4240905,-0.015217531,-0.01869841,-0.008268984
4244276,4243408,-0.025631733,-0.03450619,-0.025482537
4246761,4245908,-0.02753749,-0.03360221,-0.0377011
4249265,4248411,-0.019650582,-0.026363814,-0.039566327
4251753,4250909,-0.02192989,-0.024927234,-0.030371679
4254294,4253414,-0.028679762,-0.018899249,-0.0130821075
4256803,4255918,-0.027924148,-0.012907502,0.004664377
4309307,4308435,0.07421335,-0.0127195725,0.02110022
4311824,4310942,0.042549867,-0.016514722,0.016847158
4314349,4313488,0.015037444,-0.019554298,0.012536092
4316835,4315947,-0.008507929,-0.02468554,0.009301437
4319339,4318469,-0.03606627,-0.02675503,0.013025453
4321785,4320941,-0.053225562,-0.017475486,0.014391186
4324313,4323442,-0.061967257,-0.003484919,-0.0018866869
4326805,4325940,-0.072149545,-0.0043678586,-0.02328055
4329307,4328441,-0.07094103,-0.0129891755,-0.03307885
4331810,4330942,-0.0620849,-0.022098523,-0.031387497
4334323,4333451,-0.042399548,-0.022828167,-0.029453563
4336834,4335946,-0.019531155,-0.011407675,-0.027282478
4339317,4338454,-0.0026197045,-0.0010453243,-0.022891857
4341801,4340946,0.013468616,0.007031448,-0.026503313
4344322,4343450,0.022749932,0.013505107,-0.032618143
4346821,4345952,0.025413444,0.022403482,-0.030678928
4349357,4348455,0.014988126,0.03595024,-0.02725979
4351847,4350980,-0.007629656,0.044468716,-0.025934983
4354339,4353466,-0.008822189,0.04169635,-0.021678912
4356837,4355953,0.0141833685,0.03026948,-0.013262967
4359342,4358459,0.02578466,0.029296339,-0.011034509
4361798,4360954,0.017883392,0.028054833,-0.014137766
4364353,4363459,0.0063220244,0.011756042,-0.014857802
4366809,4365960,-0.0035286176,-0.005373817,-0.019506851
4369312,4368452,-0.019872518,-0.014664968,-0.024676125
4371839,4370956,-0.034999672,-0.011884405,-0.023570383
4374356,4373489,-0.032027334,-0.009218733,-0.015295493
4389342,4388473,0.0058633913,-0.012038434,0.0078199515
4391842,4390977,0.0074000093,-0.019946817,0.006047274
4394370,4393495,0.005331699,-0.022100601,0.004780656
4396826,4395978,0.0030900226,-0.014167318,0.0073821754
4399351,4398478,-0.0021925662,-0.0033043325,0.012293179
4401817,4400973,-0.007274126,0.0064046625,0.010007052
4404374,4403511,-0.010164244,0.006335599,-0.010314178
4406825,4405977,-0.00810989,-0.011150379,-0.024180964
4409351,4408489,-0.0011303223,-0.02385958,-0.010547172
4411912,4410998,0.008463287,-0.009072693,0.0009545685
4414377,4413506,0.012338005,0.013041487,-0.0059692096
4416867,4415981,-0.0013011,0.015718468,-0.013607563
4419359,4418498,-0.02393727,0.011762711,-0.011686951
4421823,4420979,-0.038869765,0.0109986905,-0.011198909
4429392,4428512,-0.040982362,0.0045768223,-0.023555147
4431871,4431001,-0.025425825,0.0106376195,-0.013388089
4434382,4433520,-0.019095577,0.004102219,0.0005880383
4436887,4435996,-0.018494708,-0.016257335,0.011750237
4439384,4438528,-0.012984492,-0.03134533,0.012004847
4441832,4440987,-0.010389937,-0.025546227,0.0067220735
4444359,4443498,-0.019926539,-0.006333995,0.015770312
4446849,4445993,-0.030825097,0.0032803458,0.033957254
4449384,4448498,-0.028018821,0.00152841,0.03799392
4451867,4451010,-0.013523734,0.0033228418,0.032326616
4454375,4453512,0.00068965147,0.0076199463,0.02927664
4484376,4483505,0.05895732,0.0034003886,0.0035485958
4486857,4486010,0.0606086,0.001377651,0.005365608
4489415,4488530,0.060508404,-0.018801998,0.0048220423
4491869,4491012,0.046753127,-0.032829683,-0.00558362
4494380,4493512,0.03355181,-0.023319572,-0.012701936
4496909,4496014,0.025614478,-0.00870835,0.00059417414
4499388,4498526,0.009930269,-0.001327283,0.020870876
4501866,4501022,-0.0132313995,0.0017113426,0.022354774
4504400,4503516,-0.024846759,0.011798371,0.0073989546
4506866,4506018,-0.0117189335,0.017544748,-0.0057106786
4509396,4508516,0.010429599,0.0024552543,-0.005463831
4511899,4511035,0.023921464,-0.013705304,0.0060003106
4514400,4513532,0.034598604,-0.012918605,0.008885096
4516913,4516021,0.044876877,-0.01042303,-0.0029957884
4521875,4521021,0.014868066,0.013668955,-0.027834525
4524382,4523522,-0.0008986462,0.027910259,-0.038179338
4526871,4526025,-0.018482966,0.023991508,-0.03727523
4529398,4528526,-0.042518124,0.01195638,-0.024993127
4531877,4531029,-0.06015442,0.014497823,-0.02293512
4534386,4533526,-0.06560205,0.026088223,-0.031919245
4536920,4536033,-0.076774046,0.027860364,-0.027108423
4539396,4538528,-0.09499047,0.016467052,-0.006477918
4541874,4541030,-0.09130478,0.0027848482,0.015790189
4544396,4543540,-0.06481787,-0.0021375893,0.030677479
4546880,4546035,-0.04143352,-0.004195244,0.03147329
4549428,4548533,-0.022776604,-0.0038298685,0.019917088
4551893,4551045,-0.01953502,-0.009499713,0.01179113
4574461,4573582,0.027869787,-0.014439548,-0.010819082
4576901,4576054,0.03821239,-0.009141994,-0.007874235
4579403,4578545,0.041842755,-0.0053000515,-0.004010744
4581890,4581046,0.03918842,0.0024407653,-0.0046089017
4584406,4583549,0.048851285,0.01469633,-0.0026674597
4586901,4586047,0.06254852,0.022049753,0.003942742
4589441,4588549,0.05339632,0.019888502,0.003985713
4591901,4591053,0.033943325,0.016952004,0.0037991656
4594421,4593561,0.027483398,0.020495966,0.011876777
4596906,4596055,0.03109812,0.024764068,0.016496481
4599433,4598561,0.021606272,0.03435785,0.010860119
4601919,4601067,0.0059423726,0.048562005,0.0025473866
4604425,4603558,0.004248026,0.052846104,-0.005662243
4606912,4606059,-0.008955439,0.045443214,-0.009834046
4614438,4613565,-0.07478951,0.00762658,0.009072697
4616917,4616069,-0.057843655,0.0031117853,0.0061108745
4619450,4618575,-0.036748476,-0.010711511,0.00044048287
4621918,4621062,-0.042241953,-0.02032676,-0.006768612
4624421,4623563,-0.05723058,-0.023781309,-0.010509357
4626979,4626121,-0.044127665,-0.031050397,-0.016452698
4629453,4628579,-0.03152989,-0.04259967,-0.029453738
4631918,4631070,-0.023129985,-0.047584,-0.04369089
4634427,4633570,0.0017494196,-0.04102979,-0.056288533
4636953,4636071,0.02096323,-0.030824691,-0.055840068
4639438,4638569,0.02661775,-0.028689621,-0.040138494
4641924,4641070,0.029653206,-0.03234419,-0.024659194
4704446,4703596,-0.09433501,0.013517769,-0.009983417
4706965,4706103,-0.09697056,0.004257262,0.0057050474
4709496,4708619,-0.07945479,0.0042784945,0.023477953
4712018,4711157,-0.056838103,0.0014808323,0.021606786
4714457,4713603,-0.03507882,-0.0057754563,0.005076346
4716995,4716101,-0.008192694,0.0022503857,-0.011526143
4719455,4718603,0.010689842,0.010991802,-0.01729284
4721947,4721103,0.026455138,-0.0016052276,-0.010159239
4724459,4723604,0.045785073,-0.018351449,0.0021530085
4726954,4726108,0.054702636,-0.022694664,0.014753131
4729486,4728610,0.03358445,-0.013563548,0.017130036
4731974,4731111,-0.0046107345,0.0008404618,0.007937049
4734465,4733611,-0.03607381,0.007927604,0.0023990404
4737002,4736121,-0.05795455,0.011501834,0.004626373
4739475,4738611,-0.059681296,0.017724864,0.014826029
4741956,4741112,-0.04736999,0.015450608,0.020352898
4744471,4743613,-0.04785491,0.0046277535,0.014319829
4746966,4746118,-0.050883744,0.0067140735,0.012003697
4749485,4748619,-0.045896776,0.016070435,0.016674016
4751967,4751120,-0.042749,0.010246224,0.01827269
4754472,4753619,-0.031873435,-0.001966436,0.016637748
4757004,4756118,-0.0035938746,-0.010849405,0.016764645
4759473,4758619,0.022818288,-0.013837829,0.013411269
4761964,4761120,0.03640902,-0.0036718538,0.007120419
4764480,4763629,0.040904187,0.0073134247,0.006613355
4777017,4776126,0.0035998807,0.032681298,-8.826687e-05
4779480,4778627,0.0001370126,0.038386613,0.0070539024
4781974,4781128,0.013120277,0.040805966,0.0075254287
4784481,4783629,0.035410028,0.031118313,0.011280463
4786999,4786132,0.04944564,0.014236808,0.020324124
4789491,4788635,0.04617307,0.004135325,0.022719406
4791990,4791136,0.03732551,0.00018190767,0.019808432
4794501,4793636,0.0370302,-0.00925418,0.017439388
4797030,4796136,0.020131333,-0.022033416,0.013042381
4799509,4798640,-0.016073382,-0.021478068,0.010103818
4801980,4801137,-0.05256897,-0.007294863,0.009146692
4804498,4803638,-0.08665218,0.005023221,0.002573286
4807011,4806142,-0.103269234,0.0055425595,-0.010064254
4809497,4808643,-0.10774084,-0.002070247,-0.023242893
4812032,4811144,-0.10503022,-0.00525931,-0.032352474
4814529,4813647,-0.0816843,-0.0021208704,-0.03441926
4817031,4816146,-0.048708748,-0.007992269,-0.031951882
4819494,4818644,-0.020955505,-0.020875162,-0.027844049
4821991,4821145,-0.012818299,-0.022719095,-0.020708568
4824520,4823649,-0.013692701,-0.018453503,-0.017444817
4827019,4826151,0.00017727514,-0.011765672,-0.019304425
4829528,4828665,0.010184627,0.0008779771,-0.01822585
4831996,4831153,0.010192377,0.0054868674,-0.01502539
4834510,4833657,0.016431762,-0.004639504,-0.022335656
4837052,4836157,0.030485587,-0.014023855,-0.038073305
4839502,4838652,0.049162075,-0.021885894,-0.038804702
4841997,4841153,0.06152729,-0.03743928,-0.027235506
4854510,4853660,0.016179636,0.022839542,-0.0125985285
4857045,4856168,0.019369505,0.03319842,0.0067300866
4859513,4858660,0.02361311,0.044864934,0.018486865
4862005,4861162,0.01609022,0.047382247,0.023340203
4864513,4863663,0.018633772,0.039789554,0.023702644
4867040,4866166,0.026119031,0.035515647,0.019095926
4869525,4868671,0.023376103,0.036580343,0.015983429
4872036,4871175,0.024982465,0.029370507,0.014908135
4874523,4873669,0.02919654,0.01945695,0.012631763
4877064,4876170,0.030287433,0.020464892,0.016366662
4879524,4878669,0.032357566,0.020938173,0.021573776
4882018,4881170,0.026536627,0.01030264,0.01939523
4892030,4891181,0.21814275,-0.03178617,0.017005932
4894531,4893678,0.08945149,-0.016891738,0.044163276
4897079,4896182,-0.08450055,-0.0128317205,0.04381326
4899543,4898677,-0.20089276,-0.030457234,0.0433931
4902062,4901204,-0.23925452,-0.018917605,0.04274041
4904532,4903679,-0.25343502,0.010566843,0.024501685
4907058,4906194,-0.26665068,0.014292747,0.013522045
4909553,4908691,-0.21829216,0.033171795,-0.0005815638
4912067,4911194,-0.09632891,0.04442126,-0.004940791
4914536,4913686,-0.024870275,0.034726895,0.06816669
4917069,4916184,0.0017028888,0.0019405662,0.118137464
4919545,4918685,0.08200935,-0.027816977,0.052791297
4922031,4921187,0.23295759,-0.025787624,-0.04366133
4927074,4926205,0.31214115,-0.027075853,-0.157909
4929569,4928706,0.2392952,0.012555911,-0.14058506
4932034,4931191,0.08748356,0.04972438,-0.11928139
4934635,4933768,-0.034343828,0.0668944,-0.13736239
4937086,4936196,-0.032833483,0.04435347,-0.17452766
4939583,4938693,-0.05492836,-0.027085189,-0.08151311
4942043,4941197,-0.08257626,-0.07311422,0.08067609
4944564,4943696,-0.040426094,-0.073731005,0.112375304
4947074,4946210,-0.030121861,-0.042299047,0.043420598
4949552,4948698,-0.123493515,0.0066437214,0.026133742
4952056,4951202,-0.19366337,0.060523137,0.063403115
4954567,4953711,-0.17574877,0.113271505,0.095470585
5024590,5023729,0.019512111,-0.043419477,-0.009293948
5027114,5026255,0.067201026,-0.093802735,-0.07901156
5029595,5028732,0.007493937,-0.12889381,-0.08091983
5032121,5031268,-0.068772696,-0.12297792,-0.07374773
5034587,5033733,-0.020759521,-0.0853867,-0.05136471
5037154,5036265,0.066853195,-0.038335122,0.0028600835
5039608,5038755,0.06383033,0.013564675,0.044688195
5042124,5041265,0.023109624,0.06108836,0.05436846
5044611,5043737,0.07291229,0.10276205,0.058403432
5047118,5046260,0.09622956,0.121672064,0.030742506
5049598,5048745,0.04786064,0.10190412,-0.03533423
5052101,5051256,0.0071626194,0.072430454,-0.07086332
5054600,5053747,0.00010021894,0.03974758,-0.106729716
5072132,5071276,-0.047375966,0.0034864563,0.11724454
5074610,5073749,-0.0053413943,-0.12907894,0.14265034
5077143,5076260,0.07186585,-0.19423175,0.07769536
5079616,5078752,0.12097023,-0.18495966,-0.0005307595
5082106,5081255,0.09943176,-0.1305486,-0.04869009
5084627,5083753,0.062532924,-0.039583355,-0.10336658
5087115,5086258,0.0010996717,0.06748259,-0.090661325
5089625,5088769,-0.015954625,0.13434449,-0.04650938
5092123,5091261,-0.0132767195,0.09825753,-0.09074005
5094618,5093767,-0.124172606,0.050828807,-0.11657531
5097156,5096261,-0.19423248,0.068059176,-0.03224499
5109634,5108764,-0.17069933,-0.11846819,0.07900596
5112118,5111268,-0.10430506,-0.11361019,0.045866612
5114648,5113766,-0.09435635,-0.10513358,-0.00080143893
5117194,5116283,-0.08692316,-0.028075842,-0.015813058
5119666,5118771,-0.05489572,0.050443396,-0.020891637
5122122,5121279,-0.019356322,0.043572567,-0.004190209
5124678,5123815,0.039188907,0.028881468,0.017540338
5127137,5126285,0.15725608,-0.005422786,-0.0048978804
5129642,5128772,0.24027906,-0.0638248,-0.06486645
5132126,5131282,0.20335129,-0.03368067,-0.1105344
5134625,5133774,0.14082031,0.033172015,-0.078588895
5137153,5136293,0.10890803,0.043739256,0.017907348
5139650,5138776,0.04178641,0.01628633,0.04721239
5142137,5141293,0.0025181624,0.015703164,0.020116402
5149634,5148781,0.019079039,-0.010803491,0.13064066
5152138,5151288,0.07064823,-0.0129952375,0.17482762
5154636,5153786,0.18784086,0.026751293,0.13861085
5157183,5156292,0.25249392,0.036779065,0.061015546
5159642,5158785,0.1854917,0.005077632,-0.02287093
5162163,5161309,0.09743861,-0.01917938,-0.04552023
5164677,5163801,0.01615314,-0.07187964,-0.045452453
5167145,5166293,-0.05278921,-0.12390664,-0.0444586
5169643,5168790,-0.06760677,-0.08064659,-0.07010771
5172185,5171307,-0.13506879,-0.02225924,-0.13664716
5174644,5173791,-0.22660139,-0.022021053,-0.12979689
5177220,5176328,-0.16349526,-0.030484205,-0.06459885
5179644,5178793,-0.014225434,-0.038248267,-0.038149234
5184683,5183801,0.14092007,-0.01855544,0.010828066
5187154,5186300,0.21568717,0.011036396,0.09038301
5189671,5188807,0.10829968,0.06140562,0.09987794
5192164,5191305,-0.08744982,0.07020814,0.00051240454
5194650,5193799,-0.2133731,0.0010749046,-0.06800905
5197196,5196303,-0.24865396,-0.076638386,-0.04720934
5199654,5198801,-0.28991786,-0.033250324,0.013283278
5202161,5201304,-0.30279425,0.061348874,0.05007068
5204697,5203807,-0.18378833,0.05286939,0.04215979
5207165,5206308,9.1233116e-05,0.004351354,0.06673972
5209702,5208836,0.1441405,0.01184701,0.08502864
5212161,5211309,0.16110761,0.050789747,0.02434789
5214660,5213807,0.031206602,0.03528326,-0.07317621
5217217,5216313,-0.13032497,-0.013524432,-0.115070045
5224679,5223815,0.0386994,0.111620724,0.0022839068
5227183,5226326,0.09092681,0.065003425,-0.054749
5229675,5228822,0.0555657,0.020915767,-0.0340207
5232166,5231315,0.072970554,-0.00036330175,-0.01343021
5234667,5233816,0.1512915,0.0072861747,-0.02149778
5237221,5236333,0.17389667,0.012840189,-0.026062325
5239671,5238818,0.14119127,-0.016175592,-0.02050807
5242174,5241319,0.1109046,-0.10014361,0.036026657
5244678,5243824,0.037983216,-0.1328317,0.08881053
5247206,5246337,-0.03946095,-0.030453654,0.07329051
5249675,5248822,-0.023725618,0.06547235,0.0040961327
5252173,5251323,0.015708666,0.08554687,-0.060872413
5264686,5263832,0.10767625,-0.007863653,0.05943611
5267188,5266333,0.104126595,0.06186769,0.048643216
5269737,5268831,0.04374793,0.063556895,-0.011696199
5272206,5271340,-0.10029131,0.037663814,-0.06563862
5274685,5273833,-0.19743082,0.060701463,-0.07409502
5277239,5276336,-0.19899099,0.1090466,-0.047955576
5279685,5278834,-0.18787463,0.08675766,-0.015369573
5282213,5281343,-0.12781566,0.0126418965,0.0317354
5284695,5283840,0.0076360116,-0.04054983,0.096077845
5287193,5286341,0.11577017,-0.022401454,0.12344558
5289711,5288839,0.07348986,0.031072361,0.08532575
5292190,5291340,-0.024834376,0.043291975,0.010702995
5362242,5361379,0.022421286,0.032673623,0.026395146
5364728,5363874,-0.17836381,0.060627606,0.06661742
5367243,5366374,-0.30042103,0.0185702,0.087845415
5369760,5368872,-0.2119758,0.011152943,0.052873652
5372217,5371373,-0.07251786,0.032585863,-0.020572662
5374732,5373877,-0.00086329354,0.015531589,-0.0498704
5377277,5376383,0.083938956,-0.0061819972,-0.0319681
5379734,5378876,0.122599475,0.02837508,-0.022452189
5382249,5381388,0.057084545,0.054236192,-0.035139028
5384736,5383882,-0.017178845,0.0060095326,-0.03959854
5387234,5386383,-0.0677829,-0.04977269,0.008422283
5389739,5388886,-0.16990983,-0.08938799,0.04507617
5392233,5391384,-0.29261804,-0.08330547,0.014618163
5402283,5401401,0.036493305,-0.04564668,-0.07451985
5404744,5403890,-0.07218049,-0.061251763,-0.04052806
5407244,5406390,-0.12475149,-0.028467178,0.043980103
5409742,5408889,-0.11612039,0.00641584,0.044232838
5412348,5411398,-0.10672492,0.03782157,-0.001370374
5414742,5413892,-0.16379678,0.071488716,0.00954881
5417289,5416393,-0.20415393,0.04244686,0.019091483
5419743,5418893,-0.14285213,-0.024838373,-0.029797992
5422280,5421407,0.061229087,-0.049640898,-0.055335432
5424753,5423898,0.24718107,-0.06526791,-0.026291916
5427254,5426399,0.29603502,-0.092309386,-0.004136072
5429750,5428897,0.31666866,-0.09302769,0.0073537393
5432296,5431430,0.27489877,-0.092246346,0.009029632
5439752,5438901,-0.15862104,0.06469946,-0.017411282
5442287,5441409,-0.054381646,0.055185597,0.04332242
5444760,5443907,0.07018223,0.079219654,0.06225282
5447257,5446407,0.11201629,0.15577218,0.050886627
5449772,5448905,0.12614399,0.21145703,0.03798987
5452255,5451406,0.16107854,0.19971563,-0.0030955141
5454760,5453910,0.18004987,0.10595096,-0.007405995
5457321,5456416,0.12342442,-0.021157857,0.053742487
5459765,5458909,0.06474425,-0.11425663,0.08757247
5462282,5461414,0.09352147,-0.14505953,0.0490457
5464789,5463913,0.0126733845,-0.12501729,0.005354575
5467267,5466415,-0.1766021,-0.08092456,-0.04657826
5509783,5508930,0.10229706,0.15220153,0.025274627
5512336,5511434,0.012593474,0.06624813,-0.049247935
5514823,5513932,-0.11095499,0.02411503,-0.0058011
5517303,5516443,-0.19061524,0.044985365,0.06253541
5519827,5518934,-0.18460001,0.0068527544,0.015916314
5522307,5521439,-0.056574315,-0.062476873,-0.068063766
5524817,5523940,0.119577944,-0.08768582,-0.105773814
5527307,5526441,0.25101373,-0.043445863,-0.11875268
5529799,5528938,0.3338849,-0.002720678,-0.110355854
5532294,5531439,0.3779898,0.0075053205,-0.028247403
5534791,5533941,0.30214158,0.02465297,0.080554985
5537333,5536454,0.118353985,-0.00056016474,0.12203568
5539817,5538943,-0.015255598,-0.045350056,0.11404066
5542312,5541447,-0.07754813,-0.0466275,0.085843585
5544804,5543948,-0.1239253,-0.041880004,0.0071935803
5547305,5546449,-0.16742478,-0.021598881,-0.07858252
5549816,5548952,-0.11825029,0.016871152,-0.038773116
5552306,5551448,0.038846597,0.075526126,0.054798227
5554802,5553952,0.14669834,0.10087611,0.07466355
5557326,5556453,0.19270371,0.032663878,0.079768
5559823,5558951,0.20991455,-0.042973194,0.1142345
5562325,5561456,0.19101994,-0.0963495,0.13775685
5564809,5563953,0.09757357,-0.100962535,0.09187165
5567334,5566464,-0.124486506,-0.012403355,-0.0099521885
5569822,5568967,-0.29408947,0.115774035,-0.08352965
5572317,5571458,-0.2581288,0.16627958,-0.10100717
5574812,5573960,-0.13826437,0.06485143,-0.081308484
5577381,5576460,-0.085220344,-0.01310464,-0.049785048
5579840,5578966,-0.05996158,0.0184843,-0.025031472
5582318,5581464,0.0151016265,0.015789982,-0.00031478275
5584827,5583971,0.07174088,-0.0339708,0.02172323
5587328,5586466,0.041362155,-0.056202613,0.013980959
5589857,5589004,-0.026604021,-0.056326304,0.012386859
5592325,5591464,-0.0776971,-0.052158985,0.03429283
5594840,5593962,-0.110800445,-0.027190203,0.0580174
5624839,5623989,0.079883814,-0.013245839,-0.0070606754
5627349,5626484,0.1891649,0.04413844,0.049928665
5629852,5628994,0.29042196,0.03292151,0.119138524
5632334,5631481,0.2632444,0.0026438963,0.11666137
5634858,5633998,0.0073415195,-0.030717641,0.024637548
5637412,5636486,-0.28473148,-0.10362339,-0.029800368
5639889,5639010,-0.32593548,-0.17298469,-0.008044278
5642353,5641489,-0.18408075,-0.12986954,0.0064886454
5644872,5644019,-0.061408162,0.022322385,0.013031312
5647355,5646496,0.015944293,0.09686404,0.04091959
5649876,5649017,0.15707977,0.06416317,0.060387015
5652343,5651489,0.31172428,0.06567642,0.011570304
5654909,5654055,0.29262394,0.07149053,-0.043543447
5657414,5656508,0.1906346,0.08519874,-0.025338614
5719900,5719028,-0.36218837,-0.056720164,-0.044585496
5722373,5721518,-0.2595357,-0.07608279,-0.05866086
5724888,5724019,-0.093569525,-0.047420833,-0.0140059125
5727369,5726523,0.16443098,0.007865566,0.07152494
5729882,5729021,0.3068214,0.06558937,0.06548332
5732376,5731522,0.28026173,0.073929735,0.024317568
5734890,5734023,0.24208847,0.025841221,0.005624103
5737434,5736528,0.15889199,0.0068489388,-0.018495109
5739894,5739029,0.019890623,0.03930062,-0.03354646
5742387,5741527,-0.020717245,0.030249903,-0.044435788
5767394,5766540,-0.24933164,0.031004598,0.042221706
5769891,5769038,-0.21273167,-0.03860198,0.05848104
5772425,5771554,-0.13770477,-0.05282905,0.052965894
5774912,5774040,-0.029465133,-0.034320883,0.045594625
5777457,5776551,0.06667348,0.00469667,0.0566909
5779908,5779046,0.10868404,0.012628753,0.05688692
5782391,5781545,0.07352563,-0.03165919,0.015591221
5784900,5784044,-0.015737986,-0.09484201,-0.05753994
5787402,5786548,-0.038738128,-0.13873285,-0.0975672
5789905,5789046,0.020507855,-0.11227294,-0.079017885
5792430,5791580,0.029122828,-0.023938004,-0.061648116
5794905,5794048,-0.092070654,0.06364852,-0.07438463
5797476,5796552,-0.16560829,0.097347945,-0.059764113
5799917,5799054,-0.039627995,0.076910794,-0.007083142
5802436,5801558,0.097289875,0.029591156,0.06622958
5804908,5804053,0.15000893,-0.04741841,0.11999996
5807402,5806557,0.18783334,-0.094360195,0.07324219
5809953,5809055,0.15558735,-0.072327755,-0.024125095
5812414,5811558,0.03603524,-0.057698373,-0.06066229
5814926,5814067,-0.049038805,-0.050298005,-0.059155963
5817470,5816560,-0.04461984,-0.009195924,-0.017568301
5819931,5819063,-0.042656295,0.04123744,0.0715484
5822414,5821563,-0.07929976,0.06953776,0.10951762
5824936,5824061,-0.0979059,0.041955844,0.09381596
5827417,5826565,0.004262302,-0.017992025,0.077882096
5834931,5834065,0.05775517,0.014075536,-0.029649608
5837479,5836579,-0.09749954,0.048659474,0.012058704
5839936,5839071,-0.14781743,0.072526656,0.038772214
5842426,5841568,-0.057202186,0.022912886,-0.022302944
5844939,5844075,0.044092286,-0.049847487,-0.0950867
5847421,5846573,0.03979035,-0.0098528005,-0.11158556
5849927,5849071,-0.064292274,0.060107686,-0.1405247
5852422,5851573,-0.1794379,0.046094887,-0.11815616
5854939,5854073,-0.19374473,-0.016124547,0.040472392
5857490,5856588,-0.07589601,-0.045204695,0.19766869
5859954,5859079,0.04670014,0.0009172088,0.20169374
5862430,5861577,0.086836465,0.06751446,0.09922629
5864933,5864078,0.16950613,0.06915675,0.014756468
5867427,5866582,0.30414188,0.04106783,-0.028525328
5879954,5879092,-0.18005465,-0.10084666,-0.026169216
5882434,5881588,-0.01869898,-0.08024915,0.01465807
5884942,5884086,-0.015252839,-0.019342653,0.031855624
5887457,5886587,-0.11719016,0.036511492,0.07451269
5889944,5889088,-0.1109856,0.019076193,0.11426692
5892457,5891605,-0.07107104,0.04148992,0.09477738
5894946,5894090,-0.044312194,0.08721986,0.020001149
5897520,5896615,0.054504547,0.048010048,-0.061289947
5899953,5899093,0.13018376,-0.009885436,-0.08043109
5902441,5901593,0.19307892,-0.03385283,-0.005180412
5904950,5904094,0.30774444,-0.009617274,0.111867234
5907444,5906598,0.32562503,0.019565491,0.15839423
5910010,5909099,0.18073434,-0.007823799,0.113990255
5912443,5911598,-0.049596373,-0.033712648,0.054850727
5917515,5916615,-0.22046262,0.05135239,-0.018303081
5919981,5919109,-0.2408331,0.037438307,-0.040207036
5922449,5921602,-0.21848701,-0.015126428,-0.027208243
5924964,5924102,-0.11552305,-0.08063875,-0.041329965
5927455,5926607,-0.11868705,-0.06107645,-0.12105393
5929995,5929130,-0.13066234,0.03859092,-0.1529665
5932489,5931606,-0.046086174,0.05594979,-0.07192177
5934957,5934107,0.03787315,-0.019800752,-0.0097932005
5937530,5936625,0.076374225,-0.043238997,-0.045445062
5939969,5939109,0.03005001,0.0006053222,-0.028350294
5942470,5941624,-0.008580319,0.044203475,0.062649265
5944972,5944111,0.07142576,0.061854776,0.09157158
5947464,5946615,0.12324817,0.07315718,0.05682152
5952470,5951615,0.012591409,0.031043528,0.0022970974
5954965,5954115,-0.07814399,0.012036227,-0.007572118
5957523,5956628,-0.07436021,0.012711274,0.03485606
5959978,5959117,0.046607822,-0.050006106,0.10169486
5962471,5961618,0.17250271,-0.102069564,0.09169019
5964969,5964119,0.21998921,-0.07618877,0.0041191173
5967469,5966623,0.064577565,-0.027578343,-0.06626128
5970021,5969121,-0.1371892,-0.008317591,-0.0828565
5972473,5971626,-0.17557937,0.041719813,-0.08596429
5974993,5974123,-0.1331903,0.122751825,-0.08701726
5977526,5976628,-0.038678154,0.11640965,-0.039366875
5979976,5979126,0.04532667,0.047829457,0.038215242
5982487,5981630,0.08081366,-0.0044392175,0.05796566
6062517,6061669,0.15813589,0.10094226,0.024502803
6065011,6064161,0.24663559,0.018440057,0.097241655
6067531,6066683,0.20776966,-0.05372821,0.12970465
6070052,6069163,-0.042984806,-0.02884828,0.0701829
6072514,6071666,-0.26316598,-0.017741919,-0.025062852
6075045,6074165,-0.3090313,-0.049808428,-0.09182607
6077519,6076670,-0.29424733,-0.045664083,-0.101475984
6080022,6079169,-0.23747948,-0.04000215,-0.034808587
6082525,6081671,-0.100336656,0.023261847,0.026120223
6085055,6084182,0.09282302,0.11642348,0.0068426686
6087516,6086667,0.23361234,0.07479616,-0.026609696
6115094,6114202,0.3912903,0.045919217,-0.072653614
6117578,6116680,0.3780317,-0.0025905462,0.0055163386
6120043,6119191,0.3161826,-0.006500713,0.04549637
6122531,6121688,0.10921361,0.025141608,0.049348187
6125036,6124186,-0.19310535,0.011507316,0.017920503
6127544,6126690,-0.45573464,0.016512472,0.027352743
6130038,6129188,-0.5180426,0.09765783,0.07460289
6132535,6131691,-0.32476324,0.120106004,0.059560295
6135079,6134201,-0.10976432,0.05491881,0.017774891
6137537,6136687,0.0017244546,-0.010087954,-0.009856313
6140059,6139192,0.079644576,-0.08078675,-0.0824082
6142560,6141709,0.16304201,-0.11208441,-0.15820481
6145069,6144194,0.22003765,-0.05115022,-0.15483807
6147560,6146695,0.16904925,-0.002544473,-0.05941971
6152590,6151733,-0.1991233,0.0032538474,0.12882473
6155113,6154202,-0.24830385,0.04726773,0.0905699
6157552,6156703,-0.051389173,0.006956432,0.05933525
6160074,6159201,0.15806885,-0.017674904,0.065834194
6162555,6161702,0.21600139,0.0104771,0.04825545
6165073,6164202,0.17275496,0.06257072,-0.0062833047
6167556,6166707,0.10668895,0.08253489,-0.06054471
6170074,6169215,0.022406748,0.034477595,-0.06538073
6172629,6171747,-0.044638794,-0.025108928,-0.037882864
6175121,6174210,-0.13204627,-0.038524445,-0.006623526
6177563,6176714,-0.26563016,-0.015323771,0.029366974
6180082,6179209,-0.3062843,-0.015461261,0.028486153
6182554,6181710,-0.19566163,-0.028116278,-0.035772342
6192554,6191710,0.22633788,-0.04034059,0.015642546
6195132,6194219,0.293031,0.014357828,0.08040327
6197561,6196711,0.21554017,0.085140616,0.07630947
6200073,6199217,0.05232562,0.083415434,0.058744397
6202584,6201722,-0.10132571,0.048095003,0.07583387
6205093,6204232,-0.18082067,0.049257874,0.054205317
6207578,6206732,-0.18579702,0.0693419,-0.005109678
6210137,6209221,-0.11208709,0.0473185,-0.04270765
6212591,6211721,0.0071062706,0.0020771287,-0.019991677
6215115,6214245,0.113383815,0.011603066,0.007769155
6217582,6216725,0.12908918,0.01445268,-0.03265642
6220078,6219228,0.003717581,-0.048210826,-0.08134254
6222573,6221729,-0.06021544,-0.07870104,-0.05514907
6225098,6224245,0.027162386,-0.072242185,-0.004275533
6227595,6226744,0.06203418,-0.100044504,-0.00207223
6230086,6229236,-0.09480602,-0.08471831,-0.013740279
6232616,6231742,-0.30815843,-0.002361475,-0.031147417
6235113,6234257,-0.34176877,0.066276565,-0.022928588
6237645,6236752,-0.16840701,0.047936145,0.022859164
6240099,6239239,0.11467737,-0.02472414,0.05703578
6242600,6241753,0.3094791,-0.026992794,0.1119901
6245119,6244259,0.3111442,-0.023584276,0.1305198
6247608,6246760,0.22297728,-0.03576273,0.050794587
6250110,6249250,0.065987356,-0.011717272,-0.012233643
6252645,6251776,-0.13269529,0.010316629,-0.012824167
6255111,6254254,-0.20803939,0.022838825,-0.0021306106
6272648,6271781,0.06706003,0.05559742,0.01158806
6275119,6274263,0.087943316,0.0020666767,0.039135434
6277690,6276786,9.5764066e-05,0.004587493,0.02484985
6280109,6279254,-0.12097921,0.034474973,0.030336807
6282605,6281761,-0.12767272,0.033639245,0.056157507
6285134,6284271,0.0046369936,0.0014352015,0.024590407
6287610,6286761,0.12517792,-0.01984783,-0.037626494
6290142,6289280,0.09731495,-0.016510548,-0.057696775
6292637,6291780,0.06702063,-0.03435528,-0.01861034
6295161,6294268,0.14011008,-0.065820515,0.015300427
6297618,6296769,0.19993837,-0.058358755,-0.0224605
6300131,6299262,0.14782281,-0.01722424,-0.064237796
6302617,6301760,0.008611938,-0.0030957717,-0.048100688
6305132,6304279,-0.09237151,-0.004900812,-0.008441011
6385169,6384297,-0.018086601,0.090507425,0.0051066065
6387666,6386798,-0.0915468,0.11011158,-0.006551585
6390150,6389299,-0.16695583,0.060598712,-0.021818586
6392671,6391801,-0.12394445,-0.05108111,-0.008547989
6395193,6394294,0.013479662,-0.10437538,0.09393337
6397658,6396804,0.113293745,-0.08241388,0.18533644
6400168,6399303,0.08480664,-0.07222595,0.16102909
6402657,6401801,-0.005411763,-0.08134253,0.07930819
6405160,6404310,-0.02585797,-0.095523946,-0.018463995
6407674,6406806,0.010347241,-0.12080819,-0.08756997
6410158,6409308,-0.02843856,-0.09404948,-0.06544746
6412730,6411820,-0.07140903,-0.015786048,-0.014958778
6415206,6414315,0.0016255919,0.023261087,-0.04541614
6425169,6424319,0.20630854,0.080580324,-0.035712637
6427681,6426827,0.1261426,0.07467115,0.097043544
6430187,6429323,0.03926242,0.03206953,0.1460527
6432674,6431818,0.087130666,-0.017243372,0.075205185
6435217,6434318,0.095675185,-0.07111803,-0.010236073
6437670,6436819,-0.018842803,-0.11897208,-0.015858503
6440184,6439323,-0.11301547,-0.11579136,0.00699581
6442672,6441818,-0.22739017,-0.09145224,0.02926431
6445180,6444327,-0.294639,-0.08457881,0.07182203
6447674,6446823,-0.20562613,-0.012725977,0.06803514
6450188,6449324,-0.02665571,0.07588073,-0.006026378
6452681,6451826,0.16382904,0.10581358,-0.073396266
6455243,6454332,0.24789551,0.11126067,-0.09040713
6457683,6456827,0.17769015,0.076828465,-0.103842914
6460192,6459335,0.063145936,0.013829751,-0.12516473
6462687,6461827,-0.026881732,-0.03584359,-0.10692678
6465204,6464339,-0.13029899,-0.0343681,-0.023841877
6467686,6466832,-0.23574744,0.03569351,0.09650915
6470199,6469333,-0.22399494,0.08589523,0.1930604
6472714,6471841,-0.11351768,0.09449777,0.1641636
6475235,6474333,-0.0022492637,0.10110297,0.04690423
6477690,6476839,0.05110693,0.026092362,0.013099187
6480186,6479332,0.008763091,-0.06621618,0.009662975
6482691,6481835,-0.001945666,-0.08610111,-0.035812322
6497699,6496844,-0.010172252,-0.0073617105,-0.047877222
6500195,6499345,0.099132344,-0.033170406,-0.0053098607
6502703,6501843,0.19528447,-0.0038281442,-0.020861926
6505209,6504346,0.23677702,0.06789283,0.031561993
6507715,6506849,0.2048485,0.05069401,0.090882085
6510237,6509352,0.10097562,0.015793322,0.09355731
6512742,6511870,0.008518846,0.049072336,0.09055819
6515252,6514350,-0.10633498,0.059210334,0.06996664
6517721,6516853,-0.24489868,-0.00977805,0.052798267
6520207,6519353,-0.35173014,-0.099994056,0.04136841
6522709,6521855,-0.35305986,-0.11658692,0.00696903
6525204,6524354,-0.15155388,-0.09412209,0.0091046365
6527722,6526863,0.13821009,-0.084372945,0.025877597
6530250,6529357,0.2866481,-0.0023371752,0.012681905
6532746,6531885,0.24578449,0.08581772,0.02943711
6545232,6544366,-0.013099,0.08089406,-0.053001117
6547714,6546865,0.038440045,0.057704546,-0.03152122
6550249,6549366,0.040508505,0.0033921963,-0.019034266
6552719,6551868,-0.008309272,-0.044911377,-0.04279212
6555268,6554367,-0.017695433,-0.044315245,-0.0897566
6557721,6556870,0.030632693,-0.05115186,-0.06837118
6560242,6559370,-0.0004967209,-0.04825499,-0.029248394
6562716,6561869,-0.11418107,-0.018025508,-0.023492767
6565244,6564384,-0.17644024,-0.013832917,-0.03466818
6567719,6566873,-0.14986157,-0.04388142,-0.062994435
6570268,6569386,-0.076274864,-0.08180268,-0.07832155
6572752,6571882,-0.09282646,-0.026882986,-0.06316735
6605244,6604388,0.16750401,-0.0020157571,-0.048508726
6607746,6606889,0.12606163,-0.006753764,-0.08923032
6610338,6609404,-0.06485366,0.016001761,-0.00078819884
6612754,6611900,-0.23789845,0.04847803,0.08478945
6615255,6614391,-0.2852953,0.080545895,0.09192307
6617779,6616883,-0.25696707,0.09129241,0.05731696
6620252,6619392,-0.19340633,0.05824422,0.026213769
6622787,6621917,-0.11532925,0.028475696,0.016060866
6625266,6624400,-0.14712828,0.013109594,0.026754836
6627753,6626907,-0.1981799,-0.06935808,0.04516096
6630292,6629408,-0.09520788,-0.15325446,0.06815072
6632749,6631898,0.0038907495,-0.14654669,0.03685367
6635324,6634401,0.05684291,-0.0850463,-0.07177703
6637756,6636903,0.14805067,-0.062949054,-0.13231991
6640267,6639402,0.13610686,-0.06917539,-0.10287985
6642746,6641902,-0.04598893,-0.017952383,-0.042517368
6645268,6644405,-0.21950202,0.04692865,0.027770355
6647755,6646907,-0.15784809,0.03265571,0.062277593
6650315,6649444,0.08846904,-0.05133122,0.051041514
6652754,6651906,0.20808662,-0.08363301,0.045358736
6655329,6654422,0.13976294,-0.0068261204,0.06466426
6657760,6656912,0.12675585,0.09058584,0.08447224
6660266,6659411,0.14223392,0.13842896,0.025335426
6662754,6661910,0.04567042,0.124334544,-0.08617964
6665282,6664412,-0.07535978,0.05813494,-0.17210813
6667761,6666912,-0.1172454,-0.022631278,-0.1838798
6945406,6944531,-0.27445644,-0.03713249,0.011997752
6947882,6947033,-0.13013859,-0.0068137166,-0.043111313
6950417,6949533,0.06403907,-0.034613814,-0.07697458
6952886,6952032,0.16657662,-0.05299606,-0.07383532
6955430,6954535,0.13205917,-0.010498332,-0.08039073
6957899,6957048,0.09131244,0.00041866433,-0.09803927
6960408,6959537,0.055766124,-0.02498514,-0.07089221
6962879,6962035,-0.037310053,-0.020202896,-0.024480214
6965429,6964539,-0.09759306,-0.008151944,-0.004387542
6967890,6967041,-0.11732784,-0.0057781576,0.031059278
6970397,6969539,-0.12430686,0.04440181,0.09689955
6972889,6972045,-0.13618115,0.114658736,0.15048347
6975447,6974544,-0.1470367,0.13371746,0.18858562
6977915,6977067,-0.010227984,0.10839605,0.14534307
6980401,6979542,0.19076195,0.082767904,0.017445577
6982898,6982054,0.18480924,0.04333593,-0.05563378
6985439,6984547,0.06410184,-0.013985576,-0.025495308
6987912,6987060,0.04210656,-0.015180317,0.01420663
6990420,6989550,0.12674809,0.03707973,0.025527518
6992899,6992048,0.18737328,0.030486835,0.029282346
6995418,6994551,0.11121549,0.0026575995,-0.027921956
6997942,6997054,-0.0073800245,0.0054888683,-0.11622365
7000410,6999551,0.0014839341,-0.033307184,-0.13469365
7002896,7002052,0.025258401,-0.12703411,-0.093474135
7005432,7004556,-0.033370353,-0.20216776,-0.030024141
7007907,7007058,-0.0803108,-0.13469504,0.037512966
7025451,7024578,0.15587662,-0.049007703,-0.023385411
7027916,7027066,0.13534863,-0.09052302,0.020903634
7030441,7029566,0.08038934,-0.086233765,0.05611293
7032909,7032065,0.086482935,-0.019175267,0.11246793
7035444,7034568,0.013365669,0.0344941,0.14947252
7037924,7037070,-0.11072433,0.024909763,0.13884999
7040426,7039568,-0.1117143,-0.013023697,0.062448528
7042919,7042069,-0.031407837,0.005379868,-0.058650233
7045452,7044583,0.015713383,0.01674343,-0.12558277
7047924,7047074,-0.02155992,0.0066568907,-0.1429857
7050446,7049572,-0.07575357,0.065232895,-0.10173071
7052921,7052077,-0.083175056,0.08154203,-0.004370502
7055484,7054577,-0.075807676,-0.003597699,0.020635404
7057935,7057080,-0.032815006,-0.064328514,-0.04242508
7060435,7059576,-0.019531867,-0.090761796,-0.09572712
7062959,7062108,-0.13429615,-0.091074206,-0.09523184
7065464,7064592,-0.30375394,-0.06253349,-0.07368016
7067932,7067083,-0.3235399,-0.060068388,0.02180967
7070461,7069580,-0.08863319,-0.04542473,0.14853123
7072941,7072086,0.16970994,0.051437177,0.14900476
7075483,7074585,0.2115658,0.12904282,0.094941445
7077929,7077083,0.095577195,0.07877822,0.09156287
7080442,7079584,0.002901888,-0.0102789,0.05387837
7110456,7109597,-0.10641246,0.06652849,0.07565147
7112979,7112107,0.06464281,-0.004587274,0.08849889
7115506,7114608,0.123622134,-0.02366764,0.0799138
7117947,7117101,0.040893346,-0.030088063,0.094501466
7120511,7119610,0.0010161169,-0.056093253,0.058329433
7122959,7122102,0.0070332,-0.10609197,-0.030726358
7125486,7124607,0.0017689784,-0.10600468,-0.10271899
7127970,7127108,0.015640732,-0.011152481,-0.08457574
7130464,7129605,0.011022251,0.06045946,-0.046785668
7132950,7132106,-0.023183405,0.053577837,-0.04357927
7135508,7134610,-0.12733915,0.034906372,-0.037634134
7137957,7137111,-0.27714178,0.039750457,-0.072370544
7140469,7139610,-0.26542535,0.027531594,-0.08385969
7142960,7142110,-0.12108059,-0.012166426,-0.02923999
7145486,7144615,-0.059346534,-0.07653264,0.01622043
7147995,7147135,0.003520547,-0.15491682,0.026743831
7150478,7149617,0.1268882,-0.16282208,0.026040763
7152969,7152115,0.17494151,-0.09408749,0.04733058
7155520,7154622,0.12455654,-0.031596463,0.064959355
7157969,7157121,0.039969407,0.04422339,0.071806
7160471,7159618,0.06058138,0.1037297,0.07299583
7162986,7162129,0.11950562,0.09197318,0.07161852
7165480,7164624,0.016869806,0.051463503,0.045075454
7167978,7167130,-0.12322422,0.031309634,-3.430675e-05
7177972,7177125,0.08493211,-0.049991354,-0.0022546966
7180486,7179626,0.08556495,0.005669056,-0.061119348
7182988,7182133,-0.031021524,0.09903879,-0.091769
7185486,7184632,-0.06336174,0.17480902,-0.047531646
7188004,7187133,-0.018611904,0.13442762,0.046658516
7190484,7189630,-0.022487134,0.014329995,0.09204438
7192988,7192141,0.021190254,-0.01673585,0.0462765
7195498,7194635,0.14972892,0.023491716,0.030473158
7198013,7197142,0.2037336,-0.009596347,0.055962276
7200506,7199630,0.13871887,-0.09160819,0.047003612
7202990,7202136,0.032624394,-0.11347897,-0.00050777243
7205495,7204640,-0.07879713,-0.089643076,-0.075718895
7207994,7207141,-0.10618374,-0.047209833,-0.1430883
7215523,7214653,-0.04277931,0.11721233,0.11383171
7217994,7217144,-0.069749035,0.08140707,0.16128628
7220500,7219643,-0.014216065,0.0013411753,0.08671912
7223011,7222144,0.052977093,0.0034328788,-0.00027518888
7225503,7224649,0.00661027,0.08175297,-0.0535031
7228004,7227150,0.003922832,0.104509726,-0.12932499
7230504,7229647,0.114255615,0.035219714,-0.13403675
7233026,7232180,0.12314062,-0.07533409,-0.08231463
7235548,7234652,0.06943937,-0.16370076,-0.06322459
7237996,7237150,-0.020145094,-0.13620827,0.007997658
7240524,7239665,-0.19696233,-0.031407513,0.08800612
7243055,7242184,-0.27152625,0.05918464,0.11883513
7245511,7244657,-0.13445531,0.10843717,0.12830627
7248004,7247158,0.076823406,0.096471295,0.11095236
7280529,7279674,0.032699402,-0.1056437,-0.02509278
7283040,7282180,-0.019542513,-0.09651441,-0.057604156
7285554,7284690,-0.08739604,-0.025045713,-0.09518403
7288036,7287175,-0.07228744,0.020272944,-0.122114
7290532,7289673,-0.0049805944,-0.006481696,-0.059731923
7293022,7292173,0.052234724,-0.006578001,0.10247955
7295564,7294677,0.07399179,-0.0070844465,0.2262429
7298024,7297178,0.043079626,-0.07866118,0.22432716
7300536,7299680,0.031267658,-0.095165215,0.13823989
7303047,7302190,0.026805323,0.011638429,0.023860224
7305536,7304682,-0.023450984,0.11640589,-0.05324964
7308032,7307183,-0.046203244,0.10702137,-0.080288775
7310534,7309680,-0.039725974,0.06651236,-0.056630064
7323069,7322201,-0.06341327,-0.0868617,-0.12191541
7325545,7324691,-0.022670802,-0.12841792,-0.14398006
7328035,7327189,-0.024470791,-0.07620104,-0.12106041
7330554,7329698,-0.088618115,0.0017506145,-0.0470664
7333034,7332190,-0.08046294,0.029668296,-0.023683371
7335545,7334691,0.033247117,0.055106107,-0.042929046
7338095,7337202,0.15234645,0.048907045,-0.022461202
7340563,7339693,0.21568505,0.020566348,0.01734829
7343069,7342201,0.2004067,0.039815944,0.01722088
7345568,7344701,0.11667856,0.023659645,-0.0035163015
7348050,7347199,-0.030735232,-0.015647935,0.014258501
7350575,7349699,-0.23004287,-0.022018561,0.06903058
7353047,7352201,-0.30441648,-0.052690636,0.0690159
7355576,7354707,-0.22324361,-0.058004353,0.02340042
7360555,7359704,-0.22362389,-0.015242742,-0.012908629
7363072,7362204,-0.031318888,0.048728265,-0.045511592
7365571,7364706,0.18026564,0.115279675,-0.013308198
7368063,7367214,0.2960034,0.10023958,0.045557905
7370626,7369756,0.31532687,0.024343763,0.08587196
7373063,7372208,0.27002728,-0.059563763,0.0835295
7375601,7374710,0.10856915,-0.0996558,0.0059895907
7378062,7377211,-0.05693403,-0.08828694,-0.058180094
