timestamp,gps_hvel[0],gps_hvel[1],gps_vvel,gps_hpos[0],gps_hpos[1],gps_vpos,ev_hvel[0],ev_hvel[1],ev_vvel,ev_hpos[0],ev_hpos[1],ev_vpos,fake_hvel[0],fake_hvel[1],fake_vvel,fake_hpos[0],fake_hpos[1],fake_vpos,rng_vpos,baro_vpos,aux_hvel[0],aux_hvel[1],aux_vvel,flow[0],flow[1],heading,mag_field[0],mag_field[1],mag_field[2],drag[0],drag[1],airspeed,beta,hagl
4063340,0.0,0.0,0.0,0.0,0.0,0.0,0.0,0.0,0.0,0.0,0.0,0.0,nan,nan,nan,nan,nan,nan,0.0,0.15975952,0.0,0.0,nan,0.0,0.0,-0.0015651807,0.0,0.0,0.0,0.0,0.0,0.0,0.0,0.0
4073338,0.0,0.0,0.0,0.0,0.0,0.0,0.0,0.0,0.0,0.0,0.0,0.0,nan,nan,nan,nan,nan,nan,0.0,0.15975952,0.0,0.0,nan,0.0,0.0,-0.0015651807,0.0,0.0,0.0,0.0,0.0,0.0,0.0,0.0
4863663,0.0,0.0,0.0,-0.002089766,-0.0006618185,0.0,0.0,0.0,0.0,0.0,0.0,0.0,nan,nan,nan,nan,nan,nan,0.0,-0.013244629,0.0,0.0,nan,0.0,0.0,-0.00018732995,0.0,0.0,0.0,0.0,0.0,0.0,0.0,0.0
5263832,0.0,0.0,0.0,-0.0056296308,-0.0011205052,0.0,0.0,0.0,0.0,0.0,0.0,0.0,nan,nan,nan,nan,nan,nan,0.0,0.21583557,0.0,0.0,nan,0.0,0.0,-0.00037600845,0.0,0.0,0.0,0.0,0.0,0.0,0.0,0.0
6064161,0.0,0.0,0.0,-0.010358924,0.00023180523,0.0,0.0,0.0,0.0,0.0,0.0,0.0,nan,nan,nan,nan,nan,nan,0.0,0.24074554,0.0,0.0,nan,0.0,0.0,0.00014574826,0.0,0.0,0.0,0.0,0.0,0.0,0.0,0.0
6464339,0.0,0.0,0.0,-0.008653387,0.0007123323,0.0,0.0,0.0,0.0,0.0,0.0,0.0,nan,nan,nan,nan,nan,nan,0.0,0.57688904,0.0,0.0,nan,0.0,0.0,-5.825609e-05,0.0,0.0,0.0,0.0,0.0,0.0,0.0,0.0
7064592,0.0,0.0,0.0,-0.0062858076,0.0011431329,0.0,0.0,0.0,0.0,0.0,0.0,0.0,nan,nan,nan,nan,nan,nan,0.0,-0.0062179565,0.0,0.0,nan,0.0,0.0,-0.0016422123,0.0,0.0,0.0,0.0,0.0,0.0,0.0,0.0
7864920,0.0,0.0,0.0,-0.004014617,0.0014098887,0.0,0.0,0.0,0.0,0.0,0.0,0.0,nan,nan,nan,nan,nan,nan,0.0,-0.14272308,0.0,0.0,nan,0.0,0.0,0.0017731711,0.0,0.0,0.0,0.0,0.0,0.0,0.0,0.0
8065009,0.0,0.0,0.0,-0.0035246685,0.0013650071,0.0,0.0,0.0,0.0,0.0,0.0,0.0,nan,nan,nan,nan,nan,nan,0.0,0.06879425,0.0,0.0,nan,0.0,0.0,0.0001553297,0.0,0.0,0.0,0.0,0.0,0.0,0.0,0.0
8265081,0.0,0.0,0.0,-0.0030882703,0.0011744153,0.0,0.0,0.0,0.0,0.0,0.0,0.0,nan,nan,nan,nan,nan,nan,0.0,0.04259491,0.0,0.0,nan,0.0,0.0,0.0010182709,0.0,0.0,0.0,0.0,0.0,0.0,0.0,0.0
8665252,0.0,0.0,0.0,-0.0023922788,0.0010952128,0.0,0.0,0.0,0.0,0.0,0.0,0.0,nan,nan,nan,nan,nan,nan,0.0,0.20915222,0.0,0.0,nan,0.0,0.0,-0.0024356544,0.0,0.0,0.0,0.0,0.0,0.0,0.0,0.0
8865336,0.0,0.0,0.0,-0.0023015882,0.0009545471,0.0,0.0,0.0,0.0,0.0,0.0,0.0,nan,nan,nan,nan,nan,nan,0.0,-0.2490921,0.0,0.0,nan,0.0,0.0,0.00080562383,0.0,0.0,0.0,0.0,0.0,0.0,0.0,0.0
9265510,0.0,0.0,0.0,-0.002497181,0.00065599533,0.0,0.0,0.0,0.0,0.0,0.0,0.0,nan,nan,nan,nan,nan,nan,0.0,0.2625656,0.0,0.0,nan,0.0,0.0,0.0025393665,0.0,0.0,0.0,0.0,0.0,0.0,0.0,0.0
9465601,0.0,0.0,0.0,-0.0024389932,0.00045716067,0.0,0.0,0.0,0.0,0.0,0.0,0.0,nan,nan,nan,nan,nan,nan,0.0,-0.049316406,0.0,0.0,nan,0.0,0.0,0.0013743341,0.0,0.0,0.0,0.0,0.0,0.0,0.0,0.0
9865757,0.0,0.0,0.0,-0.0021623995,0.000101495454,0.0,0.0,0.0,0.0,0.0,0.0,0.0,nan,nan,nan,nan,nan,nan,0.0,-0.11391449,0.0,0.0,nan,0.0,0.0,0.0001277104,0.0,0.0,0.0,0.0,0.0,0.0,0.0,0.0
10265931,0.0,0.0,0.0,-0.0018045248,0.00036769212,0.0,0.0,0.0,0.0,0.0,0.0,0.0,nan,nan,nan,nan,nan,nan,0.0,-0.086006165,0.0,0.0,nan,0.0,0.0,-0.0022969916,0.0,0.0,0.0,0.0,0.0,0.0,0.0,0.0
11466435,0.0,0.0,0.0,-0.0019218823,-1.4520876e-05,0.0,0.0,0.0,0.0,0.0,0.0,0.0,nan,nan,nan,nan,nan,nan,0.0,-0.028198242,0.0,0.0,nan,0.0,0.0,-0.00044685602,0.0,0.0,0.0,0.0,0.0,0.0,0.0,0.0
11866622,0.0,0.0,0.0,-0.0018111739,0.00017569111,0.0,0.0,0.0,0.0,0.0,0.0,0.0,nan,nan,nan,nan,nan,nan,0.0,-0.011947632,0.0,0.0,nan,0.0,0.0,-0.00049773604,0.0,0.0,0.0,0.0,0.0,0.0,0.0,0.0
12066687,0.0,0.0,0.0,-0.0018745194,0.0003355884,0.0,0.0,0.0,0.0,0.0,0.0,0.0,nan,nan,nan,nan,nan,nan,0.0,-0.0845108,0.0,0.0,nan,0.0,0.0,-0.00041545928,0.0,0.0,0.0,0.0,0.0,0.0,0.0,0.0
12867032,0.0,0.0,0.0,-0.0022703276,0.00068975735,0.0,0.0,0.0,0.0,0.0,0.0,0.0,nan,nan,nan,nan,nan,nan,0.0,-0.051826477,0.0,0.0,nan,0.0,0.0,0.0020574778,0.0,0.0,0.0,0.0,0.0,0.0,0.0,0.0
13067141,0.0,0.0,0.0,-0.0021367283,0.0007394996,0.0,0.0,0.0,0.0,0.0,0.0,0.0,nan,nan,nan,nan,nan,nan,0.0,-0.1213913,0.0,0.0,nan,0.0,0.0,0.00019136816,0.0,0.0,0.0,0.0,0.0,0.0,0.0,0.0
13467292,0.0,0.0,0.0,-0.0019050426,0.0008368467,0.0,0.0,0.0,0.0,0.0,0.0,0.0,nan,nan,nan,nan,nan,nan,0.0,-0.1233902,0.0,0.0,nan,0.0,0.0,-0.002545692,0.0,0.0,0.0,0.0,0.0,0.0,0.0,0.0
14867889,0.0,0.0,0.0,-0.00036192065,0.00051080436,0.0,0.0,0.0,0.0,0.0,0.0,0.0,nan,nan,nan,nan,nan,nan,0.0,-0.051460266,0.0,0.0,nan,0.0,0.0,-0.001382485,0.0,0.0,0.0,0.0,0.0,0.0,0.0,0.0
15268058,0.0,0.0,0.0,0.00014861145,0.00058137474,0.0,0.0,0.0,0.0,0.0,0.0,0.0,nan,nan,nan,nan,nan,nan,0.0,0.17427063,0.0,0.0,nan,0.0,0.0,-0.00042822957,0.0,0.0,0.0,0.0,0.0,0.0,0.0,0.0
15868325,0.0,0.0,0.0,0.0010381335,0.0010579022,0.0,0.0,0.0,0.0,0.0,0.0,0.0,nan,nan,nan,nan,nan,nan,0.0,-0.06447601,0.0,0.0,nan,0.0,0.0,0.003097333,0.0,0.0,0.0,0.0,0.0,0.0,0.0,0.0
16068405,0.0,0.0,0.0,0.0013453596,0.0012565745,0.0,0.0,0.0,0.0,0.0,0.0,0.0,nan,nan,nan,nan,nan,nan,0.0,-0.121665955,0.0,0.0,nan,0.0,0.0,0.0010611266,0.0,0.0,0.0,0.0,0.0,0.0,0.0,0.0
16268497,0.0,0.0,0.0,0.0017462668,0.0014130311,0.0,0.0,0.0,0.0,0.0,0.0,0.0,nan,nan,nan,nan,nan,nan,0.0,0.1322937,0.0,0.0,nan,0.0,0.0,0.0023236051,0.0,0.0,0.0,0.0,0.0,0.0,0.0,0.0
16468586,0.0,0.0,0.0,0.0022573555,0.001612206,0.0,0.0,0.0,0.0,0.0,0.0,0.0,nan,nan,nan,nan,nan,nan,0.0,0.009353638,0.0,0.0,nan,0.0,0.0,0.001524128,0.0,0.0,0.0,0.0,0.0,0.0,0.0,0.0
16868758,0.0,0.0,0.0,0.0032887654,0.0020707764,0.0,0.0,0.0,0.0,0.0,0.0,0.0,nan,nan,nan,nan,nan,nan,0.0,0.07128143,0.0,0.0,nan,0.0,0.0,-0.0010477155,0.0,0.0,0.0,0.0,0.0,0.0,0.0,0.0
17068838,0.0,0.0,0.0,0.0036096417,0.0022325418,0.0,0.0,0.0,0.0,0.0,0.0,0.0,nan,nan,nan,nan,nan,nan,0.0,-0.05041504,0.0,0.0,nan,0.0,0.0,0.0027658865,0.0,0.0,0.0,0.0,0.0,0.0,0.0,0.0
17268921,0.0,0.0,0.0,0.0038580247,0.002318923,0.0,0.0,0.0,0.0,0.0,0.0,0.0,nan,nan,nan,nan,nan,nan,0.0,0.015647888,0.0,0.0,nan,0.0,0.0,0.00031737238,0.0,0.0,0.0,0.0,0.0,0.0,0.0,0.0
17469008,0.0,0.0,0.0,0.0039792014,0.0023948757,0.0,0.0,0.0,0.0,0.0,0.0,0.0,nan,nan,nan,nan,nan,nan,0.0,0.24435425,0.0,0.0,nan,0.0,0.0,0.0004638955,0.0,0.0,0.0,0.0,0.0,0.0,0.0,0.0
17669101,0.0,0.0,0.0,0.0040640975,0.0023992355,0.0,0.0,0.0,0.0,0.0,0.0,0.0,nan,nan,nan,nan,nan,nan,0.0,-0.0059814453,0.0,0.0,nan,0.0,0.0,0.0016497523,0.0,0.0,0.0,0.0,0.0,0.0,0.0,0.0
18269359,0.0,0.0,0.0,0.004069264,0.0018607737,0.0,0.0,0.0,0.0,0.0,0.0,0.0,nan,nan,nan,nan,nan,nan,0.0,-0.41160583,0.0,0.0,nan,0.0,0.0,0.00023454428,0.0,0.0,0.0,0.0,0.0,0.0,0.0,0.0
18469460,0.0,0.0,0.0,0.0043332414,0.001682573,0.0,0.0,0.0,0.0,0.0,0.0,0.0,nan,nan,nan,nan,nan,nan,0.0,-0.09710693,0.0,0.0,nan,0.0,0.0,-0.00026343018,0.0,0.0,0.0,0.0,0.0,0.0,0.0,0.0
18669530,0.0,0.0,0.0,0.004632877,0.0015368677,0.0,0.0,0.0,0.0,0.0,0.0,0.0,nan,nan,nan,nan,nan,nan,0.0,-0.29379272,0.0,0.0,nan,0.0,0.0,0.0010845214,0.0,0.0,0.0,0.0,0.0,0.0,0.0,0.0
18859613,0.0,0.0,0.0,0.004874918,0.0015341004,0.0,0.0,0.0,0.0,0.0,0.0,0.0,nan,nan,nan,nan,nan,nan,0.0,-0.42733765,0.0,0.0,nan,0.0,0.0,-8.422136e-05,0.0,0.0,0.0,0.0,0.0,0.0,0.0,0.0
19069707,0.0,0.0,0.0,0.0052339686,0.0015304454,0.0,0.0,0.0,0.0,0.0,0.0,0.0,nan,nan,nan,nan,nan,nan,0.0,-0.03779602,0.0,0.0,nan,0.0,0.0,0.00072310865,0.0,0.0,0.0,0.0,0.0,0.0,0.0,0.0
19269792,0.0,0.0,0.0,0.0054553915,0.0016094424,0.0,0.0,0.0,0.0,0.0,0.0,0.0,nan,nan,nan,nan,nan,nan,0.0,-0.25504303,0.0,0.0,nan,0.0,0.0,0.0004146546,0.0,0.0,0.0,0.0,0.0,0.0,0.0,0.0
19870054,0.0,0.0,0.0,0.005102911,0.0023154754,0.0,0.0,0.0,0.0,0.0,0.0,0.0,nan,nan,nan,nan,nan,nan,0.0,-0.16351318,0.0,0.0,nan,0.0,0.0,-0.00025375187,0.0,0.0,0.0,0.0,0.0,0.0,0.0,0.0
20070142,0.0,0.0,0.0,0.0048641427,0.0025952482,0.0,0.0,0.0,0.0,0.0,0.0,0.0,nan,nan,nan,nan,nan,nan,0.0,-0.21151733,0.0,0.0,nan,0.0,0.0,-0.0003073886,0.0,0.0,0.0,0.0,0.0,0.0,0.0,0.0
21260668,0.0,0.0,0.0,0.00396434,0.0035979808,0.0,0.0,0.0,0.0,0.0,0.0,0.0,nan,nan,nan,nan,nan,nan,0.0,0.00047302246,0.0,0.0,nan,0.0,0.0,-0.00069706887,0.0,0.0,0.0,0.0,0.0,0.0,0.0,0.0
21460765,0.0,0.0,0.0,0.0043614716,0.0038199038,0.0,0.0,0.0,0.0,0.0,0.0,0.0,nan,nan,nan,nan,nan,nan,0.0,0.07129669,0.0,0.0,nan,0.0,0.0,-0.0032844245,0.0,0.0,0.0,0.0,0.0,0.0,0.0,0.0
22061016,0.0,0.0,0.0,0.005427628,0.005101159,0.0,0.0,0.0,0.0,0.0,0.0,0.0,nan,nan,nan,nan,nan,nan,0.0,0.18119812,0.0,0.0,nan,0.0,0.0,-8.581579e-05,0.0,0.0,0.0,0.0,0.0,0.0,0.0,0.0
22861386,0.0,0.0,0.0,0.006849339,0.0073481817,0.0,0.0,0.0,0.0,0.0,0.0,0.0,nan,nan,nan,nan,nan,nan,0.0,0.16867828,0.0,0.0,nan,0.0,0.0,-2.1263957e-05,0.0,0.0,0.0,0.0,0.0,0.0,0.0,0.0
23261549,0.0,0.0,0.0,0.007698738,0.008227528,0.0,0.0,0.0,0.0,0.0,0.0,0.0,nan,nan,nan,nan,nan,nan,0.0,0.34072113,0.0,0.0,nan,0.0,0.0,-0.00015633553,0.0,0.0,0.0,0.0,0.0,0.0,0.0,0.0
23461646,0.0,0.0,0.0,0.0079931095,0.008650968,0.0,0.0,0.0,0.0,0.0,0.0,0.0,nan,nan,nan,nan,nan,nan,0.0,0.0949707,0.0,0.0,nan,0.0,0.0,-0.001693584,0.0,0.0,0.0,0.0,0.0,0.0,0.0,0.0
23861820,0.0,0.0,0.0,0.008412453,0.009113629,0.0,0.0,0.0,0.0,0.0,0.0,0.0,nan,nan,nan,nan,nan,nan,0.0,0.048606873,0.0,0.0,nan,0.0,0.0,0.002281934,0.0,0.0,0.0,0.0,0.0,0.0,0.0,0.0
24662180,0.0,0.0,0.0,0.008879769,0.00913308,0.0,0.0,0.0,0.0,0.0,0.0,0.0,nan,nan,nan,nan,nan,nan,0.0,-0.06630707,0.0,0.0,nan,0.0,0.0,0.0009960383,0.0,0.0,0.0,0.0,0.0,0.0,0.0,0.0
24862278,0.0,0.0,0.0,0.008880402,0.009011614,0.0,0.0,0.0,0.0,0.0,0.0,0.0,nan,nan,nan,nan,nan,nan,0.0,0.22245026,0.0,0.0,nan,0.0,0.0,-0.00040626526,0.0,0.0,0.0,0.0,0.0,0.0,0.0,0.0
25062348,0.0,0.0,0.0,0.008747725,0.008935143,0.0,0.0,0.0,0.0,0.0,0.0,0.0,nan,nan,nan,nan,nan,nan,0.0,0.08341217,0.0,0.0,nan,0.0,0.0,-0.001163058,0.0,0.0,0.0,0.0,0.0,0.0,0.0,0.0
25462525,0.0,0.0,0.0,0.008512565,0.009201161,0.0,0.0,0.0,0.0,0.0,0.0,0.0,nan,nan,nan,nan,nan,nan,0.0,-0.09912872,0.0,0.0,nan,0.0,0.0,-0.00058399886,0.0,0.0,0.0,0.0,0.0,0.0,0.0,0.0
25662616,0.0,0.0,0.0,0.008299652,0.0095000295,0.0,0.0,0.0,0.0,0.0,0.0,0.0,nan,nan,nan,nan,nan,nan,0.0,-0.24493408,0.0,0.0,nan,0.0,0.0,-0.0003111884,0.0,0.0,0.0,0.0,0.0,0.0,0.0,0.0
26062790,0.0,0.0,0.0,0.008006428,0.010075095,0.0,0.0,0.0,0.0,0.0,0.0,0.0,nan,nan,nan,nan,nan,nan,0.0,-0.038894653,0.0,0.0,nan,0.0,0.0,0.0018461347,0.0,0.0,0.0,0.0,0.0,0.0,0.0,0.0
26663062,0.0,0.0,0.0,0.008615791,0.01073559,0.0,0.0,0.0,0.0,0.0,0.0,0.0,nan,nan,nan,nan,nan,nan,0.0,0.120018005,0.0,0.0,nan,0.0,0.0,-0.0012893826,0.0,0.0,0.0,0.0,0.0,0.0,0.0,0.0
27263330,0.0,0.0,0.0,0.0102327345,0.011937626,0.0,0.0,0.0,0.0,0.0,0.0,0.0,nan,nan,nan,nan,nan,nan,0.0,0.36045837,0.0,0.0,nan,0.0,0.0,0.0017615706,0.0,0.0,0.0,0.0,0.0,0.0,0.0,0.0
27463416,0.0,0.0,0.0,0.010818654,0.01229169,0.0,0.0,0.0,0.0,0.0,0.0,0.0,nan,nan,nan,nan,nan,nan,0.0,0.6318054,0.0,0.0,nan,0.0,0.0,0.00040262192,0.0,0.0,0.0,0.0,0.0,0.0,0.0,0.0
27663510,0.0,0.0,0.0,0.011435564,0.012856446,0.0,0.0,0.0,0.0,0.0,0.0,0.0,nan,nan,nan,nan,nan,nan,0.0,0.23451233,0.0,0.0,nan,0.0,0.0,-0.0010775253,0.0,0.0,0.0,0.0,0.0,0.0,0.0,0.0
28063685,0.0,0.0,0.0,0.012802767,0.014082403,0.0,0.0,0.0,0.0,0.0,0.0,0.0,nan,nan,nan,nan,nan,nan,0.0,0.2986908,0.0,0.0,nan,0.0,0.0,0.0007491037,0.0,0.0,0.0,0.0,0.0,0.0,0.0,0.0
28263787,0.0,0.0,0.0,0.01351605,0.014389369,0.0,0.0,0.0,0.0,0.0,0.0,0.0,nan,nan,nan,nan,nan,nan,0.0,0.27594757,0.0,0.0,nan,0.0,0.0,0.0019897968,0.0,0.0,0.0,0.0,0.0,0.0,0.0,0.0
28463869,0.0,0.0,0.0,0.014299132,0.014841324,0.0,0.0,0.0,0.0,0.0,0.0,0.0,nan,nan,nan,nan,nan,nan,0.0,0.32601166,0.0,0.0,nan,0.0,0.0,-0.00026980788,0.0,0.0,0.0,0.0,0.0,0.0,0.0,0.0
29064146,0.0,0.0,0.0,0.01651545,0.016547995,0.0,0.0,0.0,0.0,0.0,0.0,0.0,nan,nan,nan,nan,nan,nan,0.0,0.19004059,0.0,0.0,nan,0.0,0.0,0.0017200112,0.0,0.0,0.0,0.0,0.0,0.0,0.0,0.0
29264233,0.0,0.0,0.0,0.017162243,0.017115783,0.0,0.0,0.0,0.0,0.0,0.0,0.0,nan,nan,nan,nan,nan,nan,0.0,0.3565445,0.0,0.0,nan,0.0,0.0,0.001682505,0.0,0.0,0.0,0.0,0.0,0.0,0.0,0.0
29864496,0.0,0.0,0.0,0.019424511,0.01904476,0.0,0.0,0.0,0.0,0.0,0.0,0.0,nan,nan,nan,nan,nan,nan,0.0,-0.09465027,0.0,0.0,nan,0.0,0.0,0.0006415695,0.0,0.0,0.0,0.0,0.0,0.0,0.0,0.0
30064605,0.0,0.0,0.0,0.020233648,0.01968411,0.0,0.0,0.0,0.0,0.0,0.0,0.0,nan,nan,nan,nan,nan,nan,0.0,-0.1013031,0.0,0.0,nan,0.0,0.0,0.0044763833,0.0,0.0,0.0,0.0,0.0,0.0,0.0,0.0
31065049,0.0,0.0,0.0,0.024380196,0.022018544,0.0,0.0,0.0,0.0,0.0,0.0,0.0,nan,nan,nan,nan,nan,nan,0.0,-0.20352936,0.0,0.0,nan,0.0,0.0,0.0028186515,0.0,0.0,0.0,0.0,0.0,0.0,0.0,0.0
31465241,0.0,0.0,0.0,0.025759472,0.022760095,0.0,0.0,0.0,0.0,0.0,0.0,0.0,nan,nan,nan,nan,nan,nan,0.0,-0.59043884,0.0,0.0,nan,0.0,0.0,0.0015146881,0.0,0.0,0.0,0.0,0.0,0.0,0.0,0.0
31665312,0.0,0.0,0.0,0.02639766,0.022959623,0.0,0.0,0.0,0.0,0.0,0.0,0.0,nan,nan,nan,nan,nan,nan,0.0,-0.449646,0.0,0.0,nan,0.0,0.0,0.0031473413,0.0,0.0,0.0,0.0,0.0,0.0,0.0,0.0
31865405,0.0,0.0,0.0,0.027086623,0.023001764,0.0,0.0,0.0,0.0,0.0,0.0,0.0,nan,nan,nan,nan,nan,nan,0.0,-0.26026917,0.0,0.0,nan,0.0,0.0,0.002744764,0.0,0.0,0.0,0.0,0.0,0.0,0.0,0.0
32065496,0.0,0.0,0.0,0.027847381,0.022964912,0.0,0.0,0.0,0.0,0.0,0.0,0.0,nan,nan,nan,nan,nan,nan,0.0,-0.4494629,0.0,0.0,nan,0.0,0.0,0.0012336373,0.0,0.0,0.0,0.0,0.0,0.0,0.0,0.0
32465674,0.0,0.0,0.0,0.02920794,0.022283282,0.0,0.0,0.0,0.0,0.0,0.0,0.0,nan,nan,nan,nan,nan,nan,0.0,-0.4198532,0.0,0.0,nan,0.0,0.0,0.003249459,0.0,0.0,0.0,0.0,0.0,0.0,0.0,0.0
33466129,0.0,0.0,0.0,0.03228489,0.019760665,0.0,0.0,0.0,0.0,0.0,0.0,0.0,nan,nan,nan,nan,nan,nan,0.0,-0.4877472,0.0,0.0,nan,0.0,0.0,0.0025334582,0.0,0.0,0.0,0.0,0.0,0.0,0.0,0.0
33666230,0.0,0.0,0.0,0.03272859,0.01938659,0.0,0.0,0.0,0.0,0.0,0.0,0.0,nan,nan,nan,nan,nan,nan,0.0,-0.13677979,0.0,0.0,nan,0.0,0.0,0.0022985414,0.0,0.0,0.0,0.0,0.0,0.0,0.0,0.0
33866316,0.0,0.0,0.0,0.03310969,0.019051246,0.0,0.0,0.0,0.0,0.0,0.0,0.0,nan,nan,nan,nan,nan,nan,0.0,-0.10330963,0.0,0.0,nan,0.0,0.0,0.0040246323,0.0,0.0,0.0,0.0,0.0,0.0,0.0,0.0
34466585,0.0,0.0,0.0,0.033881154,0.017800905,0.0,0.0,0.0,0.0,0.0,0.0,0.0,nan,nan,nan,nan,nan,nan,0.0,-0.12397766,0.0,0.0,nan,0.0,0.0,0.0048576444,0.0,0.0,0.0,0.0,0.0,0.0,0.0,0.0
35066860,0.0,0.0,0.0,0.03405827,0.016803492,0.0,0.0,0.0,0.0,0.0,0.0,0.0,nan,nan,nan,nan,nan,nan,0.0,-0.09919739,0.0,0.0,nan,0.0,0.0,0.003990993,0.0,0.0,0.0,0.0,0.0,0.0,0.0,0.0
35266978,0.0,0.0,0.0,0.033696897,0.016813835,0.0,0.0,0.0,0.0,0.0,0.0,0.0,nan,nan,nan,nan,nan,nan,0.0,-0.18363953,0.0,0.0,nan,0.0,0.0,0.0026731864,0.0,0.0,0.0,0.0,0.0,0.0,0.0,0.0
35667139,0.0,0.0,0.0,0.03299781,0.016988946,0.0,0.0,0.0,0.0,0.0,0.0,0.0,nan,nan,nan,nan,nan,nan,0.0,-0.36475372,0.0,0.0,nan,0.0,0.0,0.0018362105,0.0,0.0,0.0,0.0,0.0,0.0,0.0,0.0
36267429,0.0,0.0,0.0,0.031907786,0.017461596,0.0,0.0,0.0,0.0,0.0,0.0,0.0,nan,nan,nan,nan,nan,nan,0.0,0.1524353,0.0,0.0,nan,0.0,0.0,0.0038186014,0.0,0.0,0.0,0.0,0.0,0.0,0.0,0.0
36667594,0.0,0.0,0.0,0.031492256,0.01797832,0.0,0.0,0.0,0.0,0.0,0.0,0.0,nan,nan,nan,nan,nan,nan,0.0,-0.0921402,0.0,0.0,nan,0.0,0.0,0.000875704,0.0,0.0,0.0,0.0,0.0,0.0,0.0,0.0
37067789,0.0,0.0,0.0,0.031459797,0.018938554,0.0,0.0,0.0,0.0,0.0,0.0,0.0,nan,nan,nan,nan,nan,nan,0.0,-0.32238007,0.0,0.0,nan,0.0,0.0,0.0035305694,0.0,0.0,0.0,0.0,0.0,0.0,0.0,0.0
37267874,0.0,0.0,0.0,0.03139466,0.019339189,0.0,0.0,0.0,0.0,0.0,0.0,0.0,nan,nan,nan,nan,nan,nan,0.0,-0.20482635,0.0,0.0,nan,0.0,0.0,0.0009487495,0.0,0.0,0.0,0.0,0.0,0.0,0.0,0.0
37467956,0.0,0.0,0.0,0.031274445,0.019778956,0.0,0.0,0.0,0.0,0.0,0.0,0.0,nan,nan,nan,nan,nan,nan,0.0,-0.16657257,0.0,0.0,nan,0.0,0.0,0.0010875165,0.0,0.0,0.0,0.0,0.0,0.0,0.0,0.0
37868147,0.0,0.0,0.0,0.03070215,0.020326976,0.0,0.0,0.0,0.0,0.0,0.0,0.0,nan,nan,nan,nan,nan,nan,0.0,-0.1880188,0.0,0.0,nan,0.0,0.0,0.002103828,0.0,0.0,0.0,0.0,0.0,0.0,0.0,0.0
38268334,0.0,0.0,0.0,0.030029014,0.020632204,0.0,0.0,0.0,0.0,0.0,0.0,0.0,nan,nan,nan,nan,nan,nan,0.0,-0.30882263,0.0,0.0,nan,0.0,0.0,0.0021579713,0.0,0.0,0.0,0.0,0.0,0.0,0.0,0.0
38668516,0.0,0.0,0.0,0.029928006,0.0211797,0.0,0.0,0.0,0.0,0.0,0.0,0.0,nan,nan,nan,nan,nan,nan,0.0,-0.41194916,0.0,0.0,nan,0.0,0.0,0.001474537,0.0,0.0,0.0,0.0,0.0,0.0,0.0,0.0
38868630,0.0,0.0,0.0,0.02975492,0.021570647,0.0,0.0,0.0,0.0,0.0,0.0,0.0,nan,nan,nan,nan,nan,nan,0.0,-0.41160583,0.0,0.0,nan,0.0,0.0,0.0003721714,0.0,0.0,0.0,0.0,0.0,0.0,0.0,0.0
39668980,0.0,0.0,0.0,0.028385775,0.024008917,0.0,0.0,0.0,0.0,0.0,0.0,0.0,nan,nan,nan,nan,nan,nan,0.0,-0.16081238,0.0,0.0,nan,0.0,0.0,0.0018892661,0.0,0.0,0.0,0.0,0.0,0.0,0.0,0.0
40069164,0.0,0.0,0.0,0.027785555,0.02544452,0.0,0.0,0.0,0.0,0.0,0.0,0.0,nan,nan,nan,nan,nan,nan,0.0,-0.045166016,0.0,0.0,nan,0.0,0.0,-0.0011069775,0.0,0.0,0.0,0.0,0.0,0.0,0.0,0.0
40669445,0.0,0.0,0.0,0.026363308,0.027507616,0.0,0.0,0.0,0.0,0.0,0.0,0.0,nan,nan,nan,nan,nan,nan,0.0,0.004173279,0.0,0.0,nan,0.0,0.0,0.00086101145,0.0,0.0,0.0,0.0,0.0,0.0,0.0,0.0
40869545,0.0,0.0,0.0,0.025730865,0.028195042,0.0,0.0,0.0,0.0,0.0,0.0,0.0,nan,nan,nan,nan,nan,nan,0.0,-0.18314362,0.0,0.0,nan,0.0,0.0,0.0027876273,0.0,0.0,0.0,0.0,0.0,0.0,0.0,0.0
41069638,0.0,0.0,0.0,0.0252332,0.028895086,0.0,0.0,0.0,0.0,0.0,0.0,0.0,nan,nan,nan,nan,nan,nan,0.0,-0.1827774,0.0,0.0,nan,0.0,0.0,0.0009589493,0.0,0.0,0.0,0.0,0.0,0.0,0.0,0.0
41669908,0.0,0.0,0.0,0.024400182,0.030126821,0.0,0.0,0.0,0.0,0.0,0.0,0.0,nan,nan,nan,nan,nan,nan,0.0,0.017974854,0.0,0.0,nan,0.0,0.0,0.0023909956,0.0,0.0,0.0,0.0,0.0,0.0,0.0,0.0
42260180,0.0,0.0,0.0,0.024001181,0.03047455,0.0,0.0,0.0,0.0,0.0,0.0,0.0,nan,nan,nan,nan,nan,nan,0.0,0.0390625,0.0,0.0,nan,0.0,0.0,0.0030071437,0.0,0.0,0.0,0.0,0.0,0.0,0.0,0.0
43260653,0.0,0.0,0.0,0.022819977,0.030877674,0.0,0.0,0.0,0.0,0.0,0.0,0.0,nan,nan,nan,nan,nan,nan,0.0,0.18308258,0.0,0.0,nan,0.0,0.0,0.002571255,0.0,0.0,0.0,0.0,0.0,0.0,0.0,0.0
43460745,0.0,0.0,0.0,0.02251397,0.030559218,0.0,0.0,0.0,0.0,0.0,0.0,0.0,nan,nan,nan,nan,nan,nan,0.0,-0.26410675,0.0,0.0,nan,0.0,0.0,0.0017688572,0.0,0.0,0.0,0.0,0.0,0.0,0.0,0.0
43860942,0.0,0.0,0.0,0.022126295,0.030173723,0.0,0.0,0.0,0.0,0.0,0.0,0.0,nan,nan,nan,nan,nan,nan,0.0,-0.2037201,0.0,0.0,nan,0.0,0.0,0.0032341555,0.0,0.0,0.0,0.0,0.0,0.0,0.0,0.0
44061034,0.0,0.0,0.0,0.021999737,0.029996142,0.0,0.0,0.0,0.0,0.0,0.0,0.0,nan,nan,nan,nan,nan,nan,0.0,-0.29199982,0.0,0.0,nan,0.0,0.0,0.0030213147,0.0,0.0,0.0,0.0,0.0,0.0,0.0,0.0
44261125,0.0,0.0,0.0,0.022136161,0.029755404,0.0,0.0,0.0,0.0,0.0,0.0,0.0,nan,nan,nan,nan,nan,nan,0.0,0.09794617,0.0,0.0,nan,0.0,0.0,0.0017886013,0.0,0.0,0.0,0.0,0.0,0.0,0.0,0.0
45061503,0.0,0.0,0.0,0.02396675,0.028467001,0.0,0.0,0.0,0.0,0.0,0.0,0.0,nan,nan,nan,nan,nan,nan,0.0,-0.100982666,0.0,0.0,nan,0.0,0.0,0.0014453679,0.0,0.0,0.0,0.0,0.0,0.0,0.0,0.0
45461691,0.0,0.0,0.0,0.025423212,0.028167821,0.0,0.0,0.0,0.0,0.0,0.0,0.0,nan,nan,nan,nan,nan,nan,0.0,-0.23691559,0.0,0.0,nan,0.0,0.0,0.0031220168,0.0,0.0,0.0,0.0,0.0,0.0,0.0,0.0
45661775,0.0,0.0,0.0,0.026259458,0.028124804,0.0,0.0,0.0,0.0,0.0,0.0,0.0,nan,nan,nan,nan,nan,nan,0.0,-0.5804138,0.0,0.0,nan,0.0,0.0,0.0033217221,0.0,0.0,0.0,0.0,0.0,0.0,0.0,0.0
45861869,0.0,0.0,0.0,0.027099356,0.027998732,0.0,0.0,0.0,0.0,0.0,0.0,0.0,nan,nan,nan,nan,nan,nan,0.0,-0.040802002,0.0,0.0,nan,0.0,0.0,0.0047566146,0.0,0.0,0.0,0.0,0.0,0.0,0.0,0.0
47062437,0.0,0.0,0.0,0.03230097,0.02662042,0.0,0.0,0.0,0.0,0.0,0.0,0.0,nan,nan,nan,nan,nan,nan,0.0,0.49154663,0.0,0.0,nan,0.0,0.0,0.005245559,0.0,0.0,0.0,0.0,0.0,0.0,0.0,0.0
47662717,0.0,0.0,0.0,0.03605116,0.02592959,0.0,0.0,0.0,0.0,0.0,0.0,0.0,nan,nan,nan,nan,nan,nan,0.0,0.3982849,0.0,0.0,nan,0.0,0.0,0.0034978762,0.0,0.0,0.0,0.0,0.0,0.0,0.0,0.0
47862812,0.0,0.0,0.0,0.037337825,0.025733326,0.0,0.0,0.0,0.0,0.0,0.0,0.0,nan,nan,nan,nan,nan,nan,0.0,0.23957062,0.0,0.0,nan,0.0,0.0,0.0035388097,0.0,0.0,0.0,0.0,0.0,0.0,0.0,0.0
49463572,0.0,0.0,0.0,0.0475431,0.021583496,0.0,0.0,0.0,0.0,0.0,0.0,0.0,nan,nan,nan,nan,nan,nan,0.0,-0.13347626,0.0,0.0,nan,0.0,0.0,0.004236564,0.0,0.0,0.0,0.0,0.0,0.0,0.0,0.0
49663746,0.0,0.0,0.0,0.048742656,0.021279037,0.0,0.0,0.0,0.0,0.0,0.0,0.0,nan,nan,nan,nan,nan,nan,0.0,0.05418396,0.0,0.0,nan,0.0,0.0,0.0042425618,0.0,0.0,0.0,0.0,0.0,0.0,0.0,0.0
50063872,0.0,0.0,0.0,0.050826646,0.021055955,0.0,0.0,0.0,0.0,0.0,0.0,0.0,nan,nan,nan,nan,nan,nan,0.0,0.24915314,0.0,0.0,nan,0.0,0.0,0.004319668,0.0,0.0,0.0,0.0,0.0,0.0,0.0,0.0
50464047,0.0,0.0,0.0,0.052909616,0.021416182,0.0,0.0,0.0,0.0,0.0,0.0,0.0,nan,nan,nan,nan,nan,nan,0.0,0.3560791,0.0,0.0,nan,0.0,0.0,0.004945785,0.0,0.0,0.0,0.0,0.0,0.0,0.0,0.0
50664139,0.0,0.0,0.0,0.053896338,0.021608815,0.0,0.0,0.0,0.0,0.0,0.0,0.0,nan,nan,nan,nan,nan,nan,0.0,0.1486206,0.0,0.0,nan,0.0,0.0,0.0073386803,0.0,0.0,0.0,0.0,0.0,0.0,0.0,0.0
50864252,0.0,0.0,0.0,0.05474397,0.021917285,0.0,0.0,0.0,0.0,0.0,0.0,0.0,nan,nan,nan,nan,nan,nan,0.0,0.048202515,0.0,0.0,nan,0.0,0.0,0.006351322,0.0,0.0,0.0,0.0,0.0,0.0,0.0,0.0
51064331,0.0,0.0,0.0,0.055476747,0.022262273,0.0,0.0,0.0,0.0,0.0,0.0,0.0,nan,nan,nan,nan,nan,nan,0.0,0.42939758,0.0,0.0,nan,0.0,0.0,0.0049143434,0.0,0.0,0.0,0.0,0.0,0.0,0.0,0.0
52665111,0.0,0.0,0.0,0.05737628,0.024082776,0.0,0.0,0.0,0.0,0.0,0.0,0.0,nan,nan,nan,nan,nan,nan,0.0,0.04222107,0.0,0.0,nan,0.0,0.0,0.0045499057,0.0,0.0,0.0,0.0,0.0,0.0,0.0,0.0
53065296,0.0,0.0,0.0,0.056912534,0.02442217,0.0,0.0,0.0,0.0,0.0,0.0,0.0,nan,nan,nan,nan,nan,nan,0.0,0.010536194,0.0,0.0,nan,0.0,0.0,0.0044561997,0.0,0.0,0.0,0.0,0.0,0.0,0.0,0.0
53665572,0.0,0.0,0.0,0.055192713,0.0234502,0.0,0.0,0.0,0.0,0.0,0.0,0.0,nan,nan,nan,nan,nan,nan,0.0,0.08409119,0.0,0.0,nan,0.0,0.0,0.004217118,0.0,0.0,0.0,0.0,0.0,0.0,0.0,0.0
53865667,0.0,0.0,0.0,0.054294735,0.02294659,0.0,0.0,0.0,0.0,0.0,0.0,0.0,nan,nan,nan,nan,nan,nan,0.0,0.21185303,0.0,0.0,nan,0.0,0.0,0.0036695525,0.0,0.0,0.0,0.0,0.0,0.0,0.0,0.0
54666051,0.0,0.0,0.0,0.05172055,0.021526748,0.0,0.0,0.0,0.0,0.0,0.0,0.0,nan,nan,nan,nan,nan,nan,0.0,0.14842224,0.0,0.0,nan,0.0,0.0,0.0049499273,0.0,0.0,0.0,0.0,0.0,0.0,0.0,0.0
54866147,0.0,0.0,0.0,0.051172078,0.021447191,0.0,0.0,0.0,0.0,0.0,0.0,0.0,nan,nan,nan,nan,nan,nan,0.0,0.02394104,0.0,0.0,nan,0.0,0.0,0.0043402836,0.0,0.0,0.0,0.0,0.0,0.0,0.0,0.0
55066254,0.0,0.0,0.0,0.050548773,0.021364158,0.0,0.0,0.0,0.0,0.0,0.0,0.0,nan,nan,nan,nan,nan,nan,0.0,0.19091797,0.0,0.0,nan,0.0,0.0,0.0046144724,0.0,0.0,0.0,0.0,0.0,0.0,0.0,0.0
55666541,0.0,0.0,0.0,0.048896316,0.02101422,0.0,0.0,0.0,0.0,0.0,0.0,0.0,nan,nan,nan,nan,nan,nan,0.0,0.13171387,0.0,0.0,nan,0.0,0.0,0.0025972724,0.0,0.0,0.0,0.0,0.0,0.0,0.0,0.0
56066724,0.0,0.0,0.0,0.048072778,0.021089647,0.0,0.0,0.0,0.0,0.0,0.0,0.0,nan,nan,nan,nan,nan,nan,0.0,0.15898132,0.0,0.0,nan,0.0,0.0,0.0039007366,0.0,0.0,0.0,0.0,0.0,0.0,0.0,0.0
57267305,0.0,0.0,0.0,0.0440414,0.020869495,0.0,0.0,0.0,0.0,0.0,0.0,0.0,nan,nan,nan,nan,nan,nan,0.0,0.026062012,0.0,0.0,nan,0.0,0.0,0.00025995076,0.0,0.0,0.0,0.0,0.0,0.0,0.0,0.0
57467402,0.0,0.0,0.0,0.04328827,0.020924404,0.0,0.0,0.0,0.0,0.0,0.0,0.0,nan,nan,nan,nan,nan,nan,0.0,-0.27388,0.0,0.0,nan,0.0,0.0,0.0009606555,0.0,0.0,0.0,0.0,0.0,0.0,0.0,0.0
57667505,0.0,0.0,0.0,0.042663317,0.021059303,0.0,0.0,0.0,0.0,0.0,0.0,0.0,nan,nan,nan,nan,nan,nan,0.0,0.20124054,0.0,0.0,nan,0.0,0.0,-0.0022132173,0.0,0.0,0.0,0.0,0.0,0.0,0.0,0.0
59068175,0.0,0.0,0.0,0.03733542,0.021750117,0.0,0.0,0.0,0.0,0.0,0.0,0.0,nan,nan,nan,nan,nan,nan,0.0,-0.13272095,0.0,0.0,nan,0.0,0.0,-5.2511692e-05,0.0,0.0,0.0,0.0,0.0,0.0,0.0,0.0
59268300,0.0,0.0,0.0,0.03657542,0.021950597,0.0,0.0,0.0,0.0,0.0,0.0,0.0,nan,nan,nan,nan,nan,nan,0.0,-0.14694214,0.0,0.0,nan,0.0,0.0,-0.00021788478,0.0,0.0,0.0,0.0,0.0,0.0,0.0,0.0
59668473,0.0,0.0,0.0,0.035317153,0.0223963,0.0,0.0,0.0,0.0,0.0,0.0,0.0,nan,nan,nan,nan,nan,nan,0.0,0.02809906,0.0,0.0,nan,0.0,0.0,-3.8452446e-05,0.0,0.0,0.0,0.0,0.0,0.0,0.0,0.0
59868561,0.0,0.0,0.0,0.034924377,0.022464272,0.0,0.0,0.0,0.0,0.0,0.0,0.0,nan,nan,nan,nan,nan,nan,0.0,-0.39665222,0.0,0.0,nan,0.0,0.0,0.00010806322,0.0,0.0,0.0,0.0,0.0,0.0,0.0,0.0
60068670,0.0,0.0,0.0,0.034671955,0.022582026,0.0,0.0,0.0,0.0,0.0,0.0,0.0,nan,nan,nan,nan,nan,nan,0.0,-0.09149933,0.0,0.0,nan,0.0,0.0,0.0024149194,0.0,0.0,0.0,0.0,0.0,0.0,0.0,0.0
60268759,0.0,0.0,0.0,0.0344039,0.022759184,0.0,0.0,0.0,0.0,0.0,0.0,0.0,nan,nan,nan,nan,nan,nan,0.0,-0.20134735,0.0,0.0,nan,0.0,0.0,0.0011996031,0.0,0.0,0.0,0.0,0.0,0.0,0.0,0.0
60869056,0.0,0.0,0.0,0.033684798,0.023140792,0.0,0.0,0.0,0.0,0.0,0.0,0.0,nan,nan,nan,nan,nan,nan,0.0,-0.29947662,0.0,0.0,nan,0.0,0.0,-0.0005534366,0.0,0.0,0.0,0.0,0.0,0.0,0.0,0.0
61069159,0.0,0.0,0.0,0.03356266,0.02334756,0.0,0.0,0.0,0.0,0.0,0.0,0.0,nan,nan,nan,nan,nan,nan,0.0,-0.12373352,0.0,0.0,nan,0.0,0.0,-0.0016308948,0.0,0.0,0.0,0.0,0.0,0.0,0.0,0.0
62469827,0.0,0.0,0.0,0.03296047,0.024698718,0.0,0.0,0.0,0.0,0.0,0.0,0.0,nan,nan,nan,nan,nan,nan,0.0,-0.26908875,0.0,0.0,nan,0.0,0.0,0.00016994774,0.0,0.0,0.0,0.0,0.0,0.0,0.0,0.0
62669924,0.0,0.0,0.0,0.033191223,0.025006667,0.0,0.0,0.0,0.0,0.0,0.0,0.0,nan,nan,nan,nan,nan,nan,0.0,-0.4441986,0.0,0.0,nan,0.0,0.0,0.0022553056,0.0,0.0,0.0,0.0,0.0,0.0,0.0,0.0
62870029,0.0,0.0,0.0,0.033430632,0.025414752,0.0,0.0,0.0,0.0,0.0,0.0,0.0,nan,nan,nan,nan,nan,nan,0.0,-0.24895477,0.0,0.0,nan,0.0,0.0,0.0037647411,0.0,0.0,0.0,0.0,0.0,0.0,0.0,0.0
63060115,0.0,0.0,0.0,0.033715308,0.025640564,0.0,0.0,0.0,0.0,0.0,0.0,0.0,nan,nan,nan,nan,nan,nan,0.0,-0.18724823,0.0,0.0,nan,0.0,0.0,0.002465196,0.0,0.0,0.0,0.0,0.0,0.0,0.0,0.0
63260215,0.0,0.0,0.0,0.034104966,0.025884489,0.0,0.0,0.0,0.0,0.0,0.0,0.0,nan,nan,nan,nan,nan,nan,0.0,-0.14967346,0.0,0.0,nan,0.0,0.0,0.0023437738,0.0,0.0,0.0,0.0,0.0,0.0,0.0,0.0
63660414,0.0,0.0,0.0,0.035144135,0.02591065,0.0,0.0,0.0,0.0,0.0,0.0,0.0,nan,nan,nan,nan,nan,nan,0.0,-0.23728943,0.0,0.0,nan,0.0,0.0,0.001513429,0.0,0.0,0.0,0.0,0.0,0.0,0.0,0.0
63860509,0.0,0.0,0.0,0.035777897,0.025946334,0.0,0.0,0.0,0.0,0.0,0.0,0.0,nan,nan,nan,nan,nan,nan,0.0,-0.28768158,0.0,0.0,nan,0.0,0.0,0.0034443364,0.0,0.0,0.0,0.0,0.0,0.0,0.0,0.0
65861515,0.0,0.0,0.0,0.04170413,0.0260509,0.0,0.0,0.0,0.0,0.0,0.0,0.0,nan,nan,nan,nan,nan,nan,0.0,-0.20845795,0.0,0.0,nan,0.0,0.0,0.0022535324,0.0,0.0,0.0,0.0,0.0,0.0,0.0,0.0
66061610,0.0,0.0,0.0,0.042373497,0.025925277,0.0,0.0,0.0,0.0,0.0,0.0,0.0,nan,nan,nan,nan,nan,nan,0.0,0.12851715,0.0,0.0,nan,0.0,0.0,0.0045372546,0.0,0.0,0.0,0.0,0.0,0.0,0.0,0.0
66461782,0.0,0.0,0.0,0.04384052,0.025572302,0.0,0.0,0.0,0.0,0.0,0.0,0.0,nan,nan,nan,nan,nan,nan,0.0,0.12272644,0.0,0.0,nan,0.0,0.0,0.0039199367,0.0,0.0,0.0,0.0,0.0,0.0,0.0,0.0
66661881,0.0,0.0,0.0,0.044657864,0.025210707,0.0,0.0,0.0,0.0,0.0,0.0,0.0,nan,nan,nan,nan,nan,nan,0.0,-0.27879333,0.0,0.0,nan,0.0,0.0,0.0043788776,0.0,0.0,0.0,0.0,0.0,0.0,0.0,0.0
66861979,0.0,0.0,0.0,0.045595203,0.024699053,0.0,0.0,0.0,0.0,0.0,0.0,0.0,nan,nan,nan,nan,nan,nan,0.0,-0.3073578,0.0,0.0,nan,0.0,0.0,0.005685486,0.0,0.0,0.0,0.0,0.0,0.0,0.0,0.0
67262197,0.0,0.0,0.0,0.047256656,0.023645274,0.0,0.0,0.0,0.0,0.0,0.0,0.0,nan,nan,nan,nan,nan,nan,0.0,0.22988892,0.0,0.0,nan,0.0,0.0,0.0055164546,0.0,0.0,0.0,0.0,0.0,0.0,0.0,0.0
68262670,0.0,0.0,0.0,0.051541522,0.021859832,0.0,0.0,0.0,0.0,0.0,0.0,0.0,nan,nan,nan,nan,nan,nan,0.0,0.26996613,0.0,0.0,nan,0.0,0.0,0.0047980696,0.0,0.0,0.0,0.0,0.0,0.0,0.0,0.0
68662868,0.0,0.0,0.0,0.052217383,0.021449212,0.0,0.0,0.0,0.0,0.0,0.0,0.0,nan,nan,nan,nan,nan,nan,0.0,0.30973816,0.0,0.0,nan,0.0,0.0,0.0036279634,0.0,0.0,0.0,0.0,0.0,0.0,0.0,0.0
68862975,0.0,0.0,0.0,0.05218914,0.021372749,0.0,0.0,0.0,0.0,0.0,0.0,0.0,nan,nan,nan,nan,nan,nan,0.0,-0.044784546,0.0,0.0,nan,0.0,0.0,0.0030093119,0.0,0.0,0.0,0.0,0.0,0.0,0.0,0.0
69263164,0.0,0.0,0.0,0.051780533,0.021454252,0.0,0.0,0.0,0.0,0.0,0.0,0.0,nan,nan,nan,nan,nan,nan,0.0,0.16148376,0.0,0.0,nan,0.0,0.0,0.004279658,0.0,0.0,0.0,0.0,0.0,0.0,0.0,0.0
70663868,0.0,0.0,0.0,0.05007735,0.02073794,0.0,0.0,0.0,0.0,0.0,0.0,0.0,nan,nan,nan,nan,nan,nan,0.0,-0.12502289,0.0,0.0,nan,0.0,0.0,0.005129643,0.0,0.0,0.0,0.0,0.0,0.0,0.0,0.0
70863957,0.0,0.0,0.0,0.049845427,0.020183325,0.0,0.0,0.0,0.0,0.0,0.0,0.0,nan,nan,nan,nan,nan,nan,0.0,-0.0946579,0.0,0.0,nan,0.0,0.0,0.0036791712,0.0,0.0,0.0,0.0,0.0,0.0,0.0,0.0
71664413,0.0,0.0,0.0,0.04855255,0.018715704,0.0,0.0,0.0,0.0,0.0,0.0,0.0,nan,nan,nan,nan,nan,nan,0.0,0.12146759,0.0,0.0,nan,0.0,0.0,0.0026165992,0.0,0.0,0.0,0.0,0.0,0.0,0.0,0.0
72464765,0.0,0.0,0.0,0.04697208,0.01671313,0.0,0.0,0.0,0.0,0.0,0.0,0.0,nan,nan,nan,nan,nan,nan,0.0,-0.052352905,0.0,0.0,nan,0.0,0.0,0.0038209409,0.0,0.0,0.0,0.0,0.0,0.0,0.0,0.0
72664852,0.0,0.0,0.0,0.046395868,0.016415872,0.0,0.0,0.0,0.0,0.0,0.0,0.0,nan,nan,nan,nan,nan,nan,0.0,-0.16486359,0.0,0.0,nan,0.0,0.0,0.003661722,0.0,0.0,0.0,0.0,0.0,0.0,0.0,0.0
72864951,0.0,0.0,0.0,0.0458233,0.01608299,0.0,0.0,0.0,0.0,0.0,0.0,0.0,nan,nan,nan,nan,nan,nan,0.0,-0.12724304,0.0,0.0,nan,0.0,0.0,0.003506638,0.0,0.0,0.0,0.0,0.0,0.0,0.0,0.0
73065081,0.0,0.0,0.0,0.04511645,0.015801057,0.0,0.0,0.0,0.0,0.0,0.0,0.0,nan,nan,nan,nan,nan,nan,0.0,-0.057998657,0.0,0.0,nan,0.0,0.0,0.005414963,0.0,0.0,0.0,0.0,0.0,0.0,0.0,0.0
73465253,0.0,0.0,0.0,0.04370022,0.015035963,0.0,0.0,0.0,0.0,0.0,0.0,0.0,nan,nan,nan,nan,nan,nan,0.0,-0.26248932,0.0,0.0,nan,0.0,0.0,0.0037222877,0.0,0.0,0.0,0.0,0.0,0.0,0.0,0.0
73665350,0.0,0.0,0.0,0.04317984,0.014586778,0.0,0.0,0.0,0.0,0.0,0.0,0.0,nan,nan,nan,nan,nan,nan,0.0,-0.1213913,0.0,0.0,nan,0.0,0.0,0.0035950989,0.0,0.0,0.0,0.0,0.0,0.0,0.0,0.0
73865453,0.0,0.0,0.0,0.042731117,0.014243932,0.0,0.0,0.0,0.0,0.0,0.0,0.0,nan,nan,nan,nan,nan,nan,0.0,-0.40942383,0.0,0.0,nan,0.0,0.0,0.0024720505,0.0,0.0,0.0,0.0,0.0,0.0,0.0,0.0
74065571,0.0,0.0,0.0,0.042198945,0.014163828,0.0,0.0,0.0,0.0,0.0,0.0,0.0,nan,nan,nan,nan,nan,nan,0.0,-0.19481659,0.0,0.0,nan,0.0,0.0,0.0038734823,0.0,0.0,0.0,0.0,0.0,0.0,0.0,0.0
74265651,0.0,0.0,0.0,0.041730262,0.01420185,0.0,0.0,0.0,0.0,0.0,0.0,0.0,nan,nan,nan,nan,nan,nan,0.0,-0.18110657,0.0,0.0,nan,0.0,0.0,0.005518414,0.0,0.0,0.0,0.0,0.0,0.0,0.0,0.0
74665871,0.0,0.0,0.0,0.04052739,0.014436654,0.0,0.0,0.0,0.0,0.0,0.0,0.0,nan,nan,nan,nan,nan,nan,0.0,-0.2052002,0.0,0.0,nan,0.0,0.0,0.006622657,0.0,0.0,0.0,0.0,0.0,0.0,0.0,0.0
75066067,0.0,0.0,0.0,0.03930548,0.015098401,0.0,0.0,0.0,0.0,0.0,0.0,0.0,nan,nan,nan,nan,nan,nan,0.0,-0.0668869,0.0,0.0,nan,0.0,0.0,0.0033933818,0.0,0.0,0.0,0.0,0.0,0.0,0.0,0.0
75266149,0.0,0.0,0.0,0.038642183,0.015610938,0.0,0.0,0.0,0.0,0.0,0.0,0.0,nan,nan,nan,nan,nan,nan,0.0,0.057235718,0.0,0.0,nan,0.0,0.0,0.0044858307,0.0,0.0,0.0,0.0,0.0,0.0,0.0,0.0
75666352,0.0,0.0,0.0,0.037528332,0.01701576,0.0,0.0,0.0,0.0,0.0,0.0,0.0,nan,nan,nan,nan,nan,nan,0.0,-0.26860046,0.0,0.0,nan,0.0,0.0,0.0039488003,0.0,0.0,0.0,0.0,0.0,0.0,0.0,0.0
75866514,0.0,0.0,0.0,0.037135053,0.017685302,0.0,0.0,0.0,0.0,0.0,0.0,0.0,nan,nan,nan,nan,nan,nan,0.0,-0.046691895,0.0,0.0,nan,0.0,0.0,0.005471781,0.0,0.0,0.0,0.0,0.0,0.0,0.0,0.0
76666862,0.0,0.0,0.0,0.036274217,0.02048618,0.0,0.0,0.0,0.0,0.0,0.0,0.0,nan,nan,nan,nan,nan,nan,0.0,0.014381409,0.0,0.0,nan,0.0,0.0,0.004437484,0.0,0.0,0.0,0.0,0.0,0.0,0.0,0.0
76866977,0.0,0.0,0.0,0.03621284,0.02116276,0.0,0.0,0.0,0.0,0.0,0.0,0.0,nan,nan,nan,nan,nan,nan,0.0,0.10443878,0.0,0.0,nan,0.0,0.0,0.0059644356,0.0,0.0,0.0,0.0,0.0,0.0,0.0,0.0
77067055,0.0,0.0,0.0,0.036224145,0.021849552,0.0,0.0,0.0,0.0,0.0,0.0,0.0,nan,nan,nan,nan,nan,nan,0.0,-0.0382843,0.0,0.0,nan,0.0,0.0,0.005555354,0.0,0.0,0.0,0.0,0.0,0.0,0.0,0.0
77667363,0.0,0.0,0.0,0.036154326,0.023897294,0.0,0.0,0.0,0.0,0.0,0.0,0.0,nan,nan,nan,nan,nan,nan,0.0,0.21899414,0.0,0.0,nan,0.0,0.0,0.007927313,0.0,0.0,0.0,0.0,0.0,0.0,0.0,0.0
78067564,0.0,0.0,0.0,0.036316894,0.024924934,0.0,0.0,0.0,0.0,0.0,0.0,0.0,nan,nan,nan,nan,nan,nan,0.0,-0.09083557,0.0,0.0,nan,0.0,0.0,0.004204482,0.0,0.0,0.0,0.0,0.0,0.0,0.0,0.0
78467755,0.0,0.0,0.0,0.036525678,0.025910107,0.0,0.0,0.0,0.0,0.0,0.0,0.0,nan,nan,nan,nan,nan,nan,0.0,-0.18180847,0.0,0.0,nan,0.0,0.0,0.005745165,0.0,0.0,0.0,0.0,0.0,0.0,0.0,0.0
79868466,0.0,0.0,0.0,0.033780113,0.027806265,0.0,0.0,0.0,0.0,0.0,0.0,0.0,nan,nan,nan,nan,nan,nan,0.0,0.05996704,0.0,0.0,nan,0.0,0.0,0.00768777,0.0,0.0,0.0,0.0,0.0,0.0,0.0,0.0
80868974,0.0,0.0,0.0,0.031954303,0.027612913,0.0,0.0,0.0,0.0,0.0,0.0,0.0,nan,nan,nan,nan,nan,nan,0.0,0.1926651,0.0,0.0,nan,0.0,0.0,0.008381538,0.0,0.0,0.0,0.0,0.0,0.0,0.0,0.0
81069066,0.0,0.0,0.0,0.031764884,0.027481494,0.0,0.0,0.0,0.0,0.0,0.0,0.0,nan,nan,nan,nan,nan,nan,0.0,-0.18392181,0.0,0.0,nan,0.0,0.0,0.009627603,0.0,0.0,0.0,0.0,0.0,0.0,0.0,0.0
81869483,0.0,0.0,0.0,0.032459788,0.026429575,0.0,0.0,0.0,0.0,0.0,0.0,0.0,nan,nan,nan,nan,nan,nan,0.0,-0.17855835,0.0,0.0,nan,0.0,0.0,0.008078009,0.0,0.0,0.0,0.0,0.0,0.0,0.0,0.0
82069572,0.0,0.0,0.0,0.03293909,0.025928276,0.0,0.0,0.0,0.0,0.0,0.0,0.0,nan,nan,nan,nan,nan,nan,0.0,-0.03892517,0.0,0.0,nan,0.0,0.0,0.0070201755,0.0,0.0,0.0,0.0,0.0,0.0,0.0,0.0
82269673,0.0,0.0,0.0,0.03349655,0.025444517,0.0,0.0,0.0,0.0,0.0,0.0,0.0,nan,nan,nan,nan,nan,nan,0.0,0.12628937,0.0,0.0,nan,0.0,0.0,0.0073743835,0.0,0.0,0.0,0.0,0.0,0.0,0.0,0.0
82469775,0.0,0.0,0.0,0.03408807,0.024962164,0.0,0.0,0.0,0.0,0.0,0.0,0.0,nan,nan,nan,nan,nan,nan,0.0,-0.0916214,0.0,0.0,nan,0.0,0.0,0.004117064,0.0,0.0,0.0,0.0,0.0,0.0,0.0,0.0
82859973,0.0,0.0,0.0,0.03548195,0.024118414,0.0,0.0,0.0,0.0,0.0,0.0,0.0,nan,nan,nan,nan,nan,nan,0.0,-0.20134735,0.0,0.0,nan,0.0,0.0,0.00539276,0.0,0.0,0.0,0.0,0.0,0.0,0.0,0.0
83660381,0.0,0.0,0.0,0.038655125,0.022974437,0.0,0.0,0.0,0.0,0.0,0.0,0.0,nan,nan,nan,nan,nan,nan,0.0,-0.0635376,0.0,0.0,nan,0.0,0.0,0.006698884,0.0,0.0,0.0,0.0,0.0,0.0,0.0,0.0
83860480,0.0,0.0,0.0,0.03976623,0.022743002,0.0,0.0,0.0,0.0,0.0,0.0,0.0,nan,nan,nan,nan,nan,nan,0.0,0.017852783,0.0,0.0,nan,0.0,0.0,0.0058856905,0.0,0.0,0.0,0.0,0.0,0.0,0.0,0.0
84460789,0.0,0.0,0.0,0.042927783,0.021702582,0.0,0.0,0.0,0.0,0.0,0.0,0.0,nan,nan,nan,nan,nan,nan,0.0,-0.07619476,0.0,0.0,nan,0.0,0.0,0.0062469766,0.0,0.0,0.0,0.0,0.0,0.0,0.0,0.0
84660887,0.0,0.0,0.0,0.044208728,0.021087421,0.0,0.0,0.0,0.0,0.0,0.0,0.0,nan,nan,nan,nan,nan,nan,0.0,0.061576843,0.0,0.0,nan,0.0,0.0,0.004600644,0.0,0.0,0.0,0.0,0.0,0.0,0.0,0.0
85261192,0.0,0.0,0.0,0.047536388,0.018967122,0.0,0.0,0.0,0.0,0.0,0.0,0.0,nan,nan,nan,nan,nan,nan,0.0,0.044395447,0.0,0.0,nan,0.0,0.0,0.00568112,0.0,0.0,0.0,0.0,0.0,0.0,0.0,0.0
85461300,0.0,0.0,0.0,0.04862627,0.01836387,0.0,0.0,0.0,0.0,0.0,0.0,0.0,nan,nan,nan,nan,nan,nan,0.0,0.22567749,0.0,0.0,nan,0.0,0.0,0.0040296093,0.0,0.0,0.0,0.0,0.0,0.0,0.0,0.0
85661404,0.0,0.0,0.0,0.049756438,0.017962378,0.0,0.0,0.0,0.0,0.0,0.0,0.0,nan,nan,nan,nan,nan,nan,0.0,0.07473755,0.0,0.0,nan,0.0,0.0,0.0053773373,0.0,0.0,0.0,0.0,0.0,0.0,0.0,0.0
85861502,0.0,0.0,0.0,0.050778147,0.01753407,0.0,0.0,0.0,0.0,0.0,0.0,0.0,nan,nan,nan,nan,nan,nan,0.0,0.14712524,0.0,0.0,nan,0.0,0.0,0.005276561,0.0,0.0,0.0,0.0,0.0,0.0,0.0,0.0
86061603,0.0,0.0,0.0,0.05172131,0.01686398,0.0,0.0,0.0,0.0,0.0,0.0,0.0,nan,nan,nan,nan,nan,nan,0.0,0.055259705,0.0,0.0,nan,0.0,0.0,0.0029828995,0.0,0.0,0.0,0.0,0.0,0.0,0.0,0.0
86261705,0.0,0.0,0.0,0.052631117,0.01621906,0.0,0.0,0.0,0.0,0.0,0.0,0.0,nan,nan,nan,nan,nan,nan,0.0,0.016471863,0.0,0.0,nan,0.0,0.0,0.0041071028,0.0,0.0,0.0,0.0,0.0,0.0,0.0,0.0
86461804,0.0,0.0,0.0,0.053541746,0.015487703,0.0,0.0,0.0,0.0,0.0,0.0,0.0,nan,nan,nan,nan,nan,nan,0.0,0.08163452,0.0,0.0,nan,0.0,0.0,0.0052980185,0.0,0.0,0.0,0.0,0.0,0.0,0.0,0.0
87262220,0.0,0.0,0.0,0.057396278,0.013179408,0.0,0.0,0.0,0.0,0.0,0.0,0.0,nan,nan,nan,nan,nan,nan,0.0,-0.33647156,0.0,0.0,nan,0.0,0.0,0.00437472,0.0,0.0,0.0,0.0,0.0,0.0,0.0,0.0
87462318,0.0,0.0,0.0,0.058519702,0.012732069,0.0,0.0,0.0,0.0,0.0,0.0,0.0,nan,nan,nan,nan,nan,nan,0.0,-0.0665741,0.0,0.0,nan,0.0,0.0,0.0034958944,0.0,0.0,0.0,0.0,0.0,0.0,0.0,0.0
87662419,0.0,0.0,0.0,0.05963747,0.01241403,0.0,0.0,0.0,0.0,0.0,0.0,0.0,nan,nan,nan,nan,nan,nan,0.0,0.06465912,0.0,0.0,nan,0.0,0.0,0.0041936263,0.0,0.0,0.0,0.0,0.0,0.0,0.0,0.0
87862519,0.0,0.0,0.0,0.0605945,0.012151471,0.0,0.0,0.0,0.0,0.0,0.0,0.0,nan,nan,nan,nan,nan,nan,0.0,-0.06012726,0.0,0.0,nan,0.0,0.0,0.0066768005,0.0,0.0,0.0,0.0,0.0,0.0,0.0,0.0
88462826,0.0,0.0,0.0,0.06269332,0.011444676,0.0,0.0,0.0,0.0,0.0,0.0,0.0,nan,nan,nan,nan,nan,nan,0.0,0.041259766,0.0,0.0,nan,0.0,0.0,0.0043322295,0.0,0.0,0.0,0.0,0.0,0.0,0.0,0.0
88662931,0.0,0.0,0.0,0.06341018,0.011030784,0.0,0.0,0.0,0.0,0.0,0.0,0.0,nan,nan,nan,nan,nan,nan,0.0,-0.07607269,0.0,0.0,nan,0.0,0.0,0.004759729,0.0,0.0,0.0,0.0,0.0,0.0,0.0,0.0
89263280,0.0,0.0,0.0,0.06510285,0.009332715,0.0,0.0,0.0,0.0,0.0,0.0,0.0,nan,nan,nan,nan,nan,nan,0.0,0.13034058,0.0,0.0,nan,0.0,0.0,0.0056367293,0.0,0.0,0.0,0.0,0.0,0.0,0.0,0.0
89463341,0.0,0.0,0.0,0.06557543,0.008968552,0.0,0.0,0.0,0.0,0.0,0.0,0.0,nan,nan,nan,nan,nan,nan,0.0,0.12458038,0.0,0.0,nan,0.0,0.0,0.0051945746,0.0,0.0,0.0,0.0,0.0,0.0,0.0,0.0
89663464,0.0,0.0,0.0,0.06600227,0.0087494925,0.0,0.0,0.0,0.0,0.0,0.0,0.0,nan,nan,nan,nan,nan,nan,0.0,0.14683533,0.0,0.0,nan,0.0,0.0,0.004318014,0.0,0.0,0.0,0.0,0.0,0.0,0.0,0.0
89863543,0.0,0.0,0.0,0.06636661,0.0085605215,0.0,0.0,0.0,0.0,0.0,0.0,0.0,nan,nan,nan,nan,nan,nan,0.0,-0.06826782,0.0,0.0,nan,0.0,0.0,0.0051937327,0.0,0.0,0.0,0.0,0.0,0.0,0.0,0.0
91064183,0.0,0.0,0.0,0.06686713,0.00905052,0.0,0.0,0.0,0.0,0.0,0.0,0.0,nan,nan,nan,nan,nan,nan,0.0,-0.11620331,0.0,0.0,nan,0.0,0.0,0.0056336373,0.0,0.0,0.0,0.0,0.0,0.0,0.0,0.0
91464367,0.0,0.0,0.0,0.06601079,0.010077207,0.0,0.0,0.0,0.0,0.0,0.0,0.0,nan,nan,nan,nan,nan,nan,0.0,0.018333435,0.0,0.0,nan,0.0,0.0,0.0038311258,0.0,0.0,0.0,0.0,0.0,0.0,0.0,0.0
91864585,0.0,0.0,0.0,0.06466621,0.011391613,0.0,0.0,0.0,0.0,0.0,0.0,0.0,nan,nan,nan,nan,nan,nan,0.0,-0.07585144,0.0,0.0,nan,0.0,0.0,0.0058335587,0.0,0.0,0.0,0.0,0.0,0.0,0.0,0.0
92264810,0.0,0.0,0.0,0.06312977,0.012401868,0.0,0.0,0.0,0.0,0.0,0.0,0.0,nan,nan,nan,nan,nan,nan,0.0,-0.050941467,0.0,0.0,nan,0.0,0.0,0.007996567,0.0,0.0,0.0,0.0,0.0,0.0,0.0,0.0
92464895,0.0,0.0,0.0,0.062341195,0.012510884,0.0,0.0,0.0,0.0,0.0,0.0,0.0,nan,nan,nan,nan,nan,nan,0.0,0.09740448,0.0,0.0,nan,0.0,0.0,0.0036459789,0.0,0.0,0.0,0.0,0.0,0.0,0.0,0.0
92865086,0.0,0.0,0.0,0.060814153,0.012621128,0.0,0.0,0.0,0.0,0.0,0.0,0.0,nan,nan,nan,nan,nan,nan,0.0,0.0974884,0.0,0.0,nan,0.0,0.0,0.0060119405,0.0,0.0,0.0,0.0,0.0,0.0,0.0,0.0
93065194,0.0,0.0,0.0,0.059963495,0.012580748,0.0,0.0,0.0,0.0,0.0,0.0,0.0,nan,nan,nan,nan,nan,nan,0.0,0.48166656,0.0,0.0,nan,0.0,0.0,0.0048311576,0.0,0.0,0.0,0.0,0.0,0.0,0.0,0.0
93465404,0.0,0.0,0.0,0.0579741,0.012605216,0.0,0.0,0.0,0.0,0.0,0.0,0.0,nan,nan,nan,nan,nan,nan,0.0,0.24864197,0.0,0.0,nan,0.0,0.0,0.0056177974,0.0,0.0,0.0,0.0,0.0,0.0,0.0,0.0
93665527,0.0,0.0,0.0,0.05698341,0.01281162,0.0,0.0,0.0,0.0,0.0,0.0,0.0,nan,nan,nan,nan,nan,nan,0.0,0.23439026,0.0,0.0,nan,0.0,0.0,0.006546952,0.0,0.0,0.0,0.0,0.0,0.0,0.0,0.0
94065708,0.0,0.0,0.0,0.054740757,0.01344911,0.0,0.0,0.0,0.0,0.0,0.0,0.0,nan,nan,nan,nan,nan,nan,0.0,0.21984863,0.0,0.0,nan,0.0,0.0,0.007866658,0.0,0.0,0.0,0.0,0.0,0.0,0.0,0.0
94465912,0.0,0.0,0.0,0.052796427,0.014356113,0.0,0.0,0.0,0.0,0.0,0.0,0.0,nan,nan,nan,nan,nan,nan,0.0,-0.08974457,0.0,0.0,nan,0.0,0.0,0.0070926175,0.0,0.0,0.0,0.0,0.0,0.0,0.0,0.0
94666019,0.0,0.0,0.0,0.051810198,0.014760158,0.0,0.0,0.0,0.0,0.0,0.0,0.0,nan,nan,nan,nan,nan,nan,0.0,-0.031921387,0.0,0.0,nan,0.0,0.0,0.0067130625,0.0,0.0,0.0,0.0,0.0,0.0,0.0,0.0
94866120,0.0,0.0,0.0,0.050932825,0.0151847955,0.0,0.0,0.0,0.0,0.0,0.0,0.0,nan,nan,nan,nan,nan,nan,0.0,0.057540894,0.0,0.0,nan,0.0,0.0,0.003587626,0.0,0.0,0.0,0.0,0.0,0.0,0.0,0.0
95066248,0.0,0.0,0.0,0.050202787,0.015630793,0.0,0.0,0.0,0.0,0.0,0.0,0.0,nan,nan,nan,nan,nan,nan,0.0,0.04058838,0.0,0.0,nan,0.0,0.0,0.0031389818,0.0,0.0,0.0,0.0,0.0,0.0,0.0,0.0
95466436,0.0,0.0,0.0,0.04875556,0.01581196,0.0,0.0,0.0,0.0,0.0,0.0,0.0,nan,nan,nan,nan,nan,nan,0.0,0.13807678,0.0,0.0,nan,0.0,0.0,0.006717488,0.0,0.0,0.0,0.0,0.0,0.0,0.0,0.0
96066741,0.0,0.0,0.0,0.047048427,0.01652581,0.0,0.0,0.0,0.0,0.0,0.0,0.0,nan,nan,nan,nan,nan,nan,0.0,0.39474487,0.0,0.0,nan,0.0,0.0,0.0052411854,0.0,0.0,0.0,0.0,0.0,0.0,0.0,0.0
96266845,0.0,0.0,0.0,0.046647884,0.016833303,0.0,0.0,0.0,0.0,0.0,0.0,0.0,nan,nan,nan,nan,nan,nan,0.0,0.34222412,0.0,0.0,nan,0.0,0.0,0.004294418,0.0,0.0,0.0,0.0,0.0,0.0,0.0,0.0
96466950,0.0,0.0,0.0,0.046268117,0.017190777,0.0,0.0,0.0,0.0,0.0,0.0,0.0,nan,nan,nan,nan,nan,nan,0.0,0.100631714,0.0,0.0,nan,0.0,0.0,0.004119709,0.0,0.0,0.0,0.0,0.0,0.0,0.0,0.0
96867156,0.0,0.0,0.0,0.045399208,0.017615482,0.0,0.0,0.0,0.0,0.0,0.0,0.0,nan,nan,nan,nan,nan,nan,0.0,0.1155777,0.0,0.0,nan,0.0,0.0,0.005250305,0.0,0.0,0.0,0.0,0.0,0.0,0.0,0.0
97067263,0.0,0.0,0.0,0.04499418,0.017769545,0.0,0.0,0.0,0.0,0.0,0.0,0.0,nan,nan,nan,nan,nan,nan,0.0,0.21409607,0.0,0.0,nan,0.0,0.0,0.0059212595,0.0,0.0,0.0,0.0,0.0,0.0,0.0,0.0
97267366,0.0,0.0,0.0,0.04460728,0.018077342,0.0,0.0,0.0,0.0,0.0,0.0,0.0,nan,nan,nan,nan,nan,nan,0.0,0.18067932,0.0,0.0,nan,0.0,0.0,0.006101273,0.0,0.0,0.0,0.0,0.0,0.0,0.0,0.0
97667571,0.0,0.0,0.0,0.043810643,0.018997917,0.0,0.0,0.0,0.0,0.0,0.0,0.0,nan,nan,nan,nan,nan,nan,0.0,0.02948761,0.0,0.0,nan,0.0,0.0,0.0064569935,0.0,0.0,0.0,0.0,0.0,0.0,0.0,0.0
97867683,0.0,0.0,0.0,0.043516774,0.019369584,0.0,0.0,0.0,0.0,0.0,0.0,0.0,nan,nan,nan,nan,nan,nan,0.0,-0.098213196,0.0,0.0,nan,0.0,0.0,0.006960705,0.0,0.0,0.0,0.0,0.0,0.0,0.0,0.0
98267887,0.0,0.0,0.0,0.043169502,0.01974322,0.0,0.0,0.0,0.0,0.0,0.0,0.0,nan,nan,nan,nan,nan,nan,0.0,-0.18005371,0.0,0.0,nan,0.0,0.0,0.008603714,0.0,0.0,0.0,0.0,0.0,0.0,0.0,0.0
98668091,0.0,0.0,0.0,0.04318319,0.020282404,0.0,0.0,0.0,0.0,0.0,0.0,0.0,nan,nan,nan,nan,nan,nan,0.0,0.05319214,0.0,0.0,nan,0.0,0.0,0.0052250624,0.0,0.0,0.0,0.0,0.0,0.0,0.0,0.0
98868196,0.0,0.0,0.0,0.043210045,0.020570885,0.0,0.0,0.0,0.0,0.0,0.0,0.0,nan,nan,nan,nan,nan,nan,0.0,0.237854,0.0,0.0,nan,0.0,0.0,0.008407228,0.0,0.0,0.0,0.0,0.0,0.0,0.0,0.0
99268407,0.0,0.0,0.0,0.043153297,0.021009915,0.0,0.0,0.0,0.0,0.0,0.0,0.0,nan,nan,nan,nan,nan,nan,0.0,0.12620544,0.0,0.0,nan,0.0,0.0,0.010132931,0.0,0.0,0.0,0.0,0.0,0.0,0.0,0.0
101069374,0.0,0.0,0.0,0.04302084,0.021493781,0.0,0.0,0.0,0.0,0.0,0.0,0.0,nan,nan,nan,nan,nan,nan,0.0,-0.21266174,0.0,0.0,nan,0.0,0.0,0.010052584,0.0,0.0,0.0,0.0,0.0,0.0,0.0,0.0
101269452,0.0,0.0,0.0,0.04299618,0.02138977,0.0,0.0,0.0,0.0,0.0,0.0,0.0,nan,nan,nan,nan,nan,nan,0.0,-0.06511688,0.0,0.0,nan,0.0,0.0,0.011801489,0.0,0.0,0.0,0.0,0.0,0.0,0.0,0.0
101469554,0.0,0.0,0.0,0.043019254,0.021377828,0.0,0.0,0.0,0.0,0.0,0.0,0.0,nan,nan,nan,nan,nan,nan,0.0,0.027763367,0.0,0.0,nan,0.0,0.0,0.011588752,0.0,0.0,0.0,0.0,0.0,0.0,0.0,0.0
102860292,0.0,0.0,0.0,0.042419624,0.019354839,0.0,0.0,0.0,0.0,0.0,0.0,0.0,nan,nan,nan,nan,nan,nan,0.0,-0.009864807,0.0,0.0,nan,0.0,0.0,0.009731397,0.0,0.0,0.0,0.0,0.0,0.0,0.0,0.0
103060404,0.0,0.0,0.0,0.042117782,0.018892134,0.0,0.0,0.0,0.0,0.0,0.0,0.0,nan,nan,nan,nan,nan,nan,0.0,0.02985382,0.0,0.0,nan,0.0,0.0,0.011889473,0.0,0.0,0.0,0.0,0.0,0.0,0.0,0.0
103860810,0.0,0.0,0.0,0.04188514,0.017413137,0.0,0.0,0.0,0.0,0.0,0.0,0.0,nan,nan,nan,nan,nan,nan,0.0,0.113983154,0.0,0.0,nan,0.0,0.0,0.009981282,0.0,0.0,0.0,0.0,0.0,0.0,0.0,0.0
104060913,0.0,0.0,0.0,0.042133495,0.017128397,0.0,0.0,0.0,0.0,0.0,0.0,0.0,nan,nan,nan,nan,nan,nan,0.0,0.03567505,0.0,0.0,nan,0.0,0.0,0.010720275,0.0,0.0,0.0,0.0,0.0,0.0,0.0,0.0
104461130,0.0,0.0,0.0,0.042887013,0.016492428,0.0,0.0,0.0,0.0,0.0,0.0,0.0,nan,nan,nan,nan,nan,nan,0.0,-0.11253357,0.0,0.0,nan,0.0,0.0,0.009068169,0.0,0.0,0.0,0.0,0.0,0.0,0.0,0.0
104861338,0.0,0.0,0.0,0.043527674,0.016136797,0.0,0.0,0.0,0.0,0.0,0.0,0.0,nan,nan,nan,nan,nan,nan,0.0,0.076927185,0.0,0.0,nan,0.0,0.0,0.012220174,0.0,0.0,0.0,0.0,0.0,0.0,0.0,0.0
105661774,0.0,0.0,0.0,0.045651507,0.016115293,0.0,0.0,0.0,0.0,0.0,0.0,0.0,nan,nan,nan,nan,nan,nan,0.0,-0.12892151,0.0,0.0,nan,0.0,0.0,0.0060955063,0.0,0.0,0.0,0.0,0.0,0.0,0.0,0.0
105861863,0.0,0.0,0.0,0.046162356,0.016002256,0.0,0.0,0.0,0.0,0.0,0.0,0.0,nan,nan,nan,nan,nan,nan,0.0,-0.05581665,0.0,0.0,nan,0.0,0.0,0.010272883,0.0,0.0,0.0,0.0,0.0,0.0,0.0,0.0
107062496,0.0,0.0,0.0,0.049534865,0.016289057,0.0,0.0,0.0,0.0,0.0,0.0,0.0,nan,nan,nan,nan,nan,nan,0.0,-0.09449005,0.0,0.0,nan,0.0,0.0,0.008469872,0.0,0.0,0.0,0.0,0.0,0.0,0.0,0.0
107262611,0.0,0.0,0.0,0.049946126,0.016179197,0.0,0.0,0.0,0.0,0.0,0.0,0.0,nan,nan,nan,nan,nan,nan,0.0,-0.17501068,0.0,0.0,nan,0.0,0.0,0.009316161,0.0,0.0,0.0,0.0,0.0,0.0,0.0,0.0
107462705,0.0,0.0,0.0,0.050448712,0.016090102,0.0,0.0,0.0,0.0,0.0,0.0,0.0,nan,nan,nan,nan,nan,nan,0.0,-0.24160767,0.0,0.0,nan,0.0,0.0,0.010746621,0.0,0.0,0.0,0.0,0.0,0.0,0.0,0.0
107662817,0.0,0.0,0.0,0.050954048,0.015917506,0.0,0.0,0.0,0.0,0.0,0.0,0.0,nan,nan,nan,nan,nan,nan,0.0,-0.078125,0.0,0.0,nan,0.0,0.0,0.009868607,0.0,0.0,0.0,0.0,0.0,0.0,0.0,0.0
108263135,0.0,0.0,0.0,0.05226843,0.014958195,0.0,0.0,0.0,0.0,0.0,0.0,0.0,nan,nan,nan,nan,nan,nan,0.0,-0.11416626,0.0,0.0,nan,0.0,0.0,0.011890426,0.0,0.0,0.0,0.0,0.0,0.0,0.0,0.0
108463240,0.0,0.0,0.0,0.052847408,0.014557703,0.0,0.0,0.0,0.0,0.0,0.0,0.0,nan,nan,nan,nan,nan,nan,0.0,-0.20781708,0.0,0.0,nan,0.0,0.0,0.013147876,0.0,0.0,0.0,0.0,0.0,0.0,0.0,0.0
109063555,0.0,0.0,0.0,0.054874364,0.013032337,0.0,0.0,0.0,0.0,0.0,0.0,0.0,nan,nan,nan,nan,nan,nan,0.0,0.009109497,0.0,0.0,nan,0.0,0.0,0.0109254345,0.0,0.0,0.0,0.0,0.0,0.0,0.0,0.0
110264198,0.0,0.0,0.0,0.05730674,0.009608867,0.0,0.0,0.0,0.0,0.0,0.0,0.0,nan,nan,nan,nan,nan,nan,0.0,-0.116867065,0.0,0.0,nan,0.0,0.0,0.008516803,0.0,0.0,0.0,0.0,0.0,0.0,0.0,0.0
110664420,0.0,0.0,0.0,0.05764957,0.008178127,0.0,0.0,0.0,0.0,0.0,0.0,0.0,nan,nan,nan,nan,nan,nan,0.0,0.1167984,0.0,0.0,nan,0.0,0.0,0.0074018687,0.0,0.0,0.0,0.0,0.0,0.0,0.0,0.0
111064633,0.0,0.0,0.0,0.057720635,0.0068653915,0.0,0.0,0.0,0.0,0.0,0.0,0.0,nan,nan,nan,nan,nan,nan,0.0,0.32785034,0.0,0.0,nan,0.0,0.0,0.010056995,0.0,0.0,0.0,0.0,0.0,0.0,0.0,0.0
111865058,0.0,0.0,0.0,0.0575761,0.005522941,0.0,0.0,0.0,0.0,0.0,0.0,0.0,nan,nan,nan,nan,nan,nan,0.0,0.034698486,0.0,0.0,nan,0.0,0.0,0.008260459,0.0,0.0,0.0,0.0,0.0,0.0,0.0,0.0
112265260,0.0,0.0,0.0,0.057637703,0.0051857796,0.0,0.0,0.0,0.0,0.0,0.0,0.0,nan,nan,nan,nan,nan,nan,0.0,-0.021202087,0.0,0.0,nan,0.0,0.0,0.007811971,0.0,0.0,0.0,0.0,0.0,0.0,0.0,0.0
112665478,0.0,0.0,0.0,0.05742617,0.004951598,0.0,0.0,0.0,0.0,0.0,0.0,0.0,nan,nan,nan,nan,nan,nan,0.0,-0.10836792,0.0,0.0,nan,0.0,0.0,0.007948257,0.0,0.0,0.0,0.0,0.0,0.0,0.0,0.0
113265830,0.0,0.0,0.0,0.055794217,0.0055685765,0.0,0.0,0.0,0.0,0.0,0.0,0.0,nan,nan,nan,nan,nan,nan,0.0,-0.11516571,0.0,0.0,nan,0.0,0.0,0.009320036,0.0,0.0,0.0,0.0,0.0,0.0,0.0,0.0
113465930,0.0,0.0,0.0,0.05503845,0.0058560087,0.0,0.0,0.0,0.0,0.0,0.0,0.0,nan,nan,nan,nan,nan,nan,0.0,0.002166748,0.0,0.0,nan,0.0,0.0,0.006993845,0.0,0.0,0.0,0.0,0.0,0.0,0.0,0.0
114266338,0.0,0.0,0.0,0.052647073,0.007111044,0.0,0.0,0.0,0.0,0.0,0.0,0.0,nan,nan,nan,nan,nan,nan,0.0,-0.11621094,0.0,0.0,nan,0.0,0.0,0.008967377,0.0,0.0,0.0,0.0,0.0,0.0,0.0,0.0
114666550,0.0,0.0,0.0,0.052618224,0.0077624284,0.0,0.0,0.0,0.0,0.0,0.0,0.0,nan,nan,nan,nan,nan,nan,0.0,0.093940735,0.0,0.0,nan,0.0,0.0,0.007023886,0.0,0.0,0.0,0.0,0.0,0.0,0.0,0.0
115467013,0.0,0.0,0.0,0.052390687,0.010100828,0.0,0.0,0.0,0.0,0.0,0.0,0.0,nan,nan,nan,nan,nan,nan,0.0,-0.19914246,0.0,0.0,nan,0.0,0.0,0.008845516,0.0,0.0,0.0,0.0,0.0,0.0,0.0,0.0
115867198,0.0,0.0,0.0,0.052330643,0.011792238,0.0,0.0,0.0,0.0,0.0,0.0,0.0,nan,nan,nan,nan,nan,nan,0.0,0.21334076,0.0,0.0,nan,0.0,0.0,0.0074567497,0.0,0.0,0.0,0.0,0.0,0.0,0.0,0.0
116267415,0.0,0.0,0.0,0.05233041,0.012856511,0.0,0.0,0.0,0.0,0.0,0.0,0.0,nan,nan,nan,nan,nan,nan,0.0,0.10381317,0.0,0.0,nan,0.0,0.0,0.010426536,0.0,0.0,0.0,0.0,0.0,0.0,0.0,0.0
116467526,0.0,0.0,0.0,0.05203364,0.013317483,0.0,0.0,0.0,0.0,0.0,0.0,0.0,nan,nan,nan,nan,nan,nan,0.0,-0.059524536,0.0,0.0,nan,0.0,0.0,0.012330651,0.0,0.0,0.0,0.0,0.0,0.0,0.0,0.0
117067852,0.0,0.0,0.0,0.051911846,0.014254679,0.0,0.0,0.0,0.0,0.0,0.0,0.0,nan,nan,nan,nan,nan,nan,0.0,0.034835815,0.0,0.0,nan,0.0,0.0,0.008402504,0.0,0.0,0.0,0.0,0.0,0.0,0.0,0.0
117468074,0.0,0.0,0.0,0.05206184,0.014597207,0.0,0.0,0.0,0.0,0.0,0.0,0.0,nan,nan,nan,nan,nan,nan,0.0,0.15849304,0.0,0.0,nan,0.0,0.0,0.010926306,0.0,0.0,0.0,0.0,0.0,0.0,0.0,0.0
118268499,0.0,0.0,0.0,0.051377777,0.015504318,0.0,0.0,0.0,0.0,0.0,0.0,0.0,nan,nan,nan,nan,nan,nan,0.0,0.08779144,0.0,0.0,nan,0.0,0.0,0.009915158,0.0,0.0,0.0,0.0,0.0,0.0,0.0,0.0
118468611,0.0,0.0,0.0,0.051315293,0.015672956,0.0,0.0,0.0,0.0,0.0,0.0,0.0,nan,nan,nan,nan,nan,nan,0.0,-0.06491852,0.0,0.0,nan,0.0,0.0,0.010076962,0.0,0.0,0.0,0.0,0.0,0.0,0.0,0.0
119068934,0.0,0.0,0.0,0.05124434,0.016187275,0.0,0.0,0.0,0.0,0.0,0.0,0.0,nan,nan,nan,nan,nan,nan,0.0,-0.11753845,0.0,0.0,nan,0.0,0.0,0.012882143,0.0,0.0,0.0,0.0,0.0,0.0,0.0,0.0
119269043,0.0,0.0,0.0,0.051284105,0.016324488,0.0,0.0,0.0,0.0,0.0,0.0,0.0,nan,nan,nan,nan,nan,nan,0.0,-0.08503723,0.0,0.0,nan,0.0,0.0,0.012753472,0.0,0.0,0.0,0.0,0.0,0.0,0.0,0.0
120069484,0.0,0.0,0.0,0.051408637,0.01635746,0.0,0.0,0.0,0.0,0.0,0.0,0.0,nan,nan,nan,nan,nan,nan,0.0,0.022201538,0.0,0.0,nan,0.0,0.0,0.010398358,0.0,0.0,0.0,0.0,0.0,0.0,0.0,0.0
120669808,0.0,0.0,0.0,0.05189177,0.016579233,0.0,0.0,0.0,0.0,0.0,0.0,0.0,nan,nan,nan,nan,nan,nan,0.0,0.13789368,0.0,0.0,nan,0.0,0.0,0.010439053,0.0,0.0,0.0,0.0,0.0,0.0,0.0,0.0
121070052,0.0,0.0,0.0,0.052472837,0.016850946,0.0,0.0,0.0,0.0,0.0,0.0,0.0,nan,nan,nan,nan,nan,nan,0.0,-0.004562378,0.0,0.0,nan,0.0,0.0,0.0106136575,0.0,0.0,0.0,0.0,0.0,0.0,0.0,0.0
121270137,0.0,0.0,0.0,0.052770365,0.017071052,0.0,0.0,0.0,0.0,0.0,0.0,0.0,nan,nan,nan,nan,nan,nan,0.0,-0.1375351,0.0,0.0,nan,0.0,0.0,0.011766374,0.0,0.0,0.0,0.0,0.0,0.0,0.0,0.0
121860467,0.0,0.0,0.0,0.052930187,0.017770184,0.0,0.0,0.0,0.0,0.0,0.0,0.0,nan,nan,nan,nan,nan,nan,0.0,-0.03668213,0.0,0.0,nan,0.0,0.0,0.011702657,0.0,0.0,0.0,0.0,0.0,0.0,0.0,0.0
122060584,0.0,0.0,0.0,0.052980702,0.018095434,0.0,0.0,0.0,0.0,0.0,0.0,0.0,nan,nan,nan,nan,nan,nan,0.0,-0.118003845,0.0,0.0,nan,0.0,0.0,0.01411289,0.0,0.0,0.0,0.0,0.0,0.0,0.0,0.0
122260691,0.0,0.0,0.0,0.05314006,0.018315505,0.0,0.0,0.0,0.0,0.0,0.0,0.0,nan,nan,nan,nan,nan,nan,0.0,-0.29595947,0.0,0.0,nan,0.0,0.0,0.01432392,0.0,0.0,0.0,0.0,0.0,0.0,0.0,0.0
122460791,0.0,0.0,0.0,0.053322446,0.018545587,0.0,0.0,0.0,0.0,0.0,0.0,0.0,nan,nan,nan,nan,nan,nan,0.0,-0.09749603,0.0,0.0,nan,0.0,0.0,0.011415206,0.0,0.0,0.0,0.0,0.0,0.0,0.0,0.0
122660912,0.0,0.0,0.0,0.053603124,0.018949023,0.0,0.0,0.0,0.0,0.0,0.0,0.0,nan,nan,nan,nan,nan,nan,0.0,-0.31199646,0.0,0.0,nan,0.0,0.0,0.013927929,0.0,0.0,0.0,0.0,0.0,0.0,0.0,0.0
122861011,0.0,0.0,0.0,0.05378714,0.019437945,0.0,0.0,0.0,0.0,0.0,0.0,0.0,nan,nan,nan,nan,nan,nan,0.0,-0.19062805,0.0,0.0,nan,0.0,0.0,0.012304373,0.0,0.0,0.0,0.0,0.0,0.0,0.0,0.0
123461345,0.0,0.0,0.0,0.055203002,0.021470059,0.0,0.0,0.0,0.0,0.0,0.0,0.0,nan,nan,nan,nan,nan,nan,0.0,-0.2061615,0.0,0.0,nan,0.0,0.0,0.012866318,0.0,0.0,0.0,0.0,0.0,0.0,0.0,0.0
124461898,0.0,0.0,0.0,0.058877137,0.024857778,0.0,0.0,0.0,0.0,0.0,0.0,0.0,nan,nan,nan,nan,nan,nan,0.0,0.0398407,0.0,0.0,nan,0.0,0.0,0.013298087,0.0,0.0,0.0,0.0,0.0,0.0,0.0,0.0
125062236,0.0,0.0,0.0,0.06074647,0.026075298,0.0,0.0,0.0,0.0,0.0,0.0,0.0,nan,nan,nan,nan,nan,nan,0.0,-0.04171753,0.0,0.0,nan,0.0,0.0,0.011092238,0.0,0.0,0.0,0.0,0.0,0.0,0.0,0.0
125262341,0.0,0.0,0.0,0.061205324,0.026468195,0.0,0.0,0.0,0.0,0.0,0.0,0.0,nan,nan,nan,nan,nan,nan,0.0,-0.13995361,0.0,0.0,nan,0.0,0.0,0.0115578845,0.0,0.0,0.0,0.0,0.0,0.0,0.0,0.0
125662564,0.0,0.0,0.0,0.061941985,0.026990943,0.0,0.0,0.0,0.0,0.0,0.0,0.0,nan,nan,nan,nan,nan,nan,0.0,-0.28390503,0.0,0.0,nan,0.0,0.0,0.009515464,0.0,0.0,0.0,0.0,0.0,0.0,0.0,0.0
126463016,0.0,0.0,0.0,0.061840698,0.02659223,0.0,0.0,0.0,0.0,0.0,0.0,0.0,nan,nan,nan,nan,nan,nan,0.0,-0.04299164,0.0,0.0,nan,0.0,0.0,0.009545594,0.0,0.0,0.0,0.0,0.0,0.0,0.0,0.0
127063361,0.0,0.0,0.0,0.061151307,0.02531778,0.0,0.0,0.0,0.0,0.0,0.0,0.0,nan,nan,nan,nan,nan,nan,0.0,-0.26800537,0.0,0.0,nan,0.0,0.0,0.012150571,0.0,0.0,0.0,0.0,0.0,0.0,0.0,0.0
127663695,0.0,0.0,0.0,0.060328543,0.023741256,0.0,0.0,0.0,0.0,0.0,0.0,0.0,nan,nan,nan,nan,nan,nan,0.0,-0.40546417,0.0,0.0,nan,0.0,0.0,0.009441756,0.0,0.0,0.0,0.0,0.0,0.0,0.0,0.0
129264583,0.0,0.0,0.0,0.057492178,0.019402128,0.0,0.0,0.0,0.0,0.0,0.0,0.0,nan,nan,nan,nan,nan,nan,0.0,-0.13894653,0.0,0.0,nan,0.0,0.0,0.005238205,0.0,0.0,0.0,0.0,0.0,0.0,0.0,0.0
129464686,0.0,0.0,0.0,0.05680781,0.018928412,0.0,0.0,0.0,0.0,0.0,0.0,0.0,nan,nan,nan,nan,nan,nan,0.0,-0.016281128,0.0,0.0,nan,0.0,0.0,0.0025673062,0.0,0.0,0.0,0.0,0.0,0.0,0.0,0.0
129864907,0.0,0.0,0.0,0.055588294,0.017797846,0.0,0.0,0.0,0.0,0.0,0.0,0.0,nan,nan,nan,nan,nan,nan,0.0,-0.112083435,0.0,0.0,nan,0.0,0.0,-0.00016932935,0.0,0.0,0.0,0.0,0.0,0.0,0.0,0.0
130265130,0.0,0.0,0.0,0.05457887,0.016498476,0.0,0.0,0.0,0.0,0.0,0.0,0.0,nan,nan,nan,nan,nan,nan,0.0,0.12953949,0.0,0.0,nan,0.0,0.0,0.0019331276,0.0,0.0,0.0,0.0,0.0,0.0,0.0,0.0
130465250,0.0,0.0,0.0,0.054319143,0.016000785,0.0,0.0,0.0,0.0,0.0,0.0,0.0,nan,nan,nan,nan,nan,nan,0.0,0.058494568,0.0,0.0,nan,0.0,0.0,0.0029474944,0.0,0.0,0.0,0.0,0.0,0.0,0.0,0.0
130865487,0.0,0.0,0.0,0.05391795,0.014768242,0.0,0.0,0.0,0.0,0.0,0.0,0.0,nan,nan,nan,nan,nan,nan,0.0,-0.26356506,0.0,0.0,nan,0.0,0.0,0.00041345507,0.0,0.0,0.0,0.0,0.0,0.0,0.0,0.0
131866032,0.0,0.0,0.0,0.053618412,0.012572479,0.0,0.0,0.0,0.0,0.0,0.0,0.0,nan,nan,nan,nan,nan,nan,0.0,-0.34397888,0.0,0.0,nan,0.0,0.0,0.0016551986,0.0,0.0,0.0,0.0,0.0,0.0,0.0,0.0
132266286,0.0,0.0,0.0,0.053250734,0.012392802,0.0,0.0,0.0,0.0,0.0,0.0,0.0,nan,nan,nan,nan,nan,nan,0.0,-0.49595642,0.0,0.0,nan,0.0,0.0,0.0039218515,0.0,0.0,0.0,0.0,0.0,0.0,0.0,0.0
132666483,0.0,0.0,0.0,0.05280954,0.012716928,0.0,0.0,0.0,0.0,0.0,0.0,0.0,nan,nan,nan,nan,nan,nan,0.0,-0.5023575,0.0,0.0,nan,0.0,0.0,0.0017244443,0.0,0.0,0.0,0.0,0.0,0.0,0.0,0.0
133266848,0.0,0.0,0.0,0.052927963,0.013591854,0.0,0.0,0.0,0.0,0.0,0.0,0.0,nan,nan,nan,nan,nan,nan,0.0,0.024551392,0.0,0.0,nan,0.0,0.0,0.0012851506,0.0,0.0,0.0,0.0,0.0,0.0,0.0,0.0
133667046,0.0,0.0,0.0,0.05336052,0.014726219,0.0,0.0,0.0,0.0,0.0,0.0,0.0,nan,nan,nan,nan,nan,nan,0.0,-0.15109253,0.0,0.0,nan,0.0,0.0,0.0033403188,0.0,0.0,0.0,0.0,0.0,0.0,0.0,0.0
134067286,0.0,0.0,0.0,0.05386078,0.015649054,0.0,0.0,0.0,0.0,0.0,0.0,0.0,nan,nan,nan,nan,nan,nan,0.0,0.047729492,0.0,0.0,nan,0.0,0.0,0.0051320717,0.0,0.0,0.0,0.0,0.0,0.0,0.0,0.0
134467499,0.0,0.0,0.0,0.05440577,0.016356943,0.0,0.0,0.0,0.0,0.0,0.0,0.0,nan,nan,nan,nan,nan,nan,0.0,-0.0622406,0.0,0.0,nan,0.0,0.0,0.0002296716,0.0,0.0,0.0,0.0,0.0,0.0,0.0,0.0
134667612,0.0,0.0,0.0,0.054707367,0.016777242,0.0,0.0,0.0,0.0,0.0,0.0,0.0,nan,nan,nan,nan,nan,nan,0.0,-0.029663086,0.0,0.0,nan,0.0,0.0,0.00338988,0.0,0.0,0.0,0.0,0.0,0.0,0.0,0.0
135267949,0.0,0.0,0.0,0.055559754,0.01908044,0.0,0.0,0.0,0.0,0.0,0.0,0.0,nan,nan,nan,nan,nan,nan,0.0,0.024398804,0.0,0.0,nan,0.0,0.0,0.0049548894,0.0,0.0,0.0,0.0,0.0,0.0,0.0,0.0
135668217,0.0,0.0,0.0,0.056263927,0.02043448,0.0,0.0,0.0,0.0,0.0,0.0,0.0,nan,nan,nan,nan,nan,nan,0.0,0.24202728,0.0,0.0,nan,0.0,0.0,0.0039079785,0.0,0.0,0.0,0.0,0.0,0.0,0.0,0.0
135868292,0.0,0.0,0.0,0.0567379,0.02089807,0.0,0.0,0.0,0.0,0.0,0.0,0.0,nan,nan,nan,nan,nan,nan,0.0,0.17207336,0.0,0.0,nan,0.0,0.0,0.0016925856,0.0,0.0,0.0,0.0,0.0,0.0,0.0,0.0
136468639,0.0,0.0,0.0,0.058439795,0.022265598,0.0,0.0,0.0,0.0,0.0,0.0,0.0,nan,nan,nan,nan,nan,nan,0.0,-0.06225586,0.0,0.0,nan,0.0,0.0,0.008509047,0.0,0.0,0.0,0.0,0.0,0.0,0.0,0.0
137068973,0.0,0.0,0.0,0.05937707,0.024128217,0.0,0.0,0.0,0.0,0.0,0.0,0.0,nan,nan,nan,nan,nan,nan,0.0,0.09680176,0.0,0.0,nan,0.0,0.0,0.0067300573,0.0,0.0,0.0,0.0,0.0,0.0,0.0,0.0
137269074,0.0,0.0,0.0,0.059680313,0.02461524,0.0,0.0,0.0,0.0,0.0,0.0,0.0,nan,nan,nan,nan,nan,nan,0.0,0.038223267,0.0,0.0,nan,0.0,0.0,0.0044771135,0.0,0.0,0.0,0.0,0.0,0.0,0.0,0.0
137869424,0.0,0.0,0.0,0.060473092,0.026409753,0.0,0.0,0.0,0.0,0.0,0.0,0.0,nan,nan,nan,nan,nan,nan,0.0,-0.2109375,0.0,0.0,nan,0.0,0.0,0.0048094466,0.0,0.0,0.0,0.0,0.0,0.0,0.0,0.0
138069533,0.0,0.0,0.0,0.06083795,0.026815707,0.0,0.0,0.0,0.0,0.0,0.0,0.0,nan,nan,nan,nan,nan,nan,0.0,-0.33869934,0.0,0.0,nan,0.0,0.0,0.004877284,0.0,0.0,0.0,0.0,0.0,0.0,0.0,0.0
138259644,0.0,0.0,0.0,0.06124012,0.027039552,0.0,0.0,0.0,0.0,0.0,0.0,0.0,nan,nan,nan,nan,nan,nan,0.0,-0.030822754,0.0,0.0,nan,0.0,0.0,0.006849624,0.0,0.0,0.0,0.0,0.0,0.0,0.0,0.0
138669874,0.0,0.0,0.0,0.062434237,0.027175598,0.0,0.0,0.0,0.0,0.0,0.0,0.0,nan,nan,nan,nan,nan,nan,0.0,0.02734375,0.0,0.0,nan,0.0,0.0,0.005353704,0.0,0.0,0.0,0.0,0.0,0.0,0.0,0.0
139060095,0.0,0.0,0.0,0.063894376,0.026894322,0.0,0.0,0.0,0.0,0.0,0.0,0.0,nan,nan,nan,nan,nan,nan,0.0,-0.2337799,0.0,0.0,nan,0.0,0.0,0.00246498,0.0,0.0,0.0,0.0,0.0,0.0,0.0,0.0
139260245,0.0,0.0,0.0,0.06464847,0.026796866,0.0,0.0,0.0,0.0,0.0,0.0,0.0,nan,nan,nan,nan,nan,nan,0.0,0.11621094,0.0,0.0,nan,0.0,0.0,0.0075753108,0.0,0.0,0.0,0.0,0.0,0.0,0.0,0.0
139460325,0.0,0.0,0.0,0.06542462,0.026808834,0.0,0.0,0.0,0.0,0.0,0.0,0.0,nan,nan,nan,nan,nan,nan,0.0,0.13332367,0.0,0.0,nan,0.0,0.0,0.0066693947,0.0,0.0,0.0,0.0,0.0,0.0,0.0,0.0
140060680,0.0,0.0,0.0,0.06766805,0.026555836,0.0,0.0,0.0,0.0,0.0,0.0,0.0,nan,nan,nan,nan,nan,nan,0.0,-0.12685394,0.0,0.0,nan,0.0,0.0,0.0061795413,0.0,0.0,0.0,0.0,0.0,0.0,0.0,0.0
140460893,0.0,0.0,0.0,0.06890044,0.02608626,0.0,0.0,0.0,0.0,0.0,0.0,0.0,nan,nan,nan,nan,nan,nan,0.0,-0.019630432,0.0,0.0,nan,0.0,0.0,0.005232036,0.0,0.0,0.0,0.0,0.0,0.0,0.0,0.0
140660996,0.0,0.0,0.0,0.06929585,0.025616882,0.0,0.0,0.0,0.0,0.0,0.0,0.0,nan,nan,nan,nan,nan,nan,0.0,-0.08112335,0.0,0.0,nan,0.0,0.0,0.005436331,0.0,0.0,0.0,0.0,0.0,0.0,0.0,0.0
141461474,0.0,0.0,0.0,0.06974434,0.023528425,0.0,0.0,0.0,0.0,0.0,0.0,0.0,nan,nan,nan,nan,nan,nan,0.0,0.06568909,0.0,0.0,nan,0.0,0.0,0.007487692,0.0,0.0,0.0,0.0,0.0,0.0,0.0,0.0
143062377,0.0,0.0,0.0,0.068844035,0.02102778,0.0,0.0,0.0,0.0,0.0,0.0,0.0,nan,nan,nan,nan,nan,nan,0.0,0.23829651,0.0,0.0,nan,0.0,0.0,0.008834958,0.0,0.0,0.0,0.0,0.0,0.0,0.0,0.0
143862822,0.0,0.0,0.0,0.0663946,0.019523118,0.0,0.0,0.0,0.0,0.0,0.0,0.0,nan,nan,nan,nan,nan,nan,0.0,0.14520264,0.0,0.0,nan,0.0,0.0,0.00884071,0.0,0.0,0.0,0.0,0.0,0.0,0.0,0.0
144062976,0.0,0.0,0.0,0.06526966,0.018990343,0.0,0.0,0.0,0.0,0.0,0.0,0.0,nan,nan,nan,nan,nan,nan,0.0,0.09585571,0.0,0.0,nan,0.0,0.0,0.010092497,0.0,0.0,0.0,0.0,0.0,0.0,0.0,0.0
144463163,0.0,0.0,0.0,0.06288297,0.018182686,0.0,0.0,0.0,0.0,0.0,0.0,0.0,nan,nan,nan,nan,nan,nan,0.0,-0.010879517,0.0,0.0,nan,0.0,0.0,0.010909483,0.0,0.0,0.0,0.0,0.0,0.0,0.0,0.0
144863393,0.0,0.0,0.0,0.06035604,0.018152883,0.0,0.0,0.0,0.0,0.0,0.0,0.0,nan,nan,nan,nan,nan,nan,0.0,-0.06989288,0.0,0.0,nan,0.0,0.0,0.009560555,0.0,0.0,0.0,0.0,0.0,0.0,0.0,0.0
146264189,0.0,0.0,0.0,0.053303495,0.01959426,0.0,0.0,0.0,0.0,0.0,0.0,0.0,nan,nan,nan,nan,nan,nan,0.0,-0.075546265,0.0,0.0,nan,0.0,0.0,0.0066743866,0.0,0.0,0.0,0.0,0.0,0.0,0.0,0.0
146864534,0.0,0.0,0.0,0.050039563,0.018910363,0.0,0.0,0.0,0.0,0.0,0.0,0.0,nan,nan,nan,nan,nan,nan,0.0,0.0027999878,0.0,0.0,nan,0.0,0.0,0.009247988,0.0,0.0,0.0,0.0,0.0,0.0,0.0,0.0
147064647,0.0,0.0,0.0,0.049005568,0.01873149,0.0,0.0,0.0,0.0,0.0,0.0,0.0,nan,nan,nan,nan,nan,nan,0.0,0.09850311,0.0,0.0,nan,0.0,0.0,0.00973998,0.0,0.0,0.0,0.0,0.0,0.0,0.0,0.0
147264774,0.0,0.0,0.0,0.047996808,0.018510763,0.0,0.0,0.0,0.0,0.0,0.0,0.0,nan,nan,nan,nan,nan,nan,0.0,-0.06718445,0.0,0.0,nan,0.0,0.0,0.008665003,0.0,0.0,0.0,0.0,0.0,0.0,0.0,0.0
148065216,0.0,0.0,0.0,0.044730615,0.017653612,0.0,0.0,0.0,0.0,0.0,0.0,0.0,nan,nan,nan,nan,nan,nan,0.0,-0.06581116,0.0,0.0,nan,0.0,0.0,0.008127943,0.0,0.0,0.0,0.0,0.0,0.0,0.0,0.0
149065790,0.0,0.0,0.0,0.041548084,0.017221319,0.0,0.0,0.0,0.0,0.0,0.0,0.0,nan,nan,nan,nan,nan,nan,0.0,-0.41375732,0.0,0.0,nan,0.0,0.0,0.012459815,0.0,0.0,0.0,0.0,0.0,0.0,0.0,0.0
149265901,0.0,0.0,0.0,0.040916003,0.017156003,0.0,0.0,0.0,0.0,0.0,0.0,0.0,nan,nan,nan,nan,nan,nan,0.0,-0.40099335,0.0,0.0,nan,0.0,0.0,0.010666147,0.0,0.0,0.0,0.0,0.0,0.0,0.0,0.0
149666130,0.0,0.0,0.0,0.03973735,0.017019093,0.0,0.0,0.0,0.0,0.0,0.0,0.0,nan,nan,nan,nan,nan,nan,0.0,-0.09202576,0.0,0.0,nan,0.0,0.0,0.009763859,0.0,0.0,0.0,0.0,0.0,0.0,0.0,0.0
150066366,0.0,0.0,0.0,0.038508717,0.01688239,0.0,0.0,0.0,0.0,0.0,0.0,0.0,nan,nan,nan,nan,nan,nan,0.0,0.028579712,0.0,0.0,nan,0.0,0.0,0.009814829,0.0,0.0,0.0,0.0,0.0,0.0,0.0,0.0
150666712,0.0,0.0,0.0,0.036896545,0.016818523,0.0,0.0,0.0,0.0,0.0,0.0,0.0,nan,nan,nan,nan,nan,nan,0.0,-0.27500153,0.0,0.0,nan,0.0,0.0,0.011965357,0.0,0.0,0.0,0.0,0.0,0.0,0.0,0.0
151667287,0.0,0.0,0.0,0.03503492,0.01698513,0.0,0.0,0.0,0.0,0.0,0.0,0.0,nan,nan,nan,nan,nan,nan,0.0,-0.2807541,0.0,0.0,nan,0.0,0.0,0.009536572,0.0,0.0,0.0,0.0,0.0,0.0,0.0,0.0
151867392,0.0,0.0,0.0,0.034784477,0.017075028,0.0,0.0,0.0,0.0,0.0,0.0,0.0,nan,nan,nan,nan,nan,nan,0.0,-0.59606934,0.0,0.0,nan,0.0,0.0,0.009077609,0.0,0.0,0.0,0.0,0.0,0.0,0.0,0.0
152067504,0.0,0.0,0.0,0.034592103,0.01716378,0.0,0.0,0.0,0.0,0.0,0.0,0.0,nan,nan,nan,nan,nan,nan,0.0,-0.1717453,0.0,0.0,nan,0.0,0.0,0.010421298,0.0,0.0,0.0,0.0,0.0,0.0,0.0,0.0
152267658,0.0,0.0,0.0,0.034463093,0.017398769,0.0,0.0,0.0,0.0,0.0,0.0,0.0,nan,nan,nan,nan,nan,nan,0.0,-0.11466217,0.0,0.0,nan,0.0,0.0,0.010309905,0.0,0.0,0.0,0.0,0.0,0.0,0.0,0.0
152667851,0.0,0.0,0.0,0.034514636,0.017606905,0.0,0.0,0.0,0.0,0.0,0.0,0.0,nan,nan,nan,nan,nan,nan,0.0,-0.1646576,0.0,0.0,nan,0.0,0.0,0.009733573,0.0,0.0,0.0,0.0,0.0,0.0,0.0,0.0
