timestamp,states[0],states[1],states[2],states[3],states[4],states[5],states[6],states[7],states[8],states[9],states[10],states[11],states[12],states[13],states[14],states[15],states[16],states[17],states[18],states[19],states[20],states[21],states[22],states[23],vibe[0],vibe[1],vibe[2],covariances[0],covariances[1],covariances[2],covariances[3],covariances[4],covariances[5],covariances[6],covariances[7],covariances[8],covariances[9],covariances[10],covariances[11],covariances[12],covariances[13],covariances[14],covariances[15],covariances[16],covariances[17],covariances[18],covariances[19],covariances[20],covariances[21],covariances[22],covariances[23],output_tracking_error[0],output_tracking_error[1],output_tracking_error[2],control_mode_flags,pos_horiz_accuracy,pos_vert_accuracy,mag_test_ratio,vel_test_ratio,pos_test_ratio,hgt_test_ratio,tas_test_ratio,hagl_test_ratio,beta_test_ratio,time_slip,gps_check_fail_flags,filter_fault_flags,innovation_check_flags,solution_status_flags,n_states,pre_flt_fail_innov_heading,pre_flt_fail_innov_vel_horiz,pre_flt_fail_innov_vel_vert,pre_flt_fail_innov_height,pre_flt_fail_mag_field_disturbed,health_flags,timeout_flags
4063340,0.99799705,0.0096601825,-0.012591968,-0.0612378,-2.1032673e-05,-0.00018821978,0.0021627813,-3.3810915e-07,-2.8304582e-06,-0.079797536,-1.2838306e-09,-1.3877006e-12,-5.340628e-08,0.0,0.0,3.9103747e-09,0.3572811,-0.012120792,-0.04927074,0.0,0.0,0.0,0.0,0.0,1.9847829e-10,9.461498e-06,0.00033628318,1.1954674e-05,0.0025056496,0.0025056603,0.002993077,25.002449,25.002449,0.2027113,0.31187537,0.31187537,6.125182,1e-06,1.0000002e-06,9.995915e-07,0.0,0.0,4.000001e-06,0.0,0.0,0.0,0.0,0.0,0.0,0.0,0.0,0.00023312653,0.0016275499,0.07980428,67240466,0.0,0.0,0.0018678347,0.0,0.0,0.0,0.0,0.0,0.0,0.0,0,0,0,228,24,0,0,0,0,0,0,0
4073338,0.997997,0.0096571045,-0.0125666885,-0.06124406,0.00010545543,-0.00019683881,0.0029303613,8.354033e-08,-4.753633e-06,-0.0797721,-1.2838306e-09,-1.3877006e-12,-5.340628e-08,0.0,0.0,3.9103747e-09,0.3572811,-0.012120792,-0.04927074,0.0,0.0,0.0,0.0,0.0,1.977784e-10,9.422938e-06,0.00033300716,1.1965228e-05,0.0025089043,0.002508917,0.0029955206,25.003506,25.003506,0.2027755,0.3393766,0.3393766,6.125324,1e-06,1.0000002e-06,9.995915e-07,0.0,0.0,4.000001e-06,0.0,0.0,0.0,0.0,0.0,0.0,0.0,0.0,0.00028069457,0.002320433,0.07657384,67240466,0.0,0.0,0.0018678347,0.0,0.0,0.0,0.0,0.0,0.0,0.0,0,0,0,228,24,0,0,0,0,0,0,0
4863663,0.9979596,0.009688903,-0.010918733,-0.062157147,-0.011274469,-0.0022920086,0.04164876,-0.0013642168,-0.0003634568,-0.0009212035,-1.6122758e-08,1.5703075e-07,2.3551015e-06,0.0,0.0,-5.913229e-07,0.3572811,-0.012120792,-0.04927074,0.0,0.0,0.0,0.0,0.0,1.6778377e-10,8.887934e-06,0.00026252298,4.374652e-06,0.0042304886,0.00423078,0.0008814969,0.8743237,0.87437326,0.22940208,0.17828842,0.17828937,0.808812,9.960659e-07,9.961464e-07,7.2902463e-07,0.0,0.0,3.9978104e-06,0.0,0.0,0.0,0.0,0.0,0.0,0.0,0.0,0.00016074452,0.0024617813,0.006204367,67240466,0.0,0.0,0.00023538363,0.0,2.6481359e-05,2.6481359e-05,0.0,0.0,0.0,0.0,0,0,0,228,24,0,0,0,0,0,0,0
5063747,0.99796546,0.0096805915,-0.010544508,-0.062129814,-0.017308835,-0.0031462433,0.04877602,-0.0024559423,-0.00053689105,-0.0117704095,-1.307164e-07,5.039306e-07,-8.7384484e-07,0.0,0.0,2.0751877e-06,0.3572811,-0.012120792,-0.04927074,0.0,0.0,0.0,0.0,0.0,1.6160032e-10,8.4381945e-06,0.00025597704,4.5079923e-06,0.004956477,0.00495623,0.0008999932,0.7723581,0.772429,0.24101947,0.15926632,0.15926851,0.67609215,9.853321e-07,9.852375e-07,6.075141e-07,0.0,0.0,3.9931733e-06,0.0,0.0,0.0,0.0,0.0,0.0,0.0,0.0,0.00047603337,0.0040268204,0.006809163,67240466,0.0,0.0,0.00011155394,0.0,4.8308048e-05,4.8308048e-05,0.0,0.0,0.0,0.0,0,0,0,228,24,0,0,0,0,0,0,0
5263832,0.99797463,0.009743475,-0.010271695,-0.062017865,-0.022547424,-0.002973495,0.05812035,-0.0038213488,-0.00069077563,0.003338405,-4.929714e-07,1.6064567e-06,-5.21282e-06,0.0,0.0,2.2240226e-06,0.3572811,-0.012120792,-0.04927074,0.0,0.0,0.0,0.0,0.0,1.618246e-10,8.48329e-06,0.00024655735,4.4403205e-06,0.005566953,0.005566293,0.0008748299,0.8276834,0.82773656,0.25321025,0.15103492,0.151038,0.5980672,9.580014e-07,9.577725e-07,4.81059e-07,0.0,0.0,3.982654e-06,0.0,0.0,0.0,0.0,0.0,0.0,0.0,0.0,0.00095559476,0.006077959,0.0064470326,67240466,0.0,0.0,0.00047255596,0.0,7.874474e-05,7.874474e-05,0.0,0.0,0.0,0.0,0,0,0,228,24,0,0,0,0,0,0,0
6064161,0.99797267,0.010058323,-0.010837796,-0.061903242,-0.02290453,0.0020880844,0.048816547,-0.0058483803,0.00023087846,-0.07303041,-3.1177058e-06,1.666083e-05,-1.0194315e-05,0.0,0.0,7.5173564e-05,0.3572811,-0.012120792,-0.04927074,0.0,0.0,0.0,0.0,0.0,1.8817643e-10,9.64926e-06,0.00021896338,3.601544e-06,0.0045271995,0.004525923,0.00074329984,0.98482007,0.9847113,0.302324,0.1647854,0.16478066,0.5645351,6.215269e-07,6.213068e-07,1.859265e-07,0.0,0.0,3.8462354e-06,0.0,0.0,0.0,0.0,0.0,0.0,0.0,0.0,0.0023848135,0.022037456,0.035223886,67240466,0.0,0.0,0.00018373504,0.0,0.0001403551,0.0001403551,0.0,0.0,0.0,0.0,0,0,0,228,24,0,0,0,0,0,0,0
6264262,0.9979663,0.010083775,-0.011112509,-0.061953,-0.020403566,0.0018780843,0.021369202,-0.0053422186,0.00036883837,-0.13825507,-3.318418e-06,2.0735695e-05,-9.872631e-06,0.0,0.0,0.00013920828,0.3572811,-0.012120792,-0.04927074,0.0,0.0,0.0,0.0,0.0,2.0158206e-10,1.0090442e-05,0.000232972,3.3883427e-06,0.0038824,0.0038811574,0.0007137856,0.90869546,0.9085961,0.3075767,0.16449355,0.1644881,0.5695839,5.290364e-07,5.2886037e-07,1.5048988e-07,0.0,0.0,3.7645314e-06,0.0,0.0,0.0,0.0,0.0,0.0,0.0,0.0,0.0022939655,0.03345856,0.06373537,67240466,0.0,0.0,1.3894239e-05,0.0,0.00012985349,0.00012985349,0.0,0.0,0.0,0.0,0,0,0,228,24,0,0,0,0,0,0,0
6464339,0.99795544,0.010090315,-0.011347693,-0.062084388,-0.017477158,0.0026974403,-0.014781797,-0.004812481,0.0004518471,-0.21760367,-3.3945078e-06,2.419053e-05,-8.997059e-06,0.0,0.0,0.00021794555,0.3572811,-0.012120792,-0.04927074,0.0,0.0,0.0,0.0,0.0,1.952061e-10,9.794341e-06,0.00022036991,3.1195705e-06,0.0033382936,0.0033371244,0.0006635798,0.82608986,0.8260104,0.3095193,0.16201057,0.16200517,0.5778801,4.4922064e-07,4.4907875e-07,1.2032504e-07,0.0,0.0,3.661384e-06,0.0,0.0,0.0,0.0,0.0,0.0,0.0,0.0,0.002003836,0.044226676,0.08707855,67240466,0.0,0.0,7.3574076e-05,0.0,0.0001176462,0.0001176462,0.0,0.0,0.0,0.0,0,0,0,228,24,0,0,0,0,0,0,0
7064592,0.9979609,0.01010955,-0.011813147,-0.061904807,-0.012688431,0.0036805589,-0.064280435,-0.0036815347,0.0007329583,-0.35711265,-3.2679961e-06,3.1430733e-05,-1.1672316e-05,0.0,0.0,0.00033493753,0.3572811,-0.012120792,-0.04927074,0.0,0.0,0.0,0.0,0.0,1.7992396e-10,9.214805e-06,0.0002509863,2.661551e-06,0.002277978,0.0022775317,0.0005683041,0.6328724,0.6329768,0.30652738,0.15065429,0.15066713,0.6323465,2.7379158e-07,2.7383535e-07,6.8257954e-08,0.0,0.0,3.2806547e-06,0.0,0.0,0.0,0.0,0.0,0.0,0.0,0.0,0.0012169653,0.010471515,0.019907024,67240466,0.0,0.0,0.0020787576,0.0,8.811141e-05,8.811141e-05,0.0,0.0,0.0,0.0,0,0,0,228,24,0,0,0,0,0,0,0
7864920,0.9979617,0.0100280875,-0.012165634,-0.06183864,-0.006763335,0.003179036,-0.13035196,-0.0024464978,0.0008896893,-0.5682167,-2.3220955e-06,3.6730933e-05,-1.2134971e-05,0.0,0.0,0.00047699266,0.3572811,-0.012120792,-0.04927074,0.0,0.0,0.0,0.0,0.0,1.7183098e-10,8.9958985e-06,0.0002192326,2.1519877e-06,0.0014581005,0.0014583113,0.00046495753,0.48830128,0.48835307,0.27456877,0.13871622,0.13872354,0.6630876,1.3252973e-07,1.325973e-07,3.5794088e-08,0.0,0.0,2.6453104e-06,0.0,0.0,0.0,0.0,0.0,0.0,0.0,0.0,0.0005931802,0.003102365,0.002251065,67240466,0.0,0.0,0.0022497722,0.0,5.816932e-05,5.816932e-05,0.0,0.0,0.0,0.0,0,0,0,228,24,0,0,0,0,0,0,0
8065009,0.9979626,0.010020873,-0.012207666,-0.06181658,-0.006011662,0.001954946,-0.14798401,-0.002167634,0.0008233224,-0.62777793,-2.0963396e-06,3.7541035e-05,-1.2293992e-05,0.0,0.0,0.0005106566,0.3572811,-0.012120792,-0.04927074,0.0,0.0,0.0,0.0,0.0,1.8092607e-10,9.381953e-06,0.00024800008,2.0570103e-06,0.0012920335,0.0012922693,0.00044860557,0.45902056,0.45906156,0.27237225,0.13628748,0.13629326,0.6921109,1.08650575e-07,1.08708186e-07,3.123921e-08,0.0,0.0,2.5175975e-06,0.0,0.0,0.0,0.0,0.0,0.0,0.0,0.0,0.00049678196,0.0036957678,0.0028869628,67240466,0.0,0.0,0.00019716658,0.0,5.140388e-05,5.140388e-05,0.0,0.0,0.0,0.0,0,0,0,228,24,0,0,0,0,0,0,0
8265081,0.9979589,0.009981721,-0.012248064,-0.06187355,-0.004560973,0.0022207594,-0.15429215,-0.001883345,0.0007337226,-0.67097914,-1.9157512e-06,3.8206104e-05,-1.2002382e-05,0.0,0.0,0.00052406854,0.3572811,-0.012120792,-0.04927074,0.0,0.0,0.0,0.0,0.0,1.9621789e-10,9.758236e-06,0.00023925216,1.9342376e-06,0.0011384336,0.0011386715,0.0004249756,0.43028095,0.43031153,0.25985828,0.13390635,0.13391092,0.6814386,8.855176e-08,8.859972e-08,2.702748e-08,0.0,0.0,2.3515945e-06,0.0,0.0,0.0,0.0,0.0,0.0,0.0,0.0,0.0004233271,0.005496325,0.012928936,67240466,0.0,0.0,0.0012931264,0.0,4.5323563e-05,4.5323563e-05,0.0,0.0,0.0,0.0,0,0,0,228,24,0,0,0,0,0,0,0
8665252,0.9979577,0.009921284,-0.012296367,-0.061893366,-0.0042874054,0.0017910566,-0.1886599,-0.0015292568,0.00068954006,-0.80197984,-1.598527e-06,3.9146093e-05,-1.1828322e-05,0.0,0.0,0.00058790855,0.3572811,-0.012120792,-0.04927074,0.0,0.0,0.0,0.0,0.0,2.0263227e-10,1.0294247e-05,0.00022033171,1.7418705e-06,0.0008709344,0.00087113254,0.0003909516,0.3747819,0.37479967,0.23584627,0.129071,0.1290738,0.65608793,5.8088688e-08,5.8119678e-08,2.0880373e-08,0.0,0.0,2.0394757e-06,0.0,0.0,0.0,0.0,0.0,0.0,0.0,0.0,0.00027899002,0.0046037217,0.0039120293,67240466,0.0,0.0,0.0030954552,0.0,3.5553618e-05,3.5553618e-05,0.0,0.0,0.0,0.0,0,0,0,228,24,0,0,0,0,0,0,0
8865336,0.9979568,0.009927212,-0.012319112,-0.061903786,-0.005215218,0.0020137778,-0.19413684,-0.001538161,0.00061607116,-0.84453523,-1.4845787e-06,3.9528415e-05,-1.1605204e-05,0.0,0.0,0.00059176295,0.3572811,-0.012120792,-0.04927074,0.0,0.0,0.0,0.0,0.0,1.9867345e-10,1.0101378e-05,0.00021631586,1.6432689e-06,0.0007575872,0.0007577602,0.0003727004,0.34837088,0.34838474,0.23312621,0.1265783,0.12658055,0.6778681,4.6882203e-08,4.6906695e-08,1.8378868e-08,0.0,0.0,1.9297988e-06,0.0,0.0,0.0,0.0,0.0,0.0,0.0,0.0,0.0002471293,0.009202217,0.020260885,67240466,0.0,0.0,0.0010242282,0.0,3.4426455e-05,3.4426455e-05,0.0,0.0,0.0,0.0,0,0,0,228,24,0,0,0,0,0,0,0
9265510,0.9979584,0.009876657,-0.012404373,-0.061867744,-0.0047434266,0.0005733736,-0.21722525,-0.0016695893,0.00039479823,-0.962005,-1.3525352e-06,4.0202885e-05,-1.1649564e-05,0.0,0.0,0.0006270234,0.3572811,-0.012120792,-0.04927074,0.0,0.0,0.0,0.0,0.0,1.903975e-10,9.637534e-06,0.00021918763,1.4922393e-06,0.0005698951,0.00057001575,0.00034614705,0.29891402,0.29892606,0.21112183,0.121447325,0.12144893,0.64634335,3.0515892e-08,3.053084e-08,1.4623198e-08,0.0,0.0,1.6600173e-06,0.0,0.0,0.0,0.0,0.0,0.0,0.0,0.0,0.00020926853,0.0044738455,0.009314842,67240466,0.0,0.0,0.0032303615,0.0,3.784673e-05,3.784673e-05,0.0,0.0,0.0,0.0,0,0,0,228,24,0,0,0,0,0,0,0
9465601,0.9979519,0.009868958,-0.012426369,-0.06196862,-0.0043311333,-0.00035780435,-0.2219292,-0.0016334142,0.00027448553,-1.0079868,-1.3225014e-06,4.0499126e-05,-1.1222424e-05,0.0,0.0,0.0006287822,0.3572811,-0.012120792,-0.04927074,0.0,0.0,0.0,0.0,0.0,1.7937747e-10,8.950199e-06,0.00020610617,1.4367879e-06,0.0004937862,0.00049388537,0.00033670274,0.2763343,0.27634576,0.20854822,0.11884336,0.11884482,0.6648815,2.4662482e-08,2.4674087e-08,1.3196394e-08,0.0,0.0,1.5671083e-06,0.0,0.0,0.0,0.0,0.0,0.0,0.0,0.0,0.00030011646,0.009906376,0.022576535,67240466,0.0,0.0,0.0017487541,0.0,3.72115e-05,3.72115e-05,0.0,0.0,0.0,0.0,0,0,0,228,24,0,0,0,0,0,0,0
9865757,0.9979444,0.009896957,-0.012461779,-0.062080137,-0.0038410423,0.0003789952,-0.22229327,-0.0014870717,7.0356866e-05,-1.0868653,-1.3324951e-06,4.0957377e-05,-1.078355e-05,0.0,0.0,0.0006189873,0.3572811,-0.012120792,-0.04927074,0.0,0.0,0.0,0.0,0.0,1.8152209e-10,9.181349e-06,0.00021619994,1.320979e-06,0.0003713897,0.00037145524,0.00031475924,0.2356957,0.23570457,0.18835711,0.11364132,0.11364271,0.6291171,1.6228432e-08,1.623549e-08,1.074103e-08,0.0,0.0,1.3384994e-06,0.0,0.0,0.0,0.0,0.0,0.0,0.0,0.0,0.00022382694,0.018539764,0.042630337,67240466,0.0,0.0,0.00016258331,0.0,3.3430555e-05,3.3430555e-05,0.0,0.0,0.0,0.0,0,0,0,228,24,0,0,0,0,0,0,0
10265931,0.99795103,0.00986115,-0.012476761,-0.06197552,-0.002299106,0.0018104975,-0.21579827,-0.0012265219,0.00030824973,-1.1515357,-1.3360956e-06,4.1272648e-05,-1.1039787e-05,0.0,0.0,0.00059879164,0.3575825,-0.012131023,-0.051028136,0.0,0.0,0.0,0.0,0.0,2.0486521e-10,1.0237905e-05,0.00023891975,4.4072594e-06,0.00031628698,0.00031630576,0.0011209516,0.15133008,0.15133332,0.1769706,0.10566584,0.1056669,0.62772506,1.0904305e-08,1.0908286e-08,9.988013e-09,0.0,0.0,1.1652384e-06,0.0,0.0,0.0,0.0,0.0,0.0,0.0,0.0,9.38918e-05,0.018284047,0.044163056,67240467,0.4597094,0.79229105,0.002870269,0.0,2.838302e-05,2.838302e-05,0.0,0.0,0.0,0.0,0,0,0,229,24,0,0,0,0,0,0,0
11466435,0.997937,0.0098510105,-0.012488658,-0.062199343,-0.0028677369,0.0006969329,-0.23671216,-0.0014286475,-1.175357e-05,-1.4352659,-1.3185696e-06,4.174515e-05,-1.0898561e-05,0.0,0.0,0.0006098958,0.3575825,-0.012131023,-0.051028136,0.0,0.0,0.0,0.0,0.0,3.526103e-10,1.573547e-05,0.00028988023,1.2527698e-06,0.00023953461,0.00023958829,0.0003070086,0.16256176,0.16256523,0.14214502,0.08905198,0.08905257,0.5919969,5.5230216e-09,5.52391e-09,9.816584e-09,0.0,0.0,7.5089247e-07,0.0,0.0,0.0,0.0,0.0,0.0,0.0,0.0,0.00011343965,0.004076655,0.0069677383,67240467,0.42202434,0.76941335,0.00056896,0.0,3.1661257e-05,3.1661257e-05,0.0,0.0,0.0,0.0,0,0,0,229,24,0,0,0,0,0,0,0
11666520,0.9979342,0.00988139,-0.012503059,-0.062236834,-0.0029502884,0.0008344917,-0.2409328,-0.0013820644,5.8012523e-05,-1.4897894,-1.3202116e-06,4.178592e-05,-1.0853811e-05,0.0,0.0,0.000614937,0.3575825,-0.012131023,-0.051028136,0.0,0.0,0.0,0.0,0.0,3.0644676e-10,1.3975098e-05,0.0002712751,1.1291452e-06,0.00020469143,0.00020473826,0.00027741044,0.1663166,0.16632013,0.13554221,0.09103916,0.09103982,0.5771187,5.3389275e-09,5.339742e-09,9.739242e-09,0.0,0.0,6.930562e-07,0.0,0.0,0.0,0.0,0.0,0.0,0.0,0.0,0.00010582332,0.0027647938,0.0030152653,67240467,0.42670715,0.7596833,0.0006846438,0.0,3.0507908e-05,3.0507908e-05,0.0,0.0,0.0,0.0,0,0,0,229,24,0,0,0,0,0,0,0
11866622,0.99793273,0.009922671,-0.012511576,-0.062252387,-0.0030163042,0.0010567227,-0.23643637,-0.0013437863,0.00019223508,-1.5207602,-1.3233782e-06,4.1818075e-05,-1.0859194e-05,0.0,0.0,0.00060313655,0.3575825,-0.012131023,-0.051028136,0.0,0.0,0.0,0.0,0.0,2.81463e-10,1.32582045e-05,0.00031335602,1.0447549e-06,0.00016917054,0.0001692091,0.00025796585,0.16370298,0.16370618,0.12931974,0.09287325,0.09287394,0.56305015,5.2419984e-09,5.2427898e-09,9.653607e-09,0.0,0.0,6.3989893e-07,0.0,0.0,0.0,0.0,0.0,0.0,0.0,0.0,7.3872754e-05,0.008169916,0.017888295,67240467,0.430984,0.7503667,0.00063444686,0.0,2.956344e-05,2.956344e-05,0.0,0.0,0.0,0.0,0,0,0,229,24,0,0,0,0,0,0,0
12066687,0.9979335,0.009910687,-0.012524778,-0.062237788,-0.0039272895,0.0010344001,-0.23803681,-0.0014392626,0.00026137833,-1.5641989,-1.3234794e-06,4.1838837e-05,-1.0880938e-05,0.0,0.0,0.0006002709,0.3575825,-0.012131023,-0.051028136,0.0,0.0,0.0,0.0,0.0,2.5177133e-10,1.1860666e-05,0.00028527356,9.675772e-07,0.00013635037,0.00013637998,0.00024044362,0.15558451,0.1555872,0.12335599,0.09401473,0.09401538,0.54931796,5.1985256e-09,5.1993365e-09,9.539594e-09,0.0,0.0,5.907308e-07,0.0,0.0,0.0,0.0,0.0,0.0,0.0,0.0,7.284707e-05,0.007946831,0.01809496,67240467,0.4336244,0.74115986,0.000529775,0.0,3.0495543e-05,3.0495543e-05,0.0,0.0,0.0,0.0,0,0,0,229,24,0,0,0,0,0,0,0
12666980,0.9979354,0.009920889,-0.012564421,-0.062198583,-0.003222437,0.0015433972,-0.22660026,-0.0017774934,0.0004162541,-1.659329,-1.3262767e-06,4.1869782e-05,-1.0798562e-05,0.0,0.0,0.0005707043,0.3575825,-0.012131023,-0.051028136,0.0,0.0,0.0,0.0,0.0,1.9754545e-10,9.93702e-06,0.00025202034,8.387496e-07,7.029333e-05,7.030099e-05,0.0002124067,0.11567121,0.11567212,0.11059588,0.091936,0.091936484,0.5342023,5.179066e-09,5.180044e-09,9.108969e-09,0.0,0.0,4.7466878e-07,0.0,0.0,0.0,0.0,0.0,0.0,0.0,0.0,7.740443e-05,0.011293113,0.02911831,67240467,0.42880356,0.7308914,0.0013785021,0.0,3.921262e-05,3.921262e-05,0.0,0.0,0.0,0.0,0,0,0,229,24,0,0,0,0,0,0,0
12867032,0.9979341,0.009909233,-0.012573724,-0.062219128,-0.003108061,0.0011149418,-0.22422543,-0.0016713768,0.0005244036,-1.6922585,-1.3256703e-06,4.1871805e-05,-1.0714442e-05,0.0,0.0,0.0005632127,0.3575825,-0.012131023,-0.051028136,0.0,0.0,0.0,0.0,0.0,1.8448267e-10,9.468915e-06,0.00023889904,8.1813715e-07,5.929917e-05,5.9301852e-05,0.00020787463,0.10224715,0.102247745,0.108876355,0.089820296,0.089820676,0.5449194,5.1790723e-09,5.1801226e-09,8.936159e-09,0.0,0.0,4.4737723e-07,0.0,0.0,0.0,0.0,0.0,0.0,0.0,0.0,9.805745e-05,0.008682687,0.02289208,67240467,0.42384076,0.73818654,0.0026255688,0.0,3.7229198e-05,3.7229198e-05,0.0,0.0,0.0,0.0,0,0,0,229,24,0,0,0,0,0,0,0
13067141,0.99793535,0.009910851,-0.012588959,-0.062196855,-0.002836711,0.0014558138,-0.22356027,-0.0015874144,0.000592192,-1.7309918,-1.3267244e-06,4.1870328e-05,-1.070981e-05,0.0,0.0,0.0005595471,0.3575825,-0.012131023,-0.051028136,0.0,0.0,0.0,0.0,0.0,1.7356862e-10,9.20187e-06,0.00023705431,7.965315e-07,5.2663603e-05,5.2662603e-05,0.00020285058,0.09022146,0.09022161,0.103826575,0.087329574,0.08732987,0.5316323,5.178767e-09,5.179906e-09,8.72595e-09,0.0,0.0,4.1339013e-07,0.0,0.0,0.0,0.0,0.0,0.0,0.0,0.0,6.774549e-05,0.0063564857,0.016479913,67240467,0.41792277,0.7291312,0.0002442308,0.0,3.5240984e-05,3.5240984e-05,0.0,0.0,0.0,0.0,0,0,0,229,24,0,0,0,0,0,0,0
13467292,0.9979385,0.009959699,-0.0126592135,-0.062124424,-0.0025063558,0.0010967893,-0.21370144,-0.0014579629,0.00064272294,-1.7793641,-1.3398925e-06,4.186557e-05,-1.1012252e-05,0.0,0.0,0.0005369679,0.3575825,-0.012131023,-0.051028136,0.0,0.0,0.0,0.0,0.0,1.6554055e-10,8.859829e-06,0.00023159033,7.7719994e-07,4.9289683e-05,4.928402e-05,0.0001978536,0.07152826,0.07152827,0.09722531,0.08191594,0.08191611,0.52747184,5.178548e-09,5.179878e-09,8.279237e-09,0.0,0.0,3.599652e-07,0.0,0.0,0.0,0.0,0.0,0.0,0.0,0.0,0.00014176634,0.0075000655,0.019971885,67240467,0.4047617,0.7262726,0.003249267,0.0,3.1824453e-05,3.1824453e-05,0.0,0.0,0.0,0.0,0,0,0,229,24,0,0,0,0,0,0,0
14867889,0.9979336,0.01002225,-0.012756236,-0.0621722,0.0006537074,0.0010054018,-0.21294244,-0.00022372948,0.00040989782,-2.046161,-1.3036588e-06,4.1928448e-05,-1.0448813e-05,0.0,0.0,0.00052175386,0.3575825,-0.012131023,-0.051028136,0.0,0.0,0.0,0.0,0.0,1.654796e-10,9.1075e-06,0.000266211,7.7896465e-07,8.696922e-05,8.696578e-05,0.00019549952,0.06212177,0.06212434,0.07443938,0.0696111,0.069611475,0.48348072,4.979051e-09,4.9811084e-09,6.4436776e-09,0.0,0.0,2.197998e-07,0.0,0.0,0.0,0.0,0.0,0.0,0.0,0.0,6.932639e-05,0.001790118,0.0064434214,67240467,0.3731254,0.69532776,0.0017647003,0.0,8.795761e-06,8.795761e-06,0.0,0.0,0.0,0.0,0,0,0,229,24,0,0,0,0,0,0,0
15268058,0.99793446,0.010054517,-0.012795758,-0.06214489,0.0011639227,0.0011283834,-0.22424963,0.00017239759,0.00047387305,-2.1582341,-1.2778978e-06,4.1931897e-05,-1.0428702e-05,0.0,0.0,0.00053299055,0.3575825,-0.012131023,-0.051028136,0.0,0.0,0.0,0.0,0.0,1.5778134e-10,8.879704e-06,0.0002428446,7.817765e-07,9.923878e-05,9.923928e-05,0.00019527104,0.0714162,0.07142007,0.06806728,0.070112966,0.07011368,0.46185645,4.693037e-09,4.695198e-09,5.9000587e-09,0.0,0.0,1.9012066e-07,0.0,0.0,0.0,0.0,0.0,0.0,0.0,0.0,1.5737636e-05,0.006804474,0.02298896,67240467,0.37446848,0.67960024,0.0005466247,0.0,1.0005937e-05,1.0005937e-05,0.0,0.0,0.0,0.0,0,0,0,229,24,0,0,0,0,0,0,0
15868325,0.9979235,0.010090925,-0.012859037,-0.0623026,0.0024619452,0.0029151444,-0.23074721,0.00088231714,0.00090016273,-2.306263,-1.1839454e-06,4.1893785e-05,-9.767762e-06,0.0,0.0,0.00053763395,0.3575825,-0.012131023,-0.051028136,0.0,0.0,0.0,0.0,0.0,2.7627114e-10,1.4177224e-05,0.00026800315,7.843376e-07,0.00010736962,0.000107376385,0.00019492037,0.0864484,0.08645304,0.061191574,0.07394152,0.073942795,0.44742352,3.9357113e-09,3.937771e-09,5.1346483e-09,0.0,0.0,1.5635473e-07,0.0,0.0,0.0,0.0,0.0,0.0,0.0,0.0,0.00024689894,0.002652916,0.009658116,67240467,0.38455728,0.6688972,0.0039537004,0.0,1.8057679e-05,1.8057679e-05,0.0,0.0,0.0,0.0,0,0,0,229,24,0,0,0,0,0,0,0
16068405,0.9979209,0.010086156,-0.01286667,-0.062344242,0.003318865,0.0025625904,-0.23137632,0.0011330559,0.0010264467,-2.344551,-1.1349152e-06,4.186177e-05,-9.534657e-06,0.0,0.0,0.00053444924,0.3575825,-0.012131023,-0.051028136,0.0,0.0,0.0,0.0,0.0,2.2777516e-10,1.1982229e-05,0.00025111437,7.7837984e-07,0.00010645108,0.000106459556,0.00019338999,0.09014304,0.09014772,0.060132436,0.07556724,0.075568624,0.45361716,3.613599e-09,3.6155585e-09,4.8760675e-09,0.0,0.0,1.4839938e-07,0.0,0.0,0.0,0.0,0.0,0.0,0.0,0.0,0.00024412572,0.00134226,0.0012374643,67240467,0.38876197,0.6735111,0.0013545358,0.0,2.2878254e-05,2.2878254e-05,0.0,0.0,0.0,0.0,0,0,0,229,24,0,0,0,0,0,0,0
16268497,0.99791735,0.010098886,-0.012896366,-0.062390964,0.004468262,0.003126174,-0.2339232,0.0014719403,0.0011581257,-2.3934205,-1.0772679e-06,4.1818468e-05,-9.265599e-06,0.0,0.0,0.0005353824,0.3575825,-0.012131023,-0.051028136,0.0,0.0,0.0,0.0,0.0,2.0034702e-10,1.0849595e-05,0.00024979867,7.7786905e-07,0.000103790495,0.00010380017,0.00019339428,0.0926653,0.092669606,0.057585455,0.07712443,0.07712585,0.4434263,3.2748932e-09,3.2767153e-09,4.6513757e-09,0.0,0.0,1.3855951e-07,0.0,0.0,0.0,0.0,0.0,0.0,0.0,0.0,0.00023342243,0.001374503,0.002848029,67240467,0.3927471,0.6659026,0.002966148,0.0,2.9585939e-05,2.9585939e-05,0.0,0.0,0.0,0.0,0,0,0,229,24,0,0,0,0,0,0,0
16468586,0.99791527,0.010142151,-0.012924514,-0.062412657,0.0061750906,0.0037406292,-0.23563288,0.0018902231,0.0013104726,-2.4415362,-1.0157927e-06,4.175681e-05,-9.162281e-06,0.0,0.0,0.0005358415,0.3575825,-0.012131023,-0.051028136,0.0,0.0,0.0,0.0,0.0,1.9768016e-10,1.0569982e-05,0.00024151434,7.7042154e-07,9.965408e-05,9.9665005e-05,0.0001915868,0.09390896,0.09391277,0.055160664,0.07848678,0.07848817,0.43348256,2.932776e-09,2.9344478e-09,4.410914e-09,0.0,0.0,1.2946569e-07,0.0,0.0,0.0,0.0,0.0,0.0,0.0,0.0,0.00016053679,0.0014792053,0.0026257264,67240467,0.39620063,0.6583939,0.0019456393,0.0,3.8117505e-05,3.8117505e-05,0.0,0.0,0.0,0.0,0,0,0,229,24,0,0,0,0,0,0,0
16868758,0.997913,0.010150301,-0.012898509,-0.062452428,0.0059992447,0.0042533847,-0.24414143,0.002614943,0.0016503527,-2.5533109,-8.6942094e-07,4.1590974e-05,-8.994524e-06,0.0,0.0,0.0005415624,0.3575825,-0.012131023,-0.051028136,0.0,0.0,0.0,0.0,0.0,1.7142404e-10,9.1966895e-06,0.00026226,7.5929876e-07,8.839409e-05,8.84058e-05,0.00018924501,0.09281583,0.092818566,0.051875766,0.08031232,0.08031353,0.42845416,2.2844577e-09,2.285794e-09,3.982508e-09,0.0,0.0,1.15047676e-07,0.0,0.0,0.0,0.0,0.0,0.0,0.0,0.0,0.0001218086,0.0031295642,0.009878816,67240467,0.40078154,0.6545641,0.0013375412,0.0,5.5272514e-05,5.5272514e-05,0.0,0.0,0.0,0.0,0,0,0,229,24,0,0,0,0,0,0,0
17068838,0.9979124,0.010167965,-0.012882558,-0.062461685,0.0066319397,0.0031821034,-0.24614374,0.0028605694,0.0017360607,-2.6049533,-7.926506e-07,4.1497042e-05,-8.972818e-06,0.0,0.0,0.0005424215,0.3575825,-0.012131023,-0.051028136,0.0,0.0,0.0,0.0,0.0,1.8223181e-10,9.716431e-06,0.00024594416,7.559856e-07,8.20057e-05,8.201723e-05,0.00018868221,0.09078412,0.0907866,0.04972121,0.08071412,0.0807152,0.4186999,1.994587e-09,1.9957551e-09,3.7927035e-09,0.0,0.0,1.07721085e-07,0.0,0.0,0.0,0.0,0.0,0.0,0.0,0.0,0.000114457194,0.0022173137,0.0057331393,67240467,0.40178266,0.6470702,0.0035311023,0.0,6.059408e-05,6.059408e-05,0.0,0.0,0.0,0.0,0,0,0,229,24,0,0,0,0,0,0,0
17268921,0.9979108,0.010180876,-0.012886174,-0.06248477,0.006258614,0.0036449307,-0.24597746,0.0030205138,0.0018187863,-2.654207,-7.136515e-07,4.1403866e-05,-8.830412e-06,0.0,0.0,0.0005424401,0.3575825,-0.012131023,-0.051028136,0.0,0.0,0.0,0.0,0.0,1.8429586e-10,9.778778e-06,0.00023801284,7.5165394e-07,7.552902e-05,7.554006e-05,0.00018798323,0.08803371,0.08803552,0.048881955,0.080785744,0.080786705,0.4236659,1.7334153e-09,1.7344248e-09,3.6112062e-09,0.0,0.0,1.0260452e-07,0.0,0.0,0.0,0.0,0.0,0.0,0.0,0.0,0.00014560916,0.0018489657,0.0027952523,67240467,0.40196076,0.65089625,0.0004051896,0.0,6.4738815e-05,6.4738815e-05,0.0,0.0,0.0,0.0,0,0,0,229,24,0,0,0,0,0,0,0
17469008,0.9979079,0.010163326,-0.012870176,-0.06253762,0.005678718,0.0035022723,-0.24697141,0.0030920415,0.0018574699,-2.7028573,-6.3431924e-07,4.1315485e-05,-8.587981e-06,0.0,0.0,0.0005422855,0.3575825,-0.012131023,-0.051028136,0.0,0.0,0.0,0.0,0.0,1.7599563e-10,9.692026e-06,0.00023193858,7.408048e-07,6.919178e-05,6.9202055e-05,0.00018561266,0.08480148,0.084802866,0.046914164,0.080564395,0.080565244,0.4142923,1.5020337e-09,1.5029004e-09,3.4192835e-09,0.0,0.0,9.6267e-08,0.0,0.0,0.0,0.0,0.0,0.0,0.0,0.0,0.00022227013,0.0019107781,0.0035001617,67240467,0.40140957,0.6436554,0.0005922696,0.0,6.679462e-05,6.679462e-05,0.0,0.0,0.0,0.0,0,0,0,229,24,0,0,0,0,0,0,0
17669101,0.9979052,0.010177652,-0.01288593,-0.06257523,0.005837447,0.0033924803,-0.24757305,0.0031749744,0.0018528284,-2.752131,-5.6176566e-07,4.1229134e-05,-8.443883e-06,0.0,0.0,0.0005422016,0.3575825,-0.012131023,-0.051028136,0.0,0.0,0.0,0.0,0.0,1.7246989e-10,9.536649e-06,0.00021957843,7.3025365e-07,6.3151856e-05,6.316128e-05,0.00018320057,0.08125504,0.08125604,0.04507154,0.08009559,0.08009631,0.40542868,1.299692e-09,1.3004293e-09,3.237775e-09,0.0,0.0,9.043723e-08,0.0,0.0,0.0,0.0,0.0,0.0,0.0,0.0,0.00021656232,0.0016969582,0.002063559,67240467,0.4002398,0.6367328,0.0021064032,0.0,6.8284455e-05,6.8284455e-05,0.0,0.0,0.0,0.0,0,0,0,229,24,0,0,0,0,0,0,0
18269359,0.9979056,0.010168077,-0.012863403,-0.06257519,0.006779906,0.0020513937,-0.24179704,0.0032177023,0.001427582,-2.870115,-3.97268e-07,4.0996114e-05,-8.338615e-06,0.0,0.0,0.00053299806,0.3575825,-0.012131023,-0.051028136,0.0,0.0,0.0,0.0,0.0,1.6418943e-10,9.137378e-06,0.00026647086,7.08679e-07,4.7568064e-05,4.7574325e-05,0.00017856718,0.070116,0.07011632,0.040989723,0.07765322,0.07765366,0.39263132,8.4463264e-10,8.450622e-10,2.7806972e-09,0.0,0.0,7.646973e-08,0.0,0.0,0.0,0.0,0.0,0.0,0.0,0.0,9.0828435e-05,0.0061684246,0.022318712,67240467,0.39408994,0.626603,0.0002994973,0.0,6.874474e-05,6.874474e-05,0.0,0.0,0.0,0.0,0,0,0,229,24,0,0,0,0,0,0,0
18469460,0.9979061,0.010190495,-0.012858841,-0.06256485,0.0075033307,0.0014494417,-0.24125633,0.0034737538,0.0012891315,-2.9109457,-3.5796177e-07,4.0923398e-05,-8.3344885e-06,0.0,0.0,0.0005307762,0.3575825,-0.012131023,-0.051028136,0.0,0.0,0.0,0.0,0.0,2.0410562e-10,1.0617271e-05,0.0002405086,7.0300206e-07,4.3282438e-05,4.328773e-05,0.00017736132,0.06653145,0.06653163,0.04037224,0.076624595,0.07662494,0.3970654,7.3441836e-10,7.347711e-10,2.6487827e-09,0.0,0.0,7.315874e-08,0.0,0.0,0.0,0.0,0.0,0.0,0.0,0.0,8.675461e-05,0.004386758,0.01636068,67240467,0.391471,0.63013124,0.00033639607,0.0,7.33772e-05,7.33772e-05,0.0,0.0,0.0,0.0,0,0,0,229,24,0,0,0,0,0,0,0
18669530,0.997906,0.010186489,-0.012842984,-0.06257004,0.006879284,0.0018872833,-0.23460636,0.003692302,0.00119884,-2.930073,-3.233038e-07,4.0851097e-05,-8.320353e-06,0.0,0.0,0.0005226201,0.3575825,-0.012131023,-0.051028136,0.0,0.0,0.0,0.0,0.0,1.8685248e-10,1.0007708e-05,0.0002508394,6.921015e-07,3.9427676e-05,3.9432078e-05,0.00017472694,0.06309437,0.06309433,0.03887595,0.07554018,0.075540416,0.388821,6.404224e-10,6.4071154e-10,2.5103646e-09,0.0,0.0,6.902483e-08,0.0,0.0,0.0,0.0,0.0,0.0,0.0,0.0,8.367911e-05,0.0069622113,0.02688092,67240467,0.38869086,0.6235551,0.0013849805,0.0,7.8647616e-05,7.8647616e-05,0.0,0.0,0.0,0.0,0,0,0,229,24,0,0,0,0,0,0,0
18869620,0.9979053,0.010232158,-0.012835841,-0.062574394,0.008289775,0.0016638143,-0.22985645,0.0039259894,0.0012038405,-2.9515347,-2.9128043e-07,4.0780084e-05,-8.328901e-06,0.0,0.0,0.00051557634,0.3575825,-0.012131023,-0.051028136,0.0,0.0,0.0,0.0,0.0,1.8330115e-10,9.827511e-06,0.00024886496,6.866947e-07,3.5973768e-05,3.5977457e-05,0.00017343728,0.059835732,0.059835624,0.03747105,0.07442321,0.074423365,0.38100275,5.6028604e-10,5.605195e-10,2.3927291e-09,0.0,0.0,6.5204034e-08,0.0,0.0,0.0,0.0,0.0,0.0,0.0,0.0,8.32243e-05,0.007721203,0.030453125,67240467,0.38580638,0.6172542,0.00010755872,0.0,8.297082e-05,8.297082e-05,0.0,0.0,0.0,0.0,0,0,0,229,24,0,0,0,0,0,0,0
19069707,0.9979055,0.010232282,-0.01280233,-0.06257804,0.008071363,0.0022505291,-0.22574665,0.00420764,0.0012299564,-2.9775186,-2.6055207e-07,4.0709667e-05,-8.318457e-06,0.0,0.0,0.0005102067,0.3575825,-0.012131023,-0.051028136,0.0,0.0,0.0,0.0,0.0,1.8464867e-10,9.904142e-06,0.00024042839,6.7588365e-07,3.288592e-05,3.2888907e-05,0.00017079491,0.056756802,0.056756537,0.03692784,0.073290884,0.07329099,0.38507748,4.9190557e-10,4.920935e-10,2.2693782e-09,0.0,0.0,6.249778e-08,0.0,0.0,0.0,0.0,0.0,0.0,0.0,0.0,8.440807e-05,0.0058797454,0.023894005,67240467,0.38286012,0.6205461,0.0009235225,0.0,8.931609e-05,8.931609e-05,0.0,0.0,0.0,0.0,0,0,0,229,24,0,0,0,0,0,0,0
19269792,0.9979053,0.010258565,-0.012791485,-0.06257893,0.007774009,0.0021066782,-0.21921206,0.0043787574,0.0012857186,-2.9981623,-2.3101332e-07,4.0641426e-05,-8.321405e-06,0.0,0.0,0.0005038222,0.3575825,-0.012131023,-0.051028136,0.0,0.0,0.0,0.0,0.0,1.918842e-10,1.06321395e-05,0.00024227136,6.7029396e-07,3.0129742e-05,3.0132005e-05,0.00016945327,0.053862166,0.05386184,0.03560871,0.07215569,0.072155714,0.37723702,4.3349205e-10,4.3363996e-10,2.1646542e-09,0.0,0.0,5.911718e-08,0.0,0.0,0.0,0.0,0.0,0.0,0.0,0.0,8.495348e-05,0.0061054444,0.025005227,67240467,0.3798834,0.61419624,0.00052960066,0.0,9.334019e-05,9.334019e-05,0.0,0.0,0.0,0.0,0,0,0,229,24,0,0,0,0,0,0,0
19870054,0.99791306,0.010273874,-0.01276958,-0.06245819,0.0051190094,0.0045454884,-0.20304465,0.004050478,0.0019595008,-3.0566201,-1.5190982e-07,4.0463266e-05,-8.672981e-06,0.0,0.0,0.0004864144,0.3575825,-0.012131023,-0.051028136,0.0,0.0,0.0,0.0,0.0,2.0466606e-10,1.110007e-05,0.0002453387,6.436203e-07,2.3519375e-05,2.3519584e-05,0.00016287334,0.046299037,0.046298366,0.03276152,0.06883193,0.06883175,0.36647174,3.0372188e-10,3.0378525e-10,1.863942e-09,0.0,0.0,5.1019583e-08,0.0,0.0,0.0,0.0,0.0,0.0,0.0,0.0,0.00016181133,0.0037363376,0.016108656,67240467,0.37103057,0.6053691,0.0003241384,0.0,8.798523e-05,8.798523e-05,0.0,0.0,0.0,0.0,0,0,0,229,24,0,0,0,0,0,0,0
20070142,0.99791807,0.010234106,-0.012767059,-0.062384393,0.0052450905,0.004162312,-0.19969499,0.0038795264,0.002140387,-3.0780308,-1.2410497e-07,4.0416573e-05,-8.80562e-06,0.0,0.0,0.00048180867,0.3575825,-0.012131023,-0.051028136,0.0,0.0,0.0,0.0,0.0,1.988589e-10,1.095078e-05,0.0002470388,6.3736735e-07,2.1770791e-05,2.177018e-05,0.00016148917,0.044126105,0.04412547,0.031679098,0.067771606,0.06777142,0.35954484,2.7192587e-10,2.7196856e-10,1.780986e-09,0.0,0.0,5.000009e-08,0.0,0.0,0.0,0.0,0.0,0.0,0.0,0.0,0.0001648032,0.00270798,0.011944241,67240467,0.36816168,0.5996206,0.0003926693,0.0,8.407457e-05,8.407457e-05,0.0,0.0,0.0,0.0,0,0,0,229,24,0,0,0,0,0,0,0
21270706,0.99793637,0.010205242,-0.012787334,-0.06209311,0.0063393535,0.0049351086,-0.17447859,0.003364587,0.0029810206,-3.207553,3.4692206e-08,4.0238647e-05,-9.236443e-06,0.0,0.0,0.00046071783,0.3575825,-0.012131023,-0.051028136,0.0,0.0,0.0,0.0,0.0,3.2558006e-10,1.6058382e-05,0.00028766278,5.8850145e-07,1.4503173e-05,1.4499848e-05,0.00014995859,0.033996277,0.03399578,0.027303087,0.062077474,0.062077183,0.34065756,1.520828e-10,1.520582e-10,1.3484895e-09,0.0,0.0,5.000009e-08,0.0,0.0,0.0,0.0,0.0,0.0,0.0,0.0,8.322196e-05,0.0024186869,0.009543114,67240467,0.35235587,0.58365875,0.00089069025,0.0,6.9427064e-05,6.9427064e-05,0.0,0.0,0.0,0.0,0,0,0,229,24,0,0,0,0,0,0,0
21470756,0.9979413,0.010180806,-0.012778432,-0.06201837,0.0065049296,0.005521648,-0.17695698,0.0036912397,0.0031988006,-3.249708,5.768926e-08,4.0211457e-05,-9.39561e-06,0.0,0.0,0.0004621836,0.3575825,-0.012131023,-0.051028136,0.0,0.0,0.0,0.0,0.0,2.7903424e-10,1.4097147e-05,0.00028128971,5.790118e-07,1.368126e-05,1.3677627e-05,0.00014762502,0.03271359,0.032713085,0.027045818,0.061246153,0.061245836,0.34402767,1.3987135e-10,1.3984199e-10,1.2866341e-09,0.0,0.0,5.000036e-08,0.0,0.0,0.0,0.0,0.0,0.0,0.0,0.0,0.00015609687,0.0046974537,0.019919138,67240467,0.34998855,0.58653873,0.0013750567,0.0,7.652774e-05,7.652774e-05,0.0,0.0,0.0,0.0,0,0,0,229,24,0,0,0,0,0,0,0
22071025,0.9979485,0.010194652,-0.0127574485,-0.06190298,0.007266319,0.0077047655,-0.17700599,0.004575975,0.004340329,-3.3558574,1.3708667e-07,4.0131355e-05,-9.662594e-06,0.0,0.0,0.00046218204,0.3575825,-0.012131023,-0.051028136,0.0,0.0,0.0,0.0,0.0,2.1348981e-10,1.1361512e-05,0.00026314484,5.59242e-07,1.1659939e-05,1.165574e-05,0.0001427165,0.02938904,0.029388607,0.02542927,0.058947086,0.058946792,0.3353853,1.1110893e-10,1.1106946e-10,1.1313719e-09,0.0,0.0,5.0000452e-08,0.0,0.0,0.0,0.0,0.0,0.0,0.0,0.0,0.00014294003,0.0039656474,0.017565005,67240467,0.3433568,0.57912457,0.00010967016,0.0,9.573671e-05,9.573671e-05,0.0,0.0,0.0,0.0,0,0,0,229,24,0,0,0,0,0,0,0
23271564,0.9979647,0.010206303,-0.012729623,-0.061646566,0.009483377,0.01036388,-0.19435412,0.006559079,0.00702299,-3.6451166,3.3083288e-07,3.997664e-05,-9.941608e-06,0.0,0.0,0.00047504308,0.3575825,-0.012131023,-0.051028136,0.0,0.0,0.0,0.0,0.0,1.5443066e-10,8.90249e-06,0.00024760325,5.168823e-07,9.012963e-06,9.008197e-06,0.00013266191,0.024587149,0.024586914,0.022709476,0.05515325,0.055153,0.3121494,7.6296656e-11,7.625221e-11,8.8227675e-10,0.0,0.0,5e-08,0.0,0.0,0.0,0.0,0.0,0.0,0.0,0.0,0.00011994497,0.0072191567,0.03305351,67240467,0.33212385,0.5587033,0.0001998373,0.0,0.00014638057,0.00014638057,0.0,0.0,0.0,0.0,0,0,0,229,24,0,0,0,0,0,0,0
23471651,0.9979675,0.010212974,-0.012746793,-0.061598107,0.009194426,0.010316903,-0.19630194,0.006802775,0.007375662,-3.6896539,3.648181e-07,3.995126e-05,-9.969168e-06,0.0,0.0,0.00047603413,0.3575825,-0.012131023,-0.051028136,0.0,0.0,0.0,0.0,0.0,1.5944109e-10,9.307676e-06,0.00024618977,5.0857955e-07,8.697069e-06,8.692252e-06,0.00013070786,0.02397132,0.0239711,0.022694565,0.054614525,0.05461429,0.31542853,7.236183e-11,7.23178e-11,8.461392e-10,0.0,0.0,5.0000363e-08,0.0,0.0,0.0,0.0,0.0,0.0,0.0,0.0,0.00010502622,0.0044841603,0.020770295,67240467,0.33049783,0.56163025,0.0013053577,0.0,0.00015410208,0.00015410208,0.0,0.0,0.0,0.0,0,0,0,229,24,0,0,0,0,0,0,0
23871820,0.9979711,0.010180249,-0.012753546,-0.06154231,0.009287161,0.009192752,-0.20191702,0.007169986,0.0077192956,-3.7924056,4.325352e-07,3.990308e-05,-9.966116e-06,0.0,0.0,0.00048015415,0.3575825,-0.012131023,-0.051028136,0.0,0.0,0.0,0.0,0.0,1.4063829e-10,8.319609e-06,0.00024082088,4.956253e-07,8.143056e-06,8.138086e-06,0.00012767159,0.022863824,0.02286374,0.021982169,0.053609617,0.053609412,0.3063273,6.557252e-11,6.552934e-11,7.8265117e-10,0.0,0.0,5.000009e-08,0.0,0.0,0.0,0.0,0.0,0.0,0.0,0.0,7.539385e-05,0.0031110304,0.014158897,67240467,0.32744315,0.55346847,0.0005808399,0.0,0.00016271285,0.00016271285,0.0,0.0,0.0,0.0,0,0,0,229,24,0,0,0,0,0,0,0
24061909,0.9979715,0.010203746,-0.012751528,-0.061532713,0.00928651,0.009762854,-0.20556971,0.007307027,0.0077771246,-3.8496711,4.6597057e-07,3.9880273e-05,-9.926502e-06,0.0,0.0,0.0004834686,0.3575825,-0.012131023,-0.051028136,0.0,0.0,0.0,0.0,0.0,1.4548686e-10,8.772024e-06,0.00023416108,4.924581e-07,7.877677e-06,7.872724e-06,0.00012700292,0.022213355,0.022213284,0.021972967,0.05257247,0.05257229,0.30839065,6.262975e-11,6.258663e-11,7.578049e-10,0.0,0.0,5.000036e-08,0.0,0.0,0.0,0.0,0.0,0.0,0.0,0.0,8.920753e-05,0.004104007,0.01868472,67240467,0.32426032,0.5553293,0.0007456863,0.0,0.00016540913,0.00016540913,0.0,0.0,0.0,0.0,0,0,0,229,24,0,0,0,0,0,0,0
24261989,0.9979734,0.0101944255,-0.012754666,-0.061502405,0.008572885,0.008611353,-0.20776083,0.0074185003,0.007830238,-3.8984597,4.9701106e-07,3.9856863e-05,-9.944014e-06,0.0,0.0,0.0004847955,0.3575825,-0.012131023,-0.051028136,0.0,0.0,0.0,0.0,0.0,1.4421223e-10,8.667579e-06,0.00023072217,4.849788e-07,7.655232e-06,7.650272e-06,0.0001251823,0.021754859,0.021754852,0.021681437,0.052135397,0.052135237,0.30415025,5.9954854e-11,5.991267e-11,7.281294e-10,0.0,0.0,5.000018e-08,0.0,0.0,0.0,0.0,0.0,0.0,0.0,0.0,7.721541e-05,0.002732954,0.012207276,67240467,0.32290965,0.5514982,0.00026261274,0.0,0.00016745036,0.00016745036,0.0,0.0,0.0,0.0,0,0,0,229,24,0,0,0,0,0,0,0
24662180,0.9979803,0.010227996,-0.012755892,-0.06138512,0.008431631,0.008182837,-0.21159965,0.0074621676,0.0076574623,-3.9954982,5.54445e-07,3.9812414e-05,-9.978463e-06,0.0,0.0,0.00048706587,0.3575825,-0.012131023,-0.051028136,0.0,0.0,0.0,0.0,0.0,1.6476615e-10,9.35851e-06,0.00022870964,4.7227272e-07,7.2626053e-06,7.2577886e-06,0.00012233875,0.02093014,0.020930124,0.021516163,0.051322978,0.05132285,0.30359307,5.5281217e-11,5.5240743e-11,6.758281e-10,0.0,0.0,5.000036e-08,0.0,0.0,0.0,0.0,0.0,0.0,0.0,0.0,7.9961785e-05,0.0012385702,0.004647959,67240467,0.32038388,0.5509928,0.0012734815,0.0,0.00016370235,0.00016370235,0.0,0.0,0.0,0.0,0,0,0,229,24,0,0,0,0,0,0,0
24862278,0.99798346,0.010244032,-0.012722204,-0.06133833,0.007896685,0.008242987,-0.21399118,0.0074586496,0.007571554,-4.0472503,5.811013e-07,3.9791437e-05,-9.9923345e-06,0.0,0.0,0.0004886834,0.3575825,-0.012131023,-0.051028136,0.0,0.0,0.0,0.0,0.0,1.5285073e-10,8.650695e-06,0.00022823495,4.6751776e-07,7.0892224e-06,7.0845563e-06,0.000121286,0.0205593,0.02055924,0.021294927,0.05094584,0.05094574,0.2997639,5.323568e-11,5.3195982e-11,6.527966e-10,0.0,0.0,5.000027e-08,0.0,0.0,0.0,0.0,0.0,0.0,0.0,0.0,7.5228265e-05,0.0016546766,0.0067389747,67240467,0.3192046,0.547507,0.00051944423,0.0,0.0001616651,0.0001616651,0.0,0.0,0.0,0.0,0,0,0,229,24,0,0,0,0,0,0,0
25062348,0.9979847,0.010235829,-0.012739206,-0.061315935,0.007740146,0.008137814,-0.21595895,0.007355791,0.007525075,-4.09411,6.0614906e-07,3.977129e-05,-1.002015e-05,0.0,0.0,0.00048932765,0.3575825,-0.012131023,-0.051028136,0.0,0.0,0.0,0.0,0.0,1.5798687e-10,8.89676e-06,0.00021858756,4.608524e-07,6.9293856e-06,6.924689e-06,0.000119605094,0.02021489,0.02021479,0.021095634,0.050587248,0.05058716,0.29610246,5.135597e-11,5.1317388e-11,6.2839556e-10,0.0,0.0,5.000009e-08,0.0,0.0,0.0,0.0,0.0,0.0,0.0,0.0,7.952813e-05,0.000708889,0.0019908773,67240467,0.31807923,0.544153,0.0014871153,0.0,0.00016042517,0.00016042517,0.0,0.0,0.0,0.0,0,0,0,229,24,0,0,0,0,0,0,0
25462525,0.99798524,0.010279779,-0.012751805,-0.061295636,0.006840172,0.009981544,-0.21473849,0.0071569677,0.00783862,-4.1730227,6.571293e-07,3.9736893e-05,-9.943255e-06,0.0,0.0,0.0004880046,0.3575825,-0.012131023,-0.051028136,0.0,0.0,0.0,0.0,0.0,1.4792897e-10,8.443549e-06,0.0002028626,4.4972424e-07,6.6455573e-06,6.6409934e-06,0.000116977804,0.019592505,0.019592248,0.02107324,0.049922377,0.049922284,0.29628065,4.803403e-11,4.7997366e-11,5.8529714e-10,0.0,0.0,5.0000363e-08,0.0,0.0,0.0,0.0,0.0,0.0,0.0,0.0,9.401106e-05,0.0021806778,0.011073305,67240467,0.31598207,0.5443167,0.0007467597,0.0,0.00016545324,0.00016545324,0.0,0.0,0.0,0.0,0,0,0,229,24,0,0,0,0,0,0,0
25662616,0.99798584,0.0103167,-0.012743993,-0.061281975,0.006532013,0.010067056,-0.2129403,0.0069738026,0.008094826,-4.2079973,6.822942e-07,3.9721457e-05,-9.902003e-06,0.0,0.0,0.0004866179,0.3575825,-0.012131023,-0.051028136,0.0,0.0,0.0,0.0,0.0,1.5116308e-10,8.777561e-06,0.00022263505,4.454011e-07,6.519506e-06,6.5150666e-06,0.000115999916,0.019312322,0.019312013,0.02092196,0.04961469,0.049614597,0.2929243,4.6563493e-11,4.652763e-11,5.662566e-10,0.0,0.0,5.0000178e-08,0.0,0.0,0.0,0.0,0.0,0.0,0.0,0.0,0.00010447173,0.0029605299,0.015108227,67240467,0.31500682,0.54122484,0.0003979275,0.0,0.00017094778,0.00017094778,0.0,0.0,0.0,0.0,0,0,0,229,24,0,0,0,0,0,0,0
26062790,0.997988,0.010367114,-0.01281181,-0.06122551,0.007883789,0.009975626,-0.21575758,0.0068020057,0.008580134,-4.302363,7.3141945e-07,3.96926e-05,-9.852042e-06,0.0,0.0,0.00048812028,0.3575825,-0.012131023,-0.051028136,0.0,0.0,0.0,0.0,0.0,1.669177e-10,9.911826e-06,0.00022899114,4.3459045e-07,6.2948525e-06,6.290396e-06,0.00011350763,0.018809162,0.018808777,0.02097365,0.049045864,0.049045738,0.29351786,4.394194e-11,4.3907905e-11,5.286921e-10,0.0,0.0,5.000027e-08,0.0,0.0,0.0,0.0,0.0,0.0,0.0,0.0,7.5303695e-05,0.0005463017,0.0029380522,67240467,0.3131958,0.5417729,0.0023608487,0.0,0.00018153178,0.00018153178,0.0,0.0,0.0,0.0,0,0,0,229,24,0,0,0,0,0,0,0
26663062,0.99799347,0.010365658,-0.012857526,-0.061125536,0.00958633,0.011067288,-0.21853426,0.007389039,0.009190614,-4.445392,8.013954e-07,3.9649905e-05,-9.849061e-06,0.0,0.0,0.00049052,0.3575825,-0.012131023,-0.051028136,0.0,0.0,0.0,0.0,0.0,1.9717492e-10,1.1315822e-05,0.00022937718,4.1846533e-07,6.01502e-06,6.0105262e-06,0.000109677036,0.018173544,0.01817305,0.0209548,0.04829886,0.04829866,0.29124278,4.0670647e-11,4.063937e-11,4.7754367e-10,0.0,0.0,5.0000363e-08,0.0,0.0,0.0,0.0,0.0,0.0,0.0,0.0,6.3859196e-05,0.0013345504,0.0055828053,67240467,0.31080142,0.53966916,0.0016490043,0.0,0.00019376275,0.00019376275,0.0,0.0,0.0,0.0,0,0,0,229,24,0,0,0,0,0,0,0
27263330,0.997995,0.0103881825,-0.012912091,-0.061085135,0.011883068,0.011814127,-0.23261209,0.00883231,0.010227773,-4.6312027,8.753539e-07,3.9605697e-05,-9.745548e-06,0.0,0.0,0.0004994568,0.3575825,-0.012131023,-0.051028136,0.0,0.0,0.0,0.0,0.0,2.3374322e-10,1.29531245e-05,0.0002353149,4.0531114e-07,5.7899347e-06,5.785421e-06,0.0001065904,0.017661119,0.017660545,0.021007074,0.04766677,0.047666475,0.2896303,3.8018998e-11,3.7990146e-11,4.3434709e-10,0.0,0.0,5.0000363e-08,0.0,0.0,0.0,0.0,0.0,0.0,0.0,0.0,0.000103653736,0.0037502854,0.01801405,67240467,0.30876082,0.5381731,0.0022530558,0.0,0.00021576871,0.00021576871,0.0,0.0,0.0,0.0,0,0,0,229,24,0,0,0,0,0,0,0
27463416,0.9979947,0.010397787,-0.012922732,-0.061086066,0.012049404,0.01257177,-0.24332885,0.009322633,0.010542755,-4.7184253,9.0129e-07,3.9589955e-05,-9.688524e-06,0.0,0.0,0.0005065252,0.3575825,-0.012131023,-0.051028136,0.0,0.0,0.0,0.0,0.0,2.2536008e-10,1.2559419e-05,0.00025443677,3.9985866e-07,5.7247357e-06,5.720268e-06,0.00010526794,0.017513663,0.017513052,0.0209313,0.047478892,0.047478564,0.28692067,3.7245488e-11,3.721753e-11,4.2020357e-10,0.0,0.0,5.0000178e-08,0.0,0.0,0.0,0.0,0.0,0.0,0.0,0.0,0.00012448037,0.0069811437,0.033702355,67240467,0.30815166,0.5356498,0.0005149681,0.0,0.00022226345,0.00022226345,0.0,0.0,0.0,0.0,0,0,0,229,24,0,0,0,0,0,0,0
28063685,0.99800193,0.010449401,-0.012979097,-0.060947314,0.014507411,0.013941027,-0.2672018,0.011068006,0.0120994765,-4.9623446,9.780638e-07,3.953609e-05,-9.690117e-06,0.0,0.0,0.0005225863,0.3575825,-0.012131023,-0.051028136,0.0,0.0,0.0,0.0,0.0,1.7584521e-10,1.0031343e-05,0.0002881375,3.8725585e-07,5.553731e-06,5.5493288e-06,0.00010240925,0.017125096,0.017124362,0.021041479,0.046976622,0.046976186,0.2860604,3.5198275e-11,3.5172518e-11,3.8382578e-10,0.0,0.0,5.000027e-08,0.0,0.0,0.0,0.0,0.0,0.0,0.0,0.0,8.3950355e-05,0.0046556965,0.023175087,67240467,0.3065172,0.5348461,0.0009581962,0.0,0.0002549353,0.0002549353,0.0,0.0,0.0,0.0,0,0,0,229,24,0,0,0,0,0,0,0
28263787,0.9980003,0.010476694,-0.012997685,-0.060964618,0.015500678,0.014075097,-0.27352777,0.011693848,0.012341847,-5.04055,1.0053076e-06,3.9517818e-05,-9.644758e-06,0.0,0.0,0.0005268871,0.3575825,-0.012131023,-0.051028136,0.0,0.0,0.0,0.0,0.0,1.7922518e-10,1.0357486e-05,0.00031820603,3.8249692e-07,5.503764e-06,5.499428e-06,0.00010118203,0.017011626,0.017010875,0.02128623,0.046827514,0.04682705,0.29037073,3.45942e-11,3.456925e-11,3.7186668e-10,0.0,0.0,5.0000494e-08,0.0,0.0,0.0,0.0,0.0,0.0,0.0,0.0,0.000111947294,0.003371365,0.016593697,67240467,0.30603033,0.53886056,0.002545256,0.0,0.0002605807,0.0002605807,0.0,0.0,0.0,0.0,0,0,0,229,24,0,0,0,0,0,0,0
28463869,0.99800026,0.010488526,-0.013011444,-0.06096082,0.015661985,0.016013943,-0.2823542,0.0123579055,0.012801513,-5.123621,1.0327458e-06,3.9498558e-05,-9.60743e-06,0.0,0.0,0.00053182454,0.3575825,-0.012131023,-0.051028136,0.0,0.0,0.0,0.0,0.0,1.6738733e-10,9.922694e-06,0.00028817888,3.7933822e-07,5.4569396e-06,5.4526226e-06,0.00010043266,0.016907036,0.016906224,0.02121209,0.046686962,0.046686485,0.2877504,3.4025133e-11,3.4000813e-11,3.6155845e-10,0.0,0.0,5.000018e-08,0.0,0.0,0.0,0.0,0.0,0.0,0.0,0.0,0.00012733573,0.0035438486,0.01693982,67240467,0.3055707,0.5364237,0.00034513284,0.0,0.00026885123,0.00026885123,0.0,0.0,0.0,0.0,0,0,0,229,24,0,0,0,0,0,0,0
29064146,0.9979959,0.010482893,-0.0130496705,-0.061025605,0.017557723,0.0166801,-0.30299398,0.014261518,0.014263043,-5.3655257,1.1213431e-06,3.9440023e-05,-9.3552035e-06,0.0,0.0,0.0005439109,0.3575825,-0.012131023,-0.051028136,0.0,0.0,0.0,0.0,0.0,1.7911585e-10,1.029845e-05,0.0002423041,3.6840325e-07,5.332624e-06,5.3283115e-06,9.7817974e-05,0.016629228,0.016628375,0.021318866,0.046311256,0.04631067,0.28714514,3.249816e-11,3.2475807e-11,3.318912e-10,0.0,0.0,5.000027e-08,0.0,0.0,0.0,0.0,0.0,0.0,0.0,0.0,0.00020521709,0.002235562,0.0091423495,67240467,0.30433849,0.5358592,0.0022003402,0.0,0.00030002376,0.00030002376,0.0,0.0,0.0,0.0,0,0,0,229,24,0,0,0,0,0,0,0
29264233,0.9979946,0.010482867,-0.013067628,-0.06104208,0.018310584,0.017317837,-0.30991837,0.01483284,0.014770216,-5.45097,1.151823e-06,3.9419534e-05,-9.26745e-06,0.0,0.0,0.0005483253,0.3575825,-0.012131023,-0.051028136,0.0,0.0,0.0,0.0,0.0,1.6614868e-10,9.866895e-06,0.00024511595,3.6375712e-07,5.295887e-06,5.2915916e-06,9.669668e-05,0.01654746,0.016546594,0.0212578,0.046200026,0.04619942,0.28485388,3.2041876e-11,3.202023e-11,3.2210062e-10,0.0,0.0,5.0000178e-08,0.0,0.0,0.0,0.0,0.0,0.0,0.0,0.0,0.00020784559,0.0024506832,0.010032413,67240467,0.30397278,0.53371704,0.002152399,0.0,0.0003112386,0.0003112386,0.0,0.0,0.0,0.0,0,0,0,229,24,0,0,0,0,0,0,0
29864496,0.9979901,0.010524967,-0.013124093,-0.061098073,0.020677749,0.01941792,-0.31872222,0.016806345,0.016454738,-5.6626163,1.2447791e-06,3.9354756e-05,-9.041524e-06,0.0,0.0,0.00055242964,0.3575825,-0.012131023,-0.051028136,0.0,0.0,0.0,0.0,0.0,1.5681588e-10,9.454355e-06,0.00026080033,3.5373716e-07,5.197685e-06,5.1934685e-06,9.426424e-05,0.01632948,0.016328657,0.021390447,0.045901865,0.04590119,0.28504762,3.0808148e-11,3.0788254e-11,2.967703e-10,0.0,0.0,5.000027e-08,0.0,0.0,0.0,0.0,0.0,0.0,0.0,0.0,0.0002053085,0.0036281038,0.016789993,67240467,0.3029902,0.53389853,0.0008207959,0.0,0.00035250344,0.00035250344,0.0,0.0,0.0,0.0,0,0,0,229,24,0,0,0,0,0,0,0
30064605,0.9979897,0.010505131,-0.013135436,-0.061103325,0.020848332,0.0197991,-0.32132712,0.01748696,0.01699697,-5.726173,1.2768261e-06,3.9332335e-05,-8.959144e-06,0.0,0.0,0.0005523293,0.3575825,-0.012131023,-0.051028136,0.0,0.0,0.0,0.0,0.0,1.4247256e-10,8.906113e-06,0.00024459418,3.4933086e-07,5.16838e-06,5.1641605e-06,9.322031e-05,0.0162662,0.016265413,0.021331826,0.04581336,0.045812678,0.28298333,3.0436237e-11,3.041697e-11,2.8838384e-10,0.0,0.0,5.0000093e-08,0.0,0.0,0.0,0.0,0.0,0.0,0.0,0.0,0.00021173716,0.004355688,0.020800095,67240467,0.30269793,0.5319618,0.0057270043,0.0,0.00036726086,0.00036726086,0.0,0.0,0.0,0.0,0,0,0,229,24,0,0,0,0,0,0,0
31065049,0.99798274,0.010452117,-0.013169087,-0.061219044,0.02449886,0.02081704,-0.3225738,0.021090547,0.018984316,-6.0016193,1.4396232e-06,3.921076e-05,-8.608603e-06,0.0,0.0,0.0005434098,0.3575825,-0.012131023,-0.051028136,0.0,0.0,0.0,0.0,0.0,1.3460996e-10,8.427826e-06,0.00023960786,3.340816e-07,5.042904e-06,5.038746e-06,8.9385576e-05,0.015998771,0.01599819,0.021625528,0.045439187,0.04543856,0.28620085,2.8820835e-11,2.8804126e-11,2.5318134e-10,0.0,0.0,5.000027e-08,0.0,0.0,0.0,0.0,0.0,0.0,0.0,0.0,0.00019320469,0.0068800123,0.0333565,67240467,0.30145937,0.53497744,0.0036064421,0.0,0.0004429003,0.0004429003,0.0,0.0,0.0,0.0,0,0,0,229,24,0,0,0,0,0,0,0
31465241,0.9979844,0.010421256,-0.013172937,-0.061197363,0.024853272,0.020648627,-0.31312972,0.022247639,0.019609977,-6.0766354,1.5042725e-06,3.9157752e-05,-8.519242e-06,0.0,0.0,0.0005336325,0.3575825,-0.012131023,-0.051028136,0.0,0.0,0.0,0.0,0.0,1.8137224e-10,1.0427611e-05,0.00023939581,3.2773417e-07,5.000721e-06,4.9966125e-06,8.78691e-05,0.015908226,0.015907716,0.021478914,0.045315832,0.045315254,0.28224698,2.826987e-11,2.8254113e-11,2.4066552e-10,0.0,0.0,5e-08,0.0,0.0,0.0,0.0,0.0,0.0,0.0,0.0,0.00016814332,0.009299893,0.044902004,67240467,0.30104998,0.5312692,0.0019380973,0.0,0.00046808735,0.00046808735,0.0,0.0,0.0,0.0,0,0,0,229,24,0,0,0,0,0,0,0
31665312,0.99798447,0.010399084,-0.013167618,-0.061200537,0.025518028,0.019817231,-0.3099361,0.022798635,0.019741898,-6.1179733,1.5369304e-06,3.9130708e-05,-8.466236e-06,0.0,0.0,0.0005296984,0.3575825,-0.012131023,-0.051028136,0.0,0.0,0.0,0.0,0.0,1.6333597e-10,9.826032e-06,0.00021951976,3.2535706e-07,4.9810787e-06,4.9769915e-06,8.730095e-05,0.015866728,0.015866276,0.021715425,0.04525869,0.045258142,0.28694153,2.801182e-11,2.799647e-11,2.3505703e-10,0.0,0.0,5.000036e-08,0.0,0.0,0.0,0.0,0.0,0.0,0.0,0.0,0.00017617123,0.007990423,0.03874262,67240467,0.30086017,0.5356692,0.004027197,0.0,0.00047974617,0.00047974617,0.0,0.0,0.0,0.0,0,0,0,229,24,0,0,0,0,0,0,0
32065496,0.9979817,0.010377546,-0.013176161,-0.061247393,0.026930977,0.018671537,-0.30085307,0.024074655,0.019721847,-6.192956,1.6024686e-06,3.9076116e-05,-8.3147315e-06,0.0,0.0,0.00052084087,0.3575825,-0.012131023,-0.051028136,0.0,0.0,0.0,0.0,0.0,1.3563124e-10,8.702606e-06,0.00023126346,3.1956517e-07,4.9443497e-06,4.940326e-06,8.5857115e-05,0.015788563,0.015788179,0.021563487,0.04515237,0.04515187,0.2831256,2.7526613e-11,2.7512137e-11,2.23799e-10,0.0,0.0,5.000009e-08,0.0,0.0,0.0,0.0,0.0,0.0,0.0,0.0,0.00022841732,0.0076172207,0.036458816,67240467,0.30050665,0.5320955,0.0015785581,0.0,0.00050621474,0.00050621474,0.0,0.0,0.0,0.0,0,0,0,229,24,0,0,0,0,0,0,0
32465674,0.997983,0.010326468,-0.0131615475,-0.06123846,0.027706172,0.015776105,-0.29206902,0.025231287,0.019049615,-6.2543097,1.665026e-06,3.9019014e-05,-8.193367e-06,0.0,0.0,0.0005100606,0.3575825,-0.012131023,-0.051028136,0.0,0.0,0.0,0.0,0.0,1.2764274e-10,8.341236e-06,0.0002487764,3.1362933e-07,4.910653e-06,4.9066957e-06,8.446372e-05,0.015719982,0.01571967,0.021716865,0.045056444,0.045056004,0.28598332,2.7079302e-11,2.7065659e-11,2.1330744e-10,0.0,0.0,5.000027e-08,0.0,0.0,0.0,0.0,0.0,0.0,0.0,0.0,0.00019645716,0.007141279,0.034017883,67240467,0.30018735,0.53477407,0.004158126,0.0,0.00053106237,0.00053106237,0.0,0.0,0.0,0.0,0,0,0,229,24,0,0,0,0,0,0,0
33065947,0.99798423,0.010348462,-0.013163461,-0.061213747,0.029015698,0.014724941,-0.28041685,0.026830208,0.017644413,-6.3493567,1.7515648e-06,3.8928287e-05,-8.064966e-06,0.0,0.0,0.0004957345,0.3575825,-0.012131023,-0.051028136,0.0,0.0,0.0,0.0,0.0,1.5703566e-10,9.836587e-06,0.00021720285,3.0483957e-07,4.865061e-06,4.861334e-06,8.23093e-05,0.01562787,0.015627591,0.021781791,0.04492929,0.044928934,0.28702846,2.6470614e-11,2.6458209e-11,1.9861819e-10,0.0,0.0,5.000027e-08,0.0,0.0,0.0,0.0,0.0,0.0,0.0,0.0,0.00018689259,0.004339577,0.019891828,67240467,0.29976362,0.5357504,0.0042604394,0.0,0.0005649121,0.0005649121,0.0,0.0,0.0,0.0,0,0,0,229,24,0,0,0,0,0,0,0
33466129,0.9979831,0.010343688,-0.013160823,-0.06123454,0.028986664,0.015060554,-0.27136144,0.02786466,0.016937938,-6.4099445,1.8063687e-06,3.8866045e-05,-7.950284e-06,0.0,0.0,0.0004863711,0.3575825,-0.012131023,-0.051028136,0.0,0.0,0.0,0.0,0.0,1.4592015e-10,9.2687515e-06,0.00024220717,2.9974257e-07,4.8375236e-06,4.8339166e-06,8.103456e-05,0.015571743,0.015571455,0.02190921,0.044853788,0.044853464,0.28978923,2.6101699e-11,2.6090057e-11,1.897943e-10,0.0,0.0,5.000042e-08,0.0,0.0,0.0,0.0,0.0,0.0,0.0,0.0,0.00021557127,0.0040334645,0.017816877,67240467,0.2995117,0.5383207,0.0032421462,0.0,0.00058727653,0.00058727653,0.0,0.0,0.0,0.0,0,0,0,229,24,0,0,0,0,0,0,0
33666230,0.99798256,0.010348999,-0.01315437,-0.06124274,0.029730024,0.0147774145,-0.2674147,0.028262485,0.016616512,-6.439416,1.8332676e-06,3.883473e-05,-7.87847e-06,0.0,0.0,0.0004818107,0.3575825,-0.012131023,-0.051028136,0.0,0.0,0.0,0.0,0.0,1.475254e-10,9.217211e-06,0.00028735262,2.9765346e-07,4.824527e-06,4.8209895e-06,8.055677e-05,0.01554579,0.0155455135,0.021812253,0.04481849,0.04481817,0.28778535,2.5927323e-11,2.5916016e-11,1.8582441e-10,0.0,0.0,5.000027e-08,0.0,0.0,0.0,0.0,0.0,0.0,0.0,0.0,0.00023331441,0.0032396528,0.013856358,67240467,0.29939383,0.5364563,0.0029415542,0.0,0.00059539505,0.00059539505,0.0,0.0,0.0,0.0,0,0,0,229,24,0,0,0,0,0,0,0
33866316,0.9979825,0.010336315,-0.013160073,-0.06124494,0.028853552,0.01414669,-0.26383337,0.028538369,0.016318208,-6.4674,1.8594611e-06,3.88031e-05,-7.8136145e-06,0.0,0.0,0.0004771321,0.3575825,-0.012131023,-0.051028136,0.0,0.0,0.0,0.0,0.0,1.3703236e-10,8.792263e-06,0.0002702259,2.94542e-07,4.8119787e-06,4.808476e-06,7.980033e-05,0.015521374,0.015521084,0.021715656,0.044784773,0.04478446,0.28580856,2.575891e-11,2.5747987e-11,1.8153586e-10,0.0,0.0,5.0000178e-08,0.0,0.0,0.0,0.0,0.0,0.0,0.0,0.0,0.00022882831,0.0026777599,0.010875843,67240467,0.29928118,0.5346107,0.005150591,0.0,0.00060237385,0.00060237385,0.0,0.0,0.0,0.0,0,0,0,229,24,0,0,0,0,0,0,0
34466585,0.99797875,0.010369667,-0.013143135,-0.06130394,0.030247869,0.012846176,-0.25260952,0.029247006,0.015253553,-6.5533037,1.933472e-06,3.8706843e-05,-7.6619e-06,0.0,0.0,0.0004643371,0.3575825,-0.012131023,-0.051028136,0.0,0.0,0.0,0.0,0.0,1.4682745e-10,8.8171755e-06,0.00024564646,2.8837314e-07,4.7769113e-06,4.773651e-06,7.815946e-05,0.015451929,0.015451605,0.021745766,0.044691835,0.044691537,0.28668627,2.528864e-11,2.5278689e-11,1.7032203e-10,0.0,0.0,5.000027e-08,0.0,0.0,0.0,0.0,0.0,0.0,0.0,0.0,0.00019119005,0.001470388,0.003274391,67240467,0.29897052,0.5354309,0.0062168944,0.0,0.00061653845,0.00061653845,0.0,0.0,0.0,0.0,0,0,0,229,24,0,0,0,0,0,0,0
35066860,0.9979783,0.010399065,-0.013111854,-0.06131361,0.026751399,0.014043981,-0.24392231,0.029272929,0.014453713,-6.6556735,2.003493e-06,3.8610076e-05,-7.497778e-06,0.0,0.0,0.00045562471,0.3575825,-0.012131023,-0.051028136,0.0,0.0,0.0,0.0,0.0,1.6361494e-10,9.9560975e-06,0.00023986096,2.8096642e-07,4.745189e-06,4.742197e-06,7.633089e-05,0.015388387,0.015387951,0.02177031,0.044609226,0.044608925,0.28754902,2.486468e-11,2.4855645e-11,1.597534e-10,0.0,0.0,5.000027e-08,0.0,0.0,0.0,0.0,0.0,0.0,0.0,0.0,0.000204844,0.0018020411,0.007066755,67240467,0.29869407,0.536236,0.005107937,0.0,0.00061987666,0.00061987666,0.0,0.0,0.0,0.0,0,0,0,229,24,0,0,0,0,0,0,0
35266978,0.9979784,0.010441095,-0.013110142,-0.06130527,0.026120964,0.013877097,-0.2405229,0.028947921,0.014480122,-6.6856575,2.0259793e-06,3.857874e-05,-7.448204e-06,0.0,0.0,0.00045213476,0.3575825,-0.012131023,-0.051028136,0.0,0.0,0.0,0.0,0.0,1.5579502e-10,9.506718e-06,0.00023961144,2.7914294e-07,4.7353315e-06,4.7324447e-06,7.591316e-05,0.015368503,0.015368041,0.021672187,0.044583563,0.044583246,0.2855974,2.473283e-11,2.472404e-11,1.5668918e-10,0.0,0.0,5.000009e-08,0.0,0.0,0.0,0.0,0.0,0.0,0.0,0.0,0.0001945963,0.0012515528,0.002939952,67240467,0.29860812,0.53441316,0.0034213602,0.0,0.00061333494,0.00061333494,0.0,0.0,0.0,0.0,0,0,0,229,24,0,0,0,0,0,0,0
35667139,0.9979776,0.010491911,-0.013088756,-0.061314203,0.026051287,0.013740919,-0.23512423,0.028368883,0.014623455,-6.745676,2.0705133e-06,3.8517614e-05,-7.3568904e-06,0.0,0.0,0.0004455296,0.3575825,-0.012131023,-0.051028136,0.0,0.0,0.0,0.0,0.0,1.4433676e-10,9.061341e-06,0.00025663374,2.7493448e-07,4.7164854e-06,4.713798e-06,7.484272e-05,0.015332018,0.0153315365,0.021777224,0.044535175,0.044534836,0.28819457,2.4481818e-11,2.4473512e-11,1.5048866e-10,0.0,0.0,5.000027e-08,0.0,0.0,0.0,0.0,0.0,0.0,0.0,0.0,0.00018522378,0.0010815059,0.002444379,67240467,0.298446,0.5368376,0.002350187,0.0,0.00060067594,0.00060067594,0.0,0.0,0.0,0.0,0,0,0,229,24,0,0,0,0,0,0,0
36267429,0.99797213,0.010509563,-0.013127978,-0.06139231,0.025400897,0.015418828,-0.23244879,0.027446203,0.01508581,-6.853124,2.1383066e-06,3.8430266e-05,-7.1842287e-06,0.0,0.0,0.00043950236,0.3575825,-0.012131023,-0.051028136,0.0,0.0,0.0,0.0,0.0,1.4411176e-10,8.84063e-06,0.00027625315,2.695915e-07,4.6904775e-06,4.687804e-06,7.341551e-05,0.015282408,0.015281926,0.021779845,0.04446914,0.044468764,0.28875053,2.4135029e-11,2.4127344e-11,1.4202393e-10,0.0,0.0,5.000036e-08,0.0,0.0,0.0,0.0,0.0,0.0,0.0,0.0,0.00021233888,0.0031755962,0.014916889,67240467,0.2982246,0.5373551,0.004887628,0.0,0.00058091996,0.00058091996,0.0,0.0,0.0,0.0,0,0,0,229,24,0,0,0,0,0,0,0
36667594,0.9979722,0.010546007,-0.013126234,-0.061383434,0.026146516,0.016936427,-0.22681022,0.027132293,0.015584209,-6.915877,2.1826468e-06,3.83738e-05,-7.112683e-06,0.0,0.0,0.0004341002,0.3575825,-0.012131023,-0.051028136,0.0,0.0,0.0,0.0,0.0,1.5470793e-10,9.3769495e-06,0.00026796423,2.6566883e-07,4.674335e-06,4.6717564e-06,7.241972e-05,0.015250035,0.015249566,0.021577455,0.04442844,0.044428058,0.2847118,2.3921806e-11,2.3914492e-11,1.366879e-10,0.0,0.0,5.000009e-08,0.0,0.0,0.0,0.0,0.0,0.0,0.0,0.0,0.00016447439,0.0012730198,0.005745625,67240467,0.29808807,0.53358394,0.0011208842,0.0,0.00057340716,0.00057340716,0.0,0.0,0.0,0.0,0,0,0,229,24,0,0,0,0,0,0,0
37067789,0.9979738,0.01053692,-0.013098378,-0.06136655,0.025808228,0.017671619,-0.22627784,0.027104072,0.016401246,-6.9973497,2.2283452e-06,3.8317605e-05,-7.055529e-06,0.0,0.0,0.0004322349,0.3575825,-0.012131023,-0.051028136,0.0,0.0,0.0,0.0,0.0,1.5765163e-10,9.384917e-06,0.0002431408,2.61888e-07,4.659103e-06,4.656581e-06,7.145333e-05,0.015220353,0.015219884,0.021693114,0.044390474,0.044390094,0.2873892,2.3721783e-11,2.37148e-11,1.3165949e-10,0.0,0.0,5.000027e-08,0.0,0.0,0.0,0.0,0.0,0.0,0.0,0.0,0.00014973008,0.0016524656,0.00788144,67240467,0.29796067,0.5360869,0.0045191585,0.0,0.0005728651,0.0005728651,0.0,0.0,0.0,0.0,0,0,0,229,24,0,0,0,0,0,0,0
37267874,0.99797535,0.010526285,-0.013084847,-0.06134544,0.025427567,0.017984014,-0.22202784,0.0270364,0.016750792,-7.0258985,2.2513982e-06,3.829015e-05,-7.0270544e-06,0.0,0.0,0.00042919206,0.3575825,-0.012131023,-0.051028136,0.0,0.0,0.0,0.0,0.0,1.4624191e-10,8.910546e-06,0.00024658942,2.5952173e-07,4.6518e-06,4.649303e-06,7.086885e-05,0.015204916,0.015204417,0.021592623,0.044372164,0.04437178,0.2853652,2.3626351e-11,2.3619537e-11,1.2911913e-10,0.0,0.0,5.000009e-08,0.0,0.0,0.0,0.0,0.0,0.0,0.0,0.0,0.00015237422,0.000872263,0.0026874547,67240467,0.29789922,0.53419584,0.001214421,0.0,0.00057170243,0.00057170243,0.0,0.0,0.0,0.0,0,0,0,229,24,0,0,0,0,0,0,0
37467956,0.99797773,0.01055011,-0.013075177,-0.061303996,0.025370076,0.017480645,-0.2201014,0.026934532,0.017100135,-7.0607734,2.2748138e-06,3.826276e-05,-7.002613e-06,0.0,0.0,0.0004274337,0.3575825,-0.012131023,-0.051028136,0.0,0.0,0.0,0.0,0.0,1.43276e-10,8.684564e-06,0.00022440932,2.5786213e-07,4.644748e-06,4.6423115e-06,7.05164e-05,0.0151906,0.015190091,0.02181152,0.044354323,0.044353943,0.2901059,2.353403e-11,2.3527342e-11,1.2691875e-10,0.0,0.0,5.000041e-08,0.0,0.0,0.0,0.0,0.0,0.0,0.0,0.0,0.00014952643,0.0012357626,0.0050045694,67240467,0.29783934,0.5386148,0.0013920594,0.0,0.0005695361,0.0005695361,0.0,0.0,0.0,0.0,0,0,0,229,24,0,0,0,0,0,0,0
37868147,0.9979758,0.010591151,-0.013066583,-0.061330583,0.023852075,0.01793981,-0.2110745,0.026402466,0.01755999,-7.115058,2.3224313e-06,3.8210175e-05,-6.9225807e-06,0.0,0.0,0.00042139308,0.3575825,-0.012131023,-0.051028136,0.0,0.0,0.0,0.0,0.0,1.2802054e-10,8.324046e-06,0.00023009384,2.5449566e-07,4.631252e-06,4.6289065e-06,6.9607304e-05,0.0151615245,0.01516097,0.021597333,0.04431986,0.044319473,0.28583524,2.3357725e-11,2.33513e-11,1.2244665e-10,0.0,0.0,5.000009e-08,0.0,0.0,0.0,0.0,0.0,0.0,0.0,0.0,0.00017688745,0.001034213,0.0030970885,67240467,0.2977236,0.5346356,0.0026930287,0.0,0.0005591572,0.0005591572,0.0,0.0,0.0,0.0,0,0,0,229,24,0,0,0,0,0,0,0
38268334,0.99797726,0.010629199,-0.013051627,-0.061303686,0.024501335,0.01873839,-0.20596866,0.025874792,0.017847259,-7.173716,2.3698854e-06,3.8158978e-05,-6.8619825e-06,0.0,0.0,0.0004166793,0.3575825,-0.012131023,-0.051028136,0.0,0.0,0.0,0.0,0.0,1.283514e-10,8.238917e-06,0.00021981464,2.5092353e-07,4.61855e-06,4.6162927e-06,6.872372e-05,0.015136238,0.015135644,0.021706522,0.04428698,0.044286575,0.28836364,2.3192113e-11,2.318593e-11,1.1822181e-10,0.0,0.0,5.000027e-08,0.0,0.0,0.0,0.0,0.0,0.0,0.0,0.0,0.00016127093,0.00091730396,0.002545931,67240467,0.2976131,0.536995,0.0027623898,0.0,0.0005469383,0.0005469383,0.0,0.0,0.0,0.0,0,0,0,229,24,0,0,0,0,0,0,0
