timestamp,timestamp_sample,device_id,error_count,pressure,temperature
2941987,2941976,3997706,0,1001.22,36.3
2962124,2962110,3997706,0,1001.26996,36.3
3052665,3052651,3997706,0,1001.22,36.3
3144134,3144123,3997706,0,1001.20996,36.309998
3345203,3345189,3997706,0,1001.20996,36.32
3547294,3547283,3997706,0,1001.19995,36.32
3749373,3749359,3997706,0,1001.25,36.329998
3849903,3849889,3997706,0,1001.23,36.32
3950524,3950510,3997706,0,1001.20996,36.329998
4051911,4051900,3997706,0,1001.24,36.329998
4354547,4354536,3997706,0,1001.20996,36.34
4747726,4747715,3997706,0,1001.18,36.36
4838295,4838284,3997706,0,1001.19,36.36
4949877,4949866,3997706,0,1001.26996,36.36
5151066,5151055,3997706,0,1001.19,36.37
5443694,5443683,3997706,0,1001.19,36.39
5555271,5555260,3997706,0,1001.18,36.39
5645779,5645768,3997706,0,1001.17,36.39
5848049,5848038,3997706,0,1001.13,36.399998
5948646,5948635,3997706,0,1001.18,36.399998
6150745,6150734,3997706,0,1001.17,36.41
6453302,6453291,3997706,0,1001.19995,36.42
6553843,6553832,3997706,0,1001.11,36.42
6654401,6654384,3997706,0,1001.12,36.43
6956875,6956863,3997706,0,1001.13,36.44
7048493,7048482,3997706,0,1001.11,36.44
7138948,7138937,3997706,0,1001.14996,36.44
7451511,7451500,3997706,0,1001.12,36.46
7744112,7744098,3997706,0,1001.11,36.469997
7854739,7854728,3997706,0,1001.12,36.48
7946282,7946271,3997706,0,1001.12,36.48
8147533,8147517,3997706,0,1001.12,36.48
8248988,8248977,3997706,0,1001.1,36.489998
8450107,8450096,3997706,0,1001.07996,36.5
8752771,8752760,3997706,0,1001.1,36.51
8954845,8954833,3997706,0,1001.07996,36.51
9156902,9156891,3997706,0,1001.07996,36.52
9347971,9347960,3997706,0,1001.06,36.53
9439511,9439500,3997706,0,1001.05,36.54
9550073,9550062,3997706,0,1001.08997,36.54
9640552,9640541,3997706,0,1001.07996,36.54
9842600,9842589,3997706,0,1001.07,36.55
9953211,9953200,3997706,0,1001.1,36.55
10246932,10246917,3997706,0,1001.08997,36.57
10357545,10357534,3997706,0,1001.04,36.57
11053247,11053233,3997706,0,1001.05,36.6
11255417,11255402,3997706,0,1001.04,36.61
11355949,11355938,3997706,0,1001.05,36.61
11739983,11739972,3997706,0,1001.0,36.62
11941174,11941163,3997706,0,1001.01996,36.63
12143269,12143257,3997706,0,1001.00995,36.64
12254028,12254017,3997706,0,1001.02997,36.649998
12456137,12456126,3997706,0,1001.02997,36.649998
12546659,12546648,3997706,0,1001.0,36.66
12950877,12950866,3997706,0,1001.0,36.67
13051523,13051512,3997706,0,1001.06,36.68
13152024,13152010,3997706,0,1001.04,36.68
13454621,13454606,3997706,0,1001.05,36.7
13838689,13838668,3997706,0,1000.98,36.71
13949399,13949388,3997706,0,1000.98,36.71
14039900,14039886,3997706,0,1001.0,36.719997
14151541,14151530,3997706,0,1000.94,36.73
14242109,14242095,3997706,0,1000.92,36.73
14353664,14353650,3997706,0,1000.93,36.73
14444097,14444086,3997706,0,1000.98,36.739998
14645298,14645287,3997706,0,1001.02997,36.739998
15251683,15251672,3997706,0,1000.94,36.77
15352219,15352208,3997706,0,1001.0,36.77
15554269,15554258,3997706,0,1000.92,36.78
15654767,15654756,3997706,0,1000.88,36.79
15755277,15755265,3997706,0,1000.99,36.79
16048085,16048074,3997706,0,1000.88,36.8
16139583,16139572,3997706,0,1000.89996,36.8
16250088,16250077,3997706,0,1000.88995,36.809998
16340564,16340553,3997706,0,1000.87,36.82
16653234,16653221,3997706,0,1000.88,36.82
16744629,16744618,3997706,0,1000.88995,36.829998
16945776,16945763,3997706,0,1000.88995,36.84
17057476,17057465,3997706,0,1000.88,36.84
17147970,17147959,3997706,0,1000.92,36.85
17350099,17350075,3997706,0,1000.87,36.85
17450599,17450588,3997706,0,1000.89996,36.86
17551102,17551091,3997706,0,1000.91,36.86
17651590,17651574,3997706,0,1000.85,36.87
17753051,17753040,3997706,0,1000.88,36.87
17853702,17853691,3997706,0,1000.92,36.88
18055773,18055761,3997706,0,1000.88995,36.88
18156369,18156358,3997706,0,1000.82996,36.88
18237837,18237817,3997706,0,1000.88995,36.89
18348590,18348579,3997706,0,1000.88,36.89
18439072,18439060,3997706,0,1000.89996,36.899998
18550600,18550589,3997706,0,1000.89996,36.899998
18842088,18842077,3997706,0,1000.85,36.91
18953599,18953584,3997706,0,1000.85,36.92
19246079,19246068,3997706,0,1000.92,36.94
19356742,19356731,3997706,0,1000.86,36.94
19447281,19447270,3997706,0,1000.92,36.94
19548798,19548786,3997706,0,1000.88995,36.94
19649416,19649404,3997706,0,1000.82996,36.95
21142461,21142450,3997706,0,1000.81,37.01
21253033,21253019,3997706,0,1000.82996,37.02
21546748,21546737,3997706,0,1000.79,37.02
21950050,21950039,3997706,0,1000.87,37.04
22050699,22050688,3997706,0,1000.73,37.04
22353275,22353264,3997706,0,1000.76996,37.059998
22454728,22454717,3997706,0,1000.77997,37.07
22655900,22655886,3997706,0,1000.75995,37.079998
22757389,22757378,3997706,0,1000.76996,37.07
22857950,22857939,3997706,0,1000.77997,37.079998
22948496,22948481,3997706,0,1000.72,37.09
23150607,23150596,3997706,0,1000.75,37.09
23241119,23241108,3997706,0,1000.77997,37.1
23443186,23443175,3997706,0,1000.81,37.1
23645326,23645307,3997706,0,1000.70996,37.11
23755967,23755956,3997706,0,1000.68,37.12
23846525,23846511,3997706,0,1000.73,37.12
23948085,23948074,3997706,0,1000.73,37.13
24048679,24048668,3997706,0,1000.74,37.13
24149398,24149383,3997706,0,1000.70996,37.14
24250966,24250951,3997706,0,1000.74,37.13
24351686,24351675,3997706,0,1000.75995,37.14
24553690,24553679,3997706,0,1000.76996,37.149998
24754694,24754683,3997706,0,1000.74,37.16
24856364,24856349,3997706,0,1000.70996,37.16
24957007,24956996,3997706,0,1000.75995,37.16
25048438,25048427,3997706,0,1000.69995,37.17
25451888,25451874,3997706,0,1000.76996,37.19
25542407,25542396,3997706,0,1000.70996,37.19
25744429,25744418,3997706,0,1000.69,37.2
25855028,25855016,3997706,0,1000.69995,37.2
25946515,25946504,3997706,0,1000.73,37.21
26057118,26057100,3997706,0,1000.74,37.219997
26147622,26147607,3997706,0,1000.72,37.219997
26249202,26249191,3997706,0,1000.63995,37.219997
26652474,26652463,3997706,0,1000.63,37.239998
26754092,26754071,3997706,0,1000.63995,37.239998
27439874,27439863,3997706,0,1000.58997,37.27
27642040,27642029,3997706,0,1000.57996,37.28
27752680,27752669,3997706,0,1000.56,37.28
27843159,27843148,3997706,0,1000.58997,37.28
28045199,28045188,3997706,0,1000.61,37.29
28155719,28155705,3997706,0,1000.56,37.3
28246199,28246188,3997706,0,1000.55,37.3
28347820,28347802,3997706,0,1000.55,37.309998
28953192,28953181,3997706,0,1000.51996,37.329998
29255857,29255846,3997706,0,1000.51996,37.34
29447730,29447719,3997706,0,1000.56,37.35
29649068,29649057,3997706,0,1000.52997,37.36
29740490,29740479,3997706,0,1000.52997,37.36
30053173,30053161,3997706,0,1000.54,37.38
30648516,30648505,3997706,0,1000.5,37.399998
30749154,30749141,3997706,0,1000.5,37.41
31152501,31152489,3997706,0,1000.45996,37.42
31253995,31253981,3997706,0,1000.52997,37.42
31354611,31354600,3997706,0,1000.52997,37.43
31455151,31455140,3997706,0,1000.50995,37.44
31556661,31556650,3997706,0,1000.51996,37.43
31657215,31657204,3997706,0,1000.51996,37.44
31839296,31839285,3997706,0,1000.54,37.45
31949988,31949974,3997706,0,1000.50995,37.45
32041498,32041487,3997706,0,1000.50995,37.46
32242665,32242654,3997706,0,1000.50995,37.46
32354217,32354206,3997706,0,1000.49,37.469997
32444816,32444805,3997706,0,1000.44995,37.469997
32555468,32555457,3997706,0,1000.48,37.469997
32646917,32646903,3997706,0,1000.44995,37.48
32949404,32949393,3997706,0,1000.45996,37.489998
33050022,33050011,3997706,0,1000.44995,37.5
33252351,33252340,3997706,0,1000.5,37.5
33454567,33454555,3997706,0,1000.45996,37.51
33555162,33555148,3997706,0,1000.5,37.52
33857759,33857748,3997706,0,1000.5,37.53
34140504,34140486,3997706,0,1000.48,37.54
34453354,34453343,3997706,0,1000.44,37.55
34947948,34947937,3997706,0,1000.39996,37.57
35048549,35048538,3997706,0,1000.51996,37.579998
35250597,35250586,3997706,0,1000.41,37.579998
35351230,35351212,3997706,0,1000.39996,37.59
35451862,35451851,3997706,0,1000.43,37.59
35553353,35553342,3997706,0,1000.42,37.6
35956776,35956765,3997706,0,1000.38,37.61
36037251,36037240,3997706,0,1000.38995,37.61
36239400,36239389,3997706,0,1000.39996,37.62
36350940,36350923,3997706,0,1000.39996,37.629997
36441564,36441553,3997706,0,1000.39996,37.629997
36552256,36552245,3997706,0,1000.36,37.629997
36844995,36844984,3997706,0,1000.45996,37.64
36956574,36956563,3997706,0,1000.38995,37.649998
37047138,37047125,3997706,0,1000.38995,37.649998
37147695,37147684,3997706,0,1000.42,37.66
37249371,37249356,3997706,0,1000.33997,37.66
37349840,37349829,3997706,0,1000.38995,37.66
37552031,37552020,3997706,0,1000.38,37.67
37754266,37754255,3997706,0,1000.35,37.68
37854845,37854834,3997706,0,1000.38995,37.68
37955397,37955386,3997706,0,1000.35,37.69
38137472,38137460,3997706,0,1000.38,37.69
38339526,38339513,3997706,0,1000.44995,37.7
38450090,38450079,3997706,0,1000.44,37.71
38540599,38540588,3997706,0,1000.44995,37.71
38652166,38652152,3997706,0,1000.38,37.71
38742724,38742713,3997706,0,1000.39996,37.719997
39247504,39247493,3997706,0,1000.42,37.739998
39348052,39348041,3997706,0,1000.32996,37.739998
39650973,39650962,3997706,0,1000.37,37.76
39751499,39751486,3997706,0,1000.41,37.76
39853034,39853022,3997706,0,1000.33997,37.76
39953698,39953687,3997706,0,1000.42,37.77
40348085,40348074,3997706,0,1000.32996,37.78
40438625,40438614,3997706,0,1000.37,37.78
40549232,40549216,3997706,0,1000.32996,37.79
40640703,40640692,3997706,0,1000.31,37.79
40751305,40751293,3997706,0,1000.32,37.79
41447246,41447235,3997706,0,1000.32996,37.829998
41751014,41751003,3997706,0,1000.3,37.84
41851592,41851581,3997706,0,1000.31,37.84
42053641,42053630,3997706,0,1000.3,37.84
42649216,42649205,3997706,0,1000.32996,37.87
42739792,42739781,3997706,0,1000.32996,37.87
42851405,42851394,3997706,0,1000.38,37.879997
42942028,42942017,3997706,0,1000.37,37.879997
43052651,43052640,3997706,0,1000.27997,37.879997
43144086,43144072,3997706,0,1000.27997,37.89
43647874,43647863,3997706,0,1000.32,37.91
43850101,43850090,3997706,0,1000.36,37.92
43950732,43950721,3997706,0,1000.32,37.92
44354799,44354770,3997706,0,1000.31,37.93
44748205,44748194,3997706,0,1000.32996,37.95
44838731,44838717,3997706,0,1000.26996,37.95
45040950,45040939,3997706,0,1000.38995,37.96
45353538,45353527,3997706,0,1000.29,37.98
45444048,45444034,3997706,0,1000.38,37.98
45555689,45555678,3997706,0,1000.32996,37.98
45646364,45646350,3997706,0,1000.29,37.98
45748014,45748002,3997706,0,1000.29,37.98
45848587,45848576,3997706,0,1000.33997,37.989998
46353402,46353391,3997706,0,1000.27997,38.01
46554479,46554468,3997706,0,1000.27997,38.02
46656001,46655990,3997706,0,1000.26996,38.03
46756727,46756713,3997706,0,1000.26996,38.03
46847367,46847348,3997706,0,1000.24,38.03
46938833,46938821,3997706,0,1000.24,38.03
47049523,47049508,3997706,0,1000.22,38.04
47140947,47140936,3997706,0,1000.19995,38.04
47453776,47453764,3997706,0,1000.25,38.05
47544324,47544313,3997706,0,1000.25995,38.059998
48654725,48654714,3997706,0,1000.20996,38.1
48755229,48755214,3997706,0,1000.23,38.1
48856736,48856725,3997706,0,1000.20996,38.1
49350835,49350817,3997706,0,1000.25,38.12
49755142,49755131,3997706,0,1000.26996,38.14
49956232,49956218,3997706,0,1000.18,38.14
50047787,50047772,3997706,0,1000.13995,38.149998
50148512,50148498,3997706,0,1000.14996,38.149998
50250111,50250097,3997706,0,1000.16,38.16
50350837,50350826,3997706,0,1000.16,38.16
51056746,51056734,3997706,0,1000.14996,38.19
51138161,51138146,3997706,0,1000.12,38.19
51248975,51248960,3997706,0,1000.11,38.2
51340524,51340512,3997706,0,1000.1,38.2
51541654,51541643,3997706,0,1000.06,38.21
51743885,51743873,3997706,0,1000.17,38.21
51854666,51854651,3997706,0,1000.07996,38.219997
51946257,51946246,3997706,0,1000.13995,38.219997
52056897,52056886,3997706,0,1000.1,38.219997
52148289,52148277,3997706,0,1000.07996,38.23
52248900,52248880,3997706,0,1000.13,38.23
52652062,52652050,3997706,0,1000.13,38.25
52753778,52753767,3997706,0,1000.08997,38.25
52854436,52854424,3997706,0,1000.11,38.25
53156970,53156959,3997706,0,1000.01996,38.26
53257541,53257527,3997706,0,1000.11,38.27
53842997,53842986,3997706,0,1000.11,38.29
53954505,53954493,3997706,0,1000.07,38.29
54044972,54044961,3997706,0,1000.1,38.3
54155699,54155684,3997706,0,1000.1,38.3
54247181,54247170,3997706,0,1000.08997,38.309998
54357784,54357773,3997706,0,1000.12,38.309998
54448250,54448239,3997706,0,1000.07,38.309998
54750895,54750884,3997706,0,1000.00995,38.32
54953023,54953011,3997706,0,1000.04,38.329998
55558398,55558387,3997706,0,1000.01996,38.36
55658935,55658924,3997706,0,1000.01996,38.36
55942944,55942933,3997706,0,1000.00995,38.37
56145220,56145209,3997706,0,999.98,38.379997
56750613,56750602,3997706,0,999.95996,38.399998
57053354,57053343,3997706,0,999.97,38.399998
57951467,57951456,3997706,0,999.95996,38.44
58041973,58041962,3997706,0,999.94,38.44
58152675,58152664,3997706,0,999.93,38.45
58244089,58244078,3997706,0,1000.0,38.45
58354737,58354726,3997706,0,999.91,38.45
58949974,58949962,3997706,0,999.99,38.48
59152049,59152037,3997706,0,999.97,38.489998
59353210,59353199,3997706,0,999.93,38.489998
59655879,59655868,3997706,0,1000.02997,38.5
59757497,59757483,3997706,0,999.91,38.51
60140554,60140543,3997706,0,999.98,38.52
60251152,60251141,3997706,0,999.87,38.52
60342606,60342595,3997706,0,999.88,38.53
60453299,60453287,3997706,0,999.92,38.53
60543764,60543750,3997706,0,999.89996,38.53
60655240,60655229,3997706,0,999.92,38.54
60947980,60947968,3997706,0,999.93,38.55
61553428,61553414,3997706,0,999.85,38.57
61653953,61653942,3997706,0,999.87,38.57
61755412,61755401,3997706,0,999.86,38.579998
61855983,61855971,3997706,0,999.92,38.579998
62239239,62239228,3997706,0,999.88,38.59
62441399,62441388,3997706,0,999.88,38.6
62551941,62551930,3997706,0,999.87,38.61
62753960,62753946,3997706,0,999.93,38.61
62844463,62844438,3997706,0,999.83997,38.62
62955067,62955056,3997706,0,999.86,38.62
63157326,63157312,3997706,0,999.88,38.62
63450142,63450121,3997706,0,999.88,38.629997
63551691,63551680,3997706,0,999.83997,38.64
63854287,63854276,3997706,0,999.8,38.649998
64055548,64055537,3997706,0,999.86,38.66
64449562,64449551,3997706,0,999.86,38.68
65145615,65145603,3997706,0,999.77997,38.7
65256192,65256175,3997706,0,999.87,38.7
65347536,65347525,3997706,0,999.81,38.7
65851435,65851424,3997706,0,999.79,38.719997
65952947,65952935,3997706,0,999.76996,38.73
66053454,66053440,3997706,0,999.77997,38.73
66547980,66547969,3997706,0,999.75995,38.739998
66638553,66638542,3997706,0,999.79,38.75
66749141,66749127,3997706,0,999.82996,38.76
66840733,66840721,3997706,0,999.75995,38.76
67244059,67244048,3997706,0,999.82,38.77
67748853,67748842,3997706,0,999.74,38.78
67849478,67849463,3997706,0,999.73,38.79
67951103,67951092,3997706,0,999.73,38.79
68051705,68051694,3997706,0,999.76996,38.8
68152398,68152387,3997706,0,999.70996,38.79
68253932,68253921,3997706,0,999.73,38.8
68454915,68454904,3997706,0,999.67,38.809998
68556432,68556419,3997706,0,999.73,38.82
68849058,68849040,3997706,0,999.75,38.82
68939676,68939664,3997706,0,999.67,38.829998
69050310,69050299,3997706,0,999.69,38.829998
69141777,69141766,3997706,0,999.69995,38.84
69454606,69454595,3997706,0,999.72,38.84
69545135,69545124,3997706,0,999.73,38.84
69655739,69655728,3997706,0,999.73,38.85
70049956,70049945,3997706,0,999.70996,38.86
70453465,70453453,3997706,0,999.70996,38.879997
70555056,70555044,3997706,0,999.68,38.879997
70655615,70655604,3997706,0,999.69995,38.879997
70837499,70837488,3997706,0,999.67,38.89
70948248,70948228,3997706,0,999.70996,38.89
71240837,71240826,3997706,0,999.69,38.899998
71351489,71351478,3997706,0,999.67,38.91
71755795,71755784,3997706,0,999.63995,38.92
71846282,71846271,3997706,0,999.63,38.92
71956926,71956915,3997706,0,999.64996,38.93
72351270,72351259,3997706,0,999.63995,38.94
72451868,72451857,3997706,0,999.69995,38.94
72553397,72553386,3997706,0,999.67,38.95
72856280,72856269,3997706,0,999.66,38.95
72956856,72956832,3997706,0,999.62,38.96
73057372,73057360,3997706,0,999.63995,38.96
73138680,73138669,3997706,0,999.62,38.96
73249251,73249240,3997706,0,999.67,38.969997
73451358,73451347,3997706,0,999.67,38.98
73541823,73541812,3997706,0,999.56,38.98
73652462,73652447,3997706,0,999.62,38.98
73854692,73854678,3997706,0,999.67,38.989998
73945196,73945185,3997706,0,999.66,38.989998
74056846,74056835,3997706,0,999.62,39.0
74147295,74147284,3997706,0,999.61,39.0
74257851,74257831,3997706,0,999.62,39.0
74349285,74349274,3997706,0,999.63995,39.0
74752814,74752803,3997706,0,999.62,39.02
75055605,75055594,3997706,0,999.61,39.03
75157032,75157021,3997706,0,999.55,39.03
75640881,75640870,3997706,0,999.57,39.05
75752466,75752455,3997706,0,999.57,39.05
76155658,76155647,3997706,0,999.58997,39.07
76357943,76357929,3997706,0,999.61,39.07
76448459,76448445,3997706,0,999.6,39.07
76650587,76650574,3997706,0,999.58997,39.079998
76751209,76751198,3997706,0,999.61,39.079998
76852878,76852867,3997706,0,999.61,39.079998
76953507,76953496,3997706,0,999.58997,39.09
77054126,77054115,3997706,0,999.55,39.09
77155798,77155787,3997706,0,999.6,39.1
77256412,77256401,3997706,0,999.63,39.1
77448445,77448421,3997706,0,999.54,39.1
77538913,77538899,3997706,0,999.58997,39.11
77942178,77942167,3997706,0,999.58997,39.12
78254758,78254747,3997706,0,999.55,39.129997
78346247,78346236,3997706,0,999.54,39.129997
78456946,78456935,3997706,0,999.58997,39.14
78547471,78547460,3997706,0,999.55,39.14
78850162,78850151,3997706,0,999.56,39.149998
78951745,78951728,3997706,0,999.52997,39.16
79052425,79052414,3997706,0,999.56,39.16
79355093,79355082,3997706,0,999.55,39.17
79455654,79455642,3997706,0,999.52997,39.17
79557295,79557278,3997706,0,999.56,39.18
79749366,79749355,3997706,0,999.56,39.18
79839877,79839866,3997706,0,999.55,39.18
80353548,80353537,3997706,0,999.47,39.2
80747759,80747748,3997706,0,999.57,39.219997
80848419,80848404,3997706,0,999.5,39.219997
80948964,80948953,3997706,0,999.50995,39.219997
81050480,81050469,3997706,0,999.50995,39.219997
81151052,81151040,3997706,0,999.55,39.23
81353173,81353162,3997706,0,999.50995,39.23
81453815,81453804,3997706,0,999.51996,39.23
81555358,81555347,3997706,0,999.5,39.239998
81655982,81655968,3997706,0,999.55,39.239998
81848188,81848177,3997706,0,999.48,39.239998
82140788,82140776,3997706,0,999.5,39.26
82341872,82341859,3997706,0,999.48,39.26
82453512,82453498,3997706,0,999.5,39.27
82544098,82544086,3997706,0,999.54,39.27
82654848,82654837,3997706,0,999.50995,39.28
82856983,82856972,3997706,0,999.51996,39.28
82948455,82948443,3997706,0,999.51996,39.28
83149582,83149571,3997706,0,999.5,39.29
83552764,83552752,3997706,0,999.45996,39.3
83654393,83654381,3997706,0,999.55,39.309998
83754979,83754968,3997706,0,999.44,39.309998
83957068,83957057,3997706,0,999.44,39.32
84754784,84754772,3997706,0,999.44995,39.34
84845379,84845368,3997706,0,999.44995,39.34
84956019,84956008,3997706,0,999.44995,39.35
85047465,85047444,3997706,0,999.44,39.35
85249609,85249597,3997706,0,999.49,39.35
85350262,85350251,3997706,0,999.42,39.36
85450833,85450822,3997706,0,999.39996,39.36
85552376,85552364,3997706,0,999.41,39.36
85652898,85652887,3997706,0,999.44,39.37
85753399,85753388,3997706,0,999.39996,39.37
86056158,86056147,3997706,0,999.44995,39.379997
86157899,86157885,3997706,0,999.47,39.379997
86248497,86248479,3997706,0,999.44995,39.39
86541205,86541194,3997706,0,999.38,39.39
86651862,86651850,3997706,0,999.44995,39.399998
86743237,86743220,3997706,0,999.38995,39.399998
86853783,86853772,3997706,0,999.45996,39.399998
86944242,86944230,3997706,0,999.41,39.41
87055855,87055841,3997706,0,999.49,39.42
87257202,87257185,3997706,0,999.44,39.42
87348665,87348654,3997706,0,999.43,39.42
87449244,87449232,3997706,0,999.45996,39.42
87550796,87550779,3997706,0,999.44,39.43
87651511,87651496,3997706,0,999.42,39.43
88054644,88054633,3997706,0,999.47,39.45
88155145,88155134,3997706,0,999.39996,39.44
88549522,88549504,3997706,0,999.47,39.46
88751666,88751655,3997706,0,999.41,39.46
88842176,88842165,3997706,0,999.44995,39.469997
89044323,89044312,3997706,0,999.37,39.469997
89549425,89549414,3997706,0,999.42,39.489998
89649958,89649947,3997706,0,999.42,39.489998
89750617,89750606,3997706,0,999.42,39.5
89852154,89852140,3997706,0,999.43,39.5
89952784,89952773,3997706,0,999.37,39.5
90154928,90154917,3997706,0,999.38,39.51
90255443,90255432,3997706,0,999.32996,39.51
90457379,90457368,3997706,0,999.39996,39.51
90537950,90537939,3997706,0,999.38995,39.51
91345711,91345696,3997706,0,999.42,39.54
91850811,91850797,3997706,0,999.38,39.559998
92153663,92153652,3997706,0,999.36,39.57
92254281,92254270,3997706,0,999.42,39.57
92557034,92557023,3997706,0,999.36,39.579998
92839557,92839546,3997706,0,999.33997,39.59
93242748,93242729,3997706,0,999.32996,39.6
93354443,93354432,3997706,0,999.33997,39.6
93444960,93444949,3997706,0,999.32,39.6
93556663,93556648,3997706,0,999.35,39.61
93757824,93757813,3997706,0,999.31,39.61
93849165,93849154,3997706,0,999.3,39.62
93949714,93949703,3997706,0,999.35,39.62
94050372,94050354,3997706,0,999.3,39.62
94151888,94151877,3997706,0,999.37,39.629997
94252460,94252449,3997706,0,999.32,39.629997
94454725,94454714,3997706,0,999.29,39.64
94555354,94555342,3997706,0,999.29,39.64
95050036,95050025,3997706,0,999.32996,39.649998
95140594,95140572,3997706,0,999.32,39.66
95251167,95251156,3997706,0,999.32996,39.66
95342594,95342583,3997706,0,999.25995,39.66
95453247,95453236,3997706,0,999.33997,39.67
95746011,95746000,3997706,0,999.26996,39.67
95857752,95857741,3997706,0,999.25,39.68
95948250,95948239,3997706,0,999.25,39.68
96048797,96048786,3997706,0,999.31,39.69
96150314,96150296,3997706,0,999.25995,39.69
96250807,96250796,3997706,0,999.24,39.69
96956847,96956829,3997706,0,999.26996,39.71
97148746,97148735,3997706,0,999.25995,39.719997
97239172,97239161,3997706,0,999.23,39.719997
97349737,97349726,3997706,0,999.25,39.719997
97551865,97551854,3997706,0,999.26996,39.73
97753936,97753925,3997706,0,999.23,39.73
97844382,97844371,3997706,0,999.17,39.73
97955143,97955131,3997706,0,999.20996,39.739998
98157465,98157454,3997706,0,999.23,39.75
98248870,98248856,3997706,0,999.22,39.75
98652022,98652010,3997706,0,999.20996,39.76
98752546,98752535,3997706,0,999.29,39.77
98853156,98853145,3997706,0,999.22,39.76
100256276,100256262,3997706,0,999.14996,39.809998
100650509,100650498,3997706,0,999.11,39.82
100750960,100750949,3997706,0,999.19995,39.82
100851508,100851497,3997706,0,999.16,39.829998
101053684,101053673,3997706,0,999.13,39.84
101154330,101154319,3997706,0,999.14996,39.84
101437040,101437017,3997706,0,999.13,39.84
101548653,101548642,3997706,0,999.19,39.85
101951853,101951842,3997706,0,999.18,39.86
102042373,102042361,3997706,0,999.17,39.87
102153918,102153897,3997706,0,999.18,39.87
102356141,102356130,3997706,0,999.18,39.879997
102749281,102749270,3997706,0,999.18,39.89
103051945,103051934,3997706,0,999.17,39.899998
103152459,103152448,3997706,0,999.12,39.899998
103939924,103939913,3997706,0,999.12,39.93
104050626,104050614,3997706,0,999.06,39.93
104252654,104252643,3997706,0,999.13995,39.94
104343117,104343106,3997706,0,999.07,39.94
104545242,104545231,3997706,0,999.12,39.95
104656008,104655993,3997706,0,999.07,39.95
105352673,105352661,3997706,0,999.07996,39.969997
105453233,105453215,3997706,0,999.05,39.969997
105553775,105553763,3997706,0,999.07,39.969997
105655486,105655475,3997706,0,999.11,39.98
106038770,106038759,3997706,0,999.11,39.98
106240889,106240878,3997706,0,999.04,39.989998
106351524,106351503,3997706,0,999.04,39.989998
106442042,106442031,3997706,0,999.01996,40.0
106846287,106846272,3997706,0,999.1,40.01
107048526,107048515,3997706,0,999.04,40.01
107149179,107149168,3997706,0,999.02997,40.01
107249733,107249722,3997706,0,999.07996,40.02
107451795,107451784,3997706,0,999.02997,40.03
107552425,107552413,3997706,0,999.02997,40.03
107956591,107956570,3997706,0,999.02997,40.04
108057269,108057255,3997706,0,999.00995,40.05
108450633,108450615,3997706,0,999.07,40.059998
108542154,108542143,3997706,0,999.04,40.059998
108652871,108652860,3997706,0,999.07996,40.07
108744328,108744316,3997706,0,999.04,40.079998
108945580,108945569,3997706,0,999.06,40.079998
109057212,109057200,3997706,0,999.0,40.09
109955561,109955549,3997706,0,999.01996,40.12
110238050,110238036,3997706,0,999.00995,40.129997
110751932,110751921,3997706,0,998.95996,40.149998
111044561,111044550,3997706,0,998.99,40.16
111246723,111246712,3997706,0,998.99,40.17
111347261,111347244,3997706,0,998.95996,40.17
111448719,111448708,3997706,0,998.94,40.18
111650912,111650893,3997706,0,999.01996,40.18
112256707,112256696,3997706,0,998.89996,40.21
112357194,112357183,3997706,0,998.94,40.21
112539170,112539158,3997706,0,998.94,40.219997
112649814,112649803,3997706,0,998.94995,40.219997
112740333,112740322,3997706,0,998.93,40.23
113457295,113457283,3997706,0,998.89996,40.26
113547753,113547742,3997706,0,998.91,40.26
113749756,113749745,3997706,0,998.87,40.27
114556430,114556418,3997706,0,998.87,40.3
114657926,114657915,3997706,0,998.88995,40.309998
115242926,115242915,3997706,0,998.87,40.34
115353549,115353538,3997706,0,998.87,40.34
115555750,115555739,3997706,0,998.91,40.35
115646354,115646342,3997706,0,998.87,40.35
115756969,115756958,3997706,0,998.89996,40.35
115848420,115848408,3997706,0,998.88995,40.36
115948901,115948890,3997706,0,998.89996,40.37
116049492,116049480,3997706,0,998.86,40.36
116150977,116150966,3997706,0,998.88,40.37
116251511,116251500,3997706,0,998.86,40.379997
116453577,116453565,3997706,0,998.85,40.379997
116654756,116654744,3997706,0,998.8,40.39
116756489,116756474,3997706,0,998.8,40.399998
117049105,117049094,3997706,0,998.86,40.41
117139533,117139522,3997706,0,998.81,40.41
117542764,117542744,3997706,0,998.76996,40.43
117654353,117654335,3997706,0,998.8,40.43
117855628,117855613,3997706,0,998.8,40.44
117947182,117947171,3997706,0,998.82,40.44
118047708,118047697,3997706,0,998.85,40.45
118350304,118350293,3997706,0,998.73,40.46
118753534,118753516,3997706,0,998.8,40.469997
119056174,119056157,3997706,0,998.74,40.489998
119157723,119157709,3997706,0,998.79,40.5
119238108,119238097,3997706,0,998.77997,40.5
119440202,119440191,3997706,0,998.70996,40.51
119550794,119550783,3997706,0,998.69995,40.51
119641220,119641208,3997706,0,998.73,40.52
120045773,120045762,3997706,0,998.69995,40.53
120449276,120449265,3997706,0,998.72,40.55
120550759,120550748,3997706,0,998.69995,40.559998
120651301,120651290,3997706,0,998.72,40.559998
120751761,120751750,3997706,0,998.72,40.559998
120852356,120852345,3997706,0,998.72,40.57
121256824,121256813,3997706,0,998.74,40.59
121448893,121448881,3997706,0,998.67,40.6
121650012,121650001,3997706,0,998.67,40.61
121741475,121741464,3997706,0,998.67,40.6
121942481,121942470,3997706,0,998.69995,40.62
122144553,122144536,3997706,0,998.69,40.629997
122255237,122255218,3997706,0,998.69,40.629997
122346770,122346759,3997706,0,998.66,40.629997
122457462,122457451,3997706,0,998.69,40.64
122547978,122547964,3997706,0,998.70996,40.64
122649624,122649613,3997706,0,998.66,40.649998
122750129,122750117,3997706,0,998.67,40.649998
122850716,122850705,3997706,0,998.67,40.66
123052671,123052660,3997706,0,998.66,40.67
123153356,123153345,3997706,0,998.62,40.67
123254861,123254850,3997706,0,998.69995,40.68
123355506,123355491,3997706,0,998.63995,40.68
123951062,123951051,3997706,0,998.62,40.71
124041659,124041642,3997706,0,998.66,40.71
124153131,124153120,3997706,0,998.63995,40.719997
124243585,124243574,3997706,0,998.58997,40.719997
124354261,124354250,3997706,0,998.6,40.73
124556679,124556664,3997706,0,998.6,40.73
124648154,124648140,3997706,0,998.62,40.739998
124951122,124951101,3997706,0,998.58997,40.76
125153213,125153201,3997706,0,998.62,40.76
125253760,125253748,3997706,0,998.56,40.77
125454846,125454834,3997706,0,998.63,40.78
125556359,125556347,3997706,0,998.62,40.79
126252181,126252170,3997706,0,998.55,40.82
126342747,126342732,3997706,0,998.6,40.82
126454379,126454368,3997706,0,998.58997,40.829998
127352574,127352563,3997706,0,998.61,40.87
127655278,127655267,3997706,0,998.55,40.89
127755858,127755846,3997706,0,998.56,40.89
128150248,128150233,3997706,0,998.52997,40.91
128240873,128240862,3997706,0,998.56,40.91
129149031,129149020,3997706,0,998.44995,40.95
129250593,129250582,3997706,0,998.47,40.95
129351161,129351149,3997706,0,998.51996,40.96
129553264,129553253,3997706,0,998.5,40.969997
129856063,129856049,3997706,0,998.51996,40.98
130249004,130248993,3997706,0,998.5,41.01
130541764,130541753,3997706,0,998.49,41.01
131056806,131056795,3997706,0,998.42,41.04
131349256,131349245,3997706,0,998.47,41.05
131449915,131449904,3997706,0,998.48,41.05
131550544,131550533,3997706,0,998.52997,41.059998
131853288,131853276,3997706,0,998.49,41.07
132257511,132257500,3997706,0,998.44995,41.09
132550008,132549993,3997706,0,998.49,41.1
132640548,132640537,3997706,0,998.42,41.1
133043663,133043652,3997706,0,998.47,41.12
133154306,133154295,3997706,0,998.55,41.129997
133245681,133245667,3997706,0,998.47,41.129997
133548626,133548597,3997706,0,998.48,41.149998
133649146,133649135,3997706,0,998.42,41.149998
133750598,133750587,3997706,0,998.43,41.149998
134355871,134355860,3997706,0,998.48,41.18
134647618,134647607,3997706,0,998.41,41.19
135252938,135252921,3997706,0,998.49,41.21
135454858,135454847,3997706,0,998.36,41.219997
135545464,135545453,3997706,0,998.38995,41.219997
135657111,135657099,3997706,0,998.38995,41.23
135747751,135747736,3997706,0,998.39996,41.23
135849234,135849221,3997706,0,998.41,41.23
136252631,136252617,3997706,0,998.38995,41.25
136454734,136454723,3997706,0,998.36,41.26
136655770,136655755,3997706,0,998.39996,41.27
136757312,136757301,3997706,0,998.37,41.27
137352773,137352762,3997706,0,998.3,41.29
137443217,137443206,3997706,0,998.37,41.29
137553849,137553838,3997706,0,998.38995,41.3
137755899,137755888,3997706,0,998.37,41.3
137948181,137948167,3997706,0,998.37,41.309998
138048844,138048829,3997706,0,998.32,41.309998
138149486,138149475,3997706,0,998.38,41.309998
138351497,138351486,3997706,0,998.31,41.32
138451994,138451981,3997706,0,998.35,41.32
138553463,138553452,3997706,0,998.31,41.329998
138654044,138654033,3997706,0,998.38995,41.329998
139057256,139057242,3997706,0,998.32,41.34
139138843,139138832,3997706,0,998.32,41.34
139340022,139340011,3997706,0,998.32996,41.35
139451508,139451497,3997706,0,998.36,41.35
139541986,139541973,3997706,0,998.37,41.36
139945120,139945109,3997706,0,998.37,41.37
140147145,140147134,3997706,0,998.32996,41.379997
140247665,140247654,3997706,0,998.33997,41.37
140349299,140349288,3997706,0,998.33997,41.379997
140449820,140449808,3997706,0,998.35,41.379997
140550416,140550405,3997706,0,998.33997,41.379997
140650909,140650898,3997706,0,998.3,41.379997
141054904,141054893,3997706,0,998.35,41.39
141155523,141155509,3997706,0,998.26996,41.39
141548721,141548709,3997706,0,998.26996,41.399998
141751030,141751019,3997706,0,998.25995,41.41
141953108,141953094,3997706,0,998.33997,41.41
142043562,142043550,3997706,0,998.29,41.41
142356232,142356214,3997706,0,998.26996,41.42
142446725,142446714,3997706,0,998.25,41.42
142548240,142548227,3997706,0,998.3,41.43
142648924,142648913,3997706,0,998.20996,41.42
142851017,142851005,3997706,0,998.19,41.43
142951612,142951601,3997706,0,998.16,41.43
143052183,143052172,3997706,0,998.20996,41.43
143354909,143354898,3997706,0,998.22,41.44
143456464,143456450,3997706,0,998.24,41.44
143557120,143557109,3997706,0,998.20996,41.44
143849775,143849760,3997706,0,998.19995,41.45
144253040,144253024,3997706,0,998.23,41.45
144344441,144344430,3997706,0,998.20996,41.46
144657061,144657050,3997706,0,998.24,41.46
144747695,144747678,3997706,0,998.20996,41.46
145252543,145252531,3997706,0,998.26996,41.469997
145353120,145353109,3997706,0,998.23,41.469997
145555152,145555138,3997706,0,998.24,41.48
146150703,146150692,3997706,0,998.23,41.489998
146241206,146241195,3997706,0,998.16,41.489998
146554057,146554046,3997706,0,998.23,41.5
146645515,146645500,3997706,0,998.23,41.5
147048677,147048662,3997706,0,998.19995,41.51
147149255,147149244,3997706,0,998.20996,41.51
147250861,147250846,3997706,0,998.22,41.51
147351497,147351485,3997706,0,998.23,41.51
147553685,147553673,3997706,0,998.17,41.51
147654269,147654257,3997706,0,998.19995,41.52
147754856,147754845,3997706,0,998.20996,41.52
147956828,147956817,3997706,0,998.25,41.52
148057463,148057452,3997706,0,998.20996,41.52
148138964,148138953,3997706,0,998.23,41.52
148744324,148744312,3997706,0,998.20996,41.53
148854910,148854897,3997706,0,998.23,41.54
148945475,148945463,3997706,0,998.24,41.54
149057106,149057095,3997706,0,998.20996,41.54
149551996,149551985,3997706,0,998.19995,41.55
149652659,149652647,3997706,0,998.20996,41.55
149753251,149753240,3997706,0,998.22,41.55
149955546,149955535,3997706,0,998.22,41.55
150157641,150157630,3997706,0,998.25,41.559998
150258172,150258161,3997706,0,998.23,41.559998
150440139,150440121,3997706,0,998.16,41.559998
150550733,150550722,3997706,0,998.22,41.559998
150641293,150641282,3997706,0,998.20996,41.57
151045602,151045591,3997706,0,998.22,41.57
151156215,151156204,3997706,0,998.22,41.57
151246766,151246755,3997706,0,998.20996,41.579998
151348299,151348288,3997706,0,998.26996,41.579998
151549353,151549342,3997706,0,998.24,41.579998
151650971,151650960,3997706,0,998.25,41.579998
151751606,151751593,3997706,0,998.26996,41.579998
151953754,151953743,3997706,0,998.24,41.59
152054331,152054320,3997706,0,998.24,41.59
152154954,152154943,3997706,0,998.24,41.59
152256558,152256547,3997706,0,998.23,41.59
152357140,152357129,3997706,0,998.22,41.59
152649591,152649579,3997706,0,998.24,41.6
152740035,152740023,3997706,0,998.20996,41.6
153255006,153254994,3997706,0,998.25,41.61
153345580,153345569,3997706,0,998.24,41.62
153457293,153457279,3997706,0,998.19995,41.61
153547764,153547753,3997706,0,998.17,41.62
153749763,153749752,3997706,0,998.19995,41.62
153950887,153950876,3997706,0,998.13,41.62
154052477,154052466,3997706,0,998.22,41.62
154254775,154254763,3997706,0,998.19995,41.629997
154355360,154355349,3997706,0,998.16,41.629997
154455902,154455891,3997706,0,998.16,41.629997
154637894,154637883,3997706,0,998.19995,41.629997
154748521,154748510,3997706,0,998.19,41.629997
154839065,154839054,3997706,0,998.22,41.64
155041044,155041033,3997706,0,998.14996,41.64
155353958,155353944,3997706,0,998.19,41.64
155556161,155556150,3997706,0,998.14996,41.64
155646789,155646774,3997706,0,998.12,41.649998
156051065,156051053,3997706,0,998.11,41.66
156454088,156454077,3997706,0,998.17,41.66
156554705,156554694,3997706,0,998.13,41.66
156656346,156656335,3997706,0,998.11,41.66
156939128,156939116,3997706,0,998.13,41.67
157049826,157049812,3997706,0,998.07,41.67
157141343,157141332,3997706,0,998.1,41.67
157655114,157655103,3997706,0,998.13995,41.68
157745674,157745663,3997706,0,998.07996,41.68
157857321,157857307,3997706,0,998.07,41.67
157947894,157947883,3997706,0,998.08997,41.68
158654858,158654847,3997706,0,998.11,41.69
158755418,158755407,3997706,0,998.07,41.69
158957583,158957572,3997706,0,998.05,41.7
159845877,159845862,3997706,0,998.02997,41.71
159956562,159956551,3997706,0,998.06,41.71
160148582,160148571,3997706,0,998.1,41.719997
160653395,160653384,3997706,0,998.07996,41.719997
160753921,160753910,3997706,0,998.05,41.719997
160854469,160854458,3997706,0,998.04,41.719997
160955074,160955062,3997706,0,998.01996,41.719997
161056581,161056570,3997706,0,998.04,41.73
161247674,161247663,3997706,0,998.04,41.73
161339239,161339228,3997706,0,997.95996,41.73
161449954,161449943,3997706,0,998.12,41.73
161541399,161541388,3997706,0,998.07,41.73
161651987,161651976,3997706,0,998.00995,41.739998
162145797,162145786,3997706,0,998.05,41.739998
162257438,162257427,3997706,0,998.04,41.75
162347990,162347975,3997706,0,998.05,41.739998
162449445,162449433,3997706,0,998.02997,41.739998
162549944,162549933,3997706,0,998.07,41.75
162650583,162650572,3997706,0,998.07996,41.75
162752220,162752209,3997706,0,998.06,41.75
162852827,162852816,3997706,0,997.98,41.75
163055057,163055043,3997706,0,998.02997,41.75
163357612,163357592,3997706,0,998.05,41.76
163438128,163438117,3997706,0,998.01996,41.76
163640475,163640463,3997706,0,998.05,41.76
163751167,163751143,3997706,0,998.00995,41.76
164043862,164043851,3997706,0,998.07,41.77
164154455,164154443,3997706,0,998.02997,41.77
164548356,164548345,3997706,0,998.05,41.78
165254409,165254397,3997706,0,997.94,41.78
165657531,165657520,3997706,0,997.94,41.79
166657353,166657342,3997706,0,997.98,41.8
167151179,167151163,3997706,0,997.95996,41.809998
167252743,167252731,3997706,0,997.94995,41.82
168039216,168039198,3997706,0,997.87,41.829998
168353125,168353111,3997706,0,997.92,41.82
169149451,169149440,3997706,0,998.02997,41.84
169452212,169452201,3997706,0,997.95996,41.84
169553678,169553667,3997706,0,998.01996,41.85
169654199,169654187,3997706,0,997.97,41.85
169956952,169956941,3997706,0,998.0,41.85
170047552,170047541,3997706,0,998.01996,41.86
170139057,170139046,3997706,0,997.94,41.85
170249682,170249671,3997706,0,997.95996,41.86
170340178,170340167,3997706,0,997.92,41.85
170451768,170451757,3997706,0,997.92,41.86
170652937,170652926,3997706,0,997.92,41.86
170744523,170744512,3997706,0,997.91,41.86
171450543,171450529,3997706,0,997.97,41.879997
171551068,171551056,3997706,0,997.89996,41.879997
171652667,171652656,3997706,0,997.87,41.87
171753275,171753262,3997706,0,997.94995,41.879997
171854826,171854815,3997706,0,997.98,41.879997
171955410,171955398,3997706,0,997.94995,41.879997
172055925,172055907,3997706,0,997.99,41.879997
172156561,172156550,3997706,0,997.88995,41.879997
172238019,172238008,3997706,0,997.97,41.879997
172348724,172348713,3997706,0,997.91,41.879997
172641470,172641452,3997706,0,997.91,41.89
173549649,173549631,3997706,0,997.91,41.899998
173852301,173852290,3997706,0,997.89996,41.91
173953730,173953719,3997706,0,997.92,41.91
174539056,174539045,3997706,0,997.95996,41.92
174740196,174740182,3997706,0,997.88,41.92
174851763,174851752,3997706,0,997.86,41.92
174942257,174942246,3997706,0,997.87,41.92
175052859,175052848,3997706,0,997.93,41.93
175144293,175144282,3997706,0,997.91,41.93
175254981,175254970,3997706,0,997.89996,41.92
175457106,175457095,3997706,0,997.94,41.93
175648209,175648198,3997706,0,997.94995,41.94
175749870,175749859,3997706,0,997.91,41.93
175850402,175850390,3997706,0,997.92,41.94
176748811,176748800,3997706,0,997.87,41.95
176950942,176950927,3997706,0,997.85,41.96
177041540,177041527,3997706,0,997.87,41.95
177153128,177153117,3997706,0,997.88995,41.96
177243721,177243710,3997706,0,997.92,41.96
177556416,177556405,3997706,0,997.88995,41.96
177849024,177849012,3997706,0,997.88995,41.96
177949622,177949611,3997706,0,997.87,41.969997
178051107,178051096,3997706,0,997.88995,41.969997
178151688,178151677,3997706,0,997.85,41.969997
178252268,178252257,3997706,0,997.85,41.969997
178353762,178353751,3997706,0,997.88995,41.969997
178757003,178756992,3997706,0,997.88995,41.98
178847624,178847606,3997706,0,997.87,41.98
179049818,179049803,3997706,0,997.85,41.989998
179140538,179140527,3997706,0,997.82996,41.989998
179252061,179252050,3997706,0,997.86,41.989998
179342593,179342582,3997706,0,997.86,41.989998
179544775,179544764,3997706,0,997.86,41.989998
179655356,179655345,3997706,0,997.85,42.0
179745791,179745780,3997706,0,997.87,42.0
180049607,180049596,3997706,0,997.92,42.0
180150212,180150201,3997706,0,997.89996,42.0
180250837,180250826,3997706,0,997.85,42.0
180352422,180352411,3997706,0,997.86,42.0
180655066,180655055,3997706,0,997.85,42.01
180856167,180856156,3997706,0,997.86,42.01
181441356,181441343,3997706,0,997.82,42.02
181551986,181551974,3997706,0,997.79,42.02
181844682,181844671,3997706,0,997.82996,42.03
182248795,182248784,3997706,0,997.81,42.03
182349368,182349357,3997706,0,997.88995,42.04
182450027,182450013,3997706,0,997.88,42.04
182652131,182652117,3997706,0,997.85,42.04
182753769,182753758,3997706,0,997.8,42.04
182854402,182854391,3997706,0,997.75995,42.04
183338034,183338022,3997706,0,997.87,42.05
183540228,183540215,3997706,0,997.81,42.059998
183651884,183651873,3997706,0,997.86,42.059998
184145701,184145690,3997706,0,997.81,42.059998
184347851,184347840,3997706,0,997.76996,42.059998
184550022,184550008,3997706,0,997.83997,42.059998
184650755,184650744,3997706,0,997.76996,42.07
184751401,184751390,3997706,0,997.85,42.07
184852940,184852929,3997706,0,997.81,42.07
185055380,185055368,3997706,0,997.81,42.07
185156063,185156052,3997706,0,997.82,42.079998
185348072,185348061,3997706,0,997.74,42.079998
186043998,186043987,3997706,0,997.79,42.09
186154673,186154662,3997706,0,997.82,42.09
186246260,186246249,3997706,0,997.79,42.09
186356897,186356885,3997706,0,997.75995,42.09
186447413,186447397,3997706,0,997.8,42.09
186548841,186548827,3997706,0,997.82,42.09
186649354,186649343,3997706,0,997.8,42.1
186749866,186749855,3997706,0,997.86,42.09
187254970,187254959,3997706,0,997.85,42.11
187356541,187356530,3997706,0,997.79,42.11
187537609,187537598,3997706,0,997.79,42.11
187649118,187649107,3997706,0,997.8,42.11
187739642,187739631,3997706,0,997.77997,42.11
188052450,188052439,3997706,0,997.8,42.11
188143052,188143041,3997706,0,997.73,42.11
188345204,188345193,3997706,0,997.75995,42.12
189152775,189152763,3997706,0,997.79,42.129997
189253351,189253340,3997706,0,997.76996,42.129997
189556076,189556065,3997706,0,997.79,42.14
189838774,189838760,3997706,0,997.73,42.14
189949360,189949349,3997706,0,997.74,42.14
190040748,190040737,3997706,0,997.75995,42.14
190151278,190151267,3997706,0,997.76996,42.149998
190241735,190241724,3997706,0,997.76996,42.14
190554530,190554519,3997706,0,997.79,42.149998
190646076,190646064,3997706,0,997.76996,42.149998
190756773,190756762,3997706,0,997.77997,42.149998
190847294,190847283,3997706,0,997.81,42.149998
191049518,191049499,3997706,0,997.76996,42.16
191150211,191150189,3997706,0,997.73,42.16
191251697,191251686,3997706,0,997.8,42.16
191452835,191452823,3997706,0,997.75995,42.16
191554382,191554371,3997706,0,997.79,42.16
191654963,191654949,3997706,0,997.82,42.17
191937468,191937457,3997706,0,997.79,42.17
192048128,192048117,3997706,0,997.82,42.17
192139644,192139633,3997706,0,997.82996,42.17
192250354,192250343,3997706,0,997.76996,42.17
192452535,192452524,3997706,0,997.75995,42.18
192543055,192543042,3997706,0,997.81,42.18
192654654,192654635,3997706,0,997.79,42.18
192745200,192745185,3997706,0,997.75995,42.18
192855923,192855909,3997706,0,997.72,42.18
192947457,192947443,3997706,0,997.75995,42.18
193148740,193148729,3997706,0,997.73,42.18
193250251,193250239,3997706,0,997.79,42.19
193451276,193451265,3997706,0,997.75,42.19
193552783,193552772,3997706,0,997.75,42.19
194056643,194056632,3997706,0,997.81,42.2
194148159,194148145,3997706,0,997.82996,42.2
194238706,194238694,3997706,0,997.75,42.2
194440884,194440866,3997706,0,997.79,42.2
194551532,194551521,3997706,0,997.76996,42.2
194642053,194642042,3997706,0,997.77997,42.2
194753562,194753551,3997706,0,997.77997,42.21
194954622,194954610,3997706,0,997.75,42.21
195348761,195348745,3997706,0,997.79,42.219997
195549928,195549914,3997706,0,997.82,42.219997
195651535,195651524,3997706,0,997.8,42.219997
196539473,196539462,3997706,0,997.82,42.23
196650104,196650093,3997706,0,997.76996,42.23
197144809,197144797,3997706,0,997.77997,42.239998
197345821,197345809,3997706,0,997.73,42.239998
197457516,197457496,3997706,0,997.74,42.239998
197548108,197548094,3997706,0,997.76996,42.239998
197648801,197648789,3997706,0,997.69995,42.239998
198355705,198355694,3997706,0,997.72,42.25
198456294,198456283,3997706,0,997.76996,42.25
198638164,198638152,3997706,0,997.75995,42.25
199243936,199243921,3997706,0,997.74,42.27
199849109,199849098,3997706,0,997.73,42.27
200050212,200050201,3997706,0,997.69,42.27
200757208,200757194,3997706,0,997.70996,42.28
201049623,201049610,3997706,0,997.73,42.29
201140110,201140099,3997706,0,997.69995,42.29
201654945,201654934,3997706,0,997.70996,42.3
201745474,201745463,3997706,0,997.77997,42.29
201856084,201856059,3997706,0,997.77997,42.3
202058251,202058240,3997706,0,997.77997,42.3
202249241,202249219,3997706,0,997.70996,42.3
202350725,202350714,3997706,0,997.73,42.309998
202451466,202451446,3997706,0,997.75995,42.309998
202553018,202553007,3997706,0,997.70996,42.309998
203239054,203239043,3997706,0,997.70996,42.32
203349723,203349712,3997706,0,997.70996,42.32
203551964,203551953,3997706,0,997.75,42.32
203754004,203753992,3997706,0,997.74,42.32
204046946,204046930,3997706,0,997.72,42.329998
204147529,204147518,3997706,0,997.72,42.329998
204249110,204249099,3997706,0,997.74,42.329998
204752794,204752783,3997706,0,997.72,42.34
205055438,205055426,3997706,0,997.67,42.34
205247576,205247565,3997706,0,997.73,42.34
205338112,205338101,3997706,0,997.70996,42.35
205449637,205449625,3997706,0,997.75995,42.34
205650813,205650802,3997706,0,997.75995,42.35
205852888,205852877,3997706,0,997.70996,42.35
206055123,206055112,3997706,0,997.69,42.36
206145620,206145608,3997706,0,997.69,42.36
206256248,206256228,3997706,0,997.74,42.36
206448520,206448505,3997706,0,997.72,42.36
206953196,206953185,3997706,0,997.68,42.37
207053728,207053714,3997706,0,997.75,42.37
207154306,207154295,3997706,0,997.75,42.37
207255863,207255852,3997706,0,997.72,42.37
207356409,207356398,3997706,0,997.69,42.37
207456993,207456982,3997706,0,997.74,42.379997
207548733,207548697,3997706,0,997.69995,42.379997
207639214,207639203,3997706,0,997.70996,42.37
207749958,207749943,3997706,0,997.74,42.379997
207841406,207841395,3997706,0,997.70996,42.379997
207951984,207951972,3997706,0,997.72,42.379997
208042499,208042488,3997706,0,997.74,42.379997
208244504,208244493,3997706,0,997.69995,42.379997
208355173,208355162,3997706,0,997.72,42.379997
208446710,208446699,3997706,0,997.66,42.39
208557354,208557343,3997706,0,997.72,42.39
208951860,208951849,3997706,0,997.73,42.39
209354996,209354985,3997706,0,997.66,42.399998
209455656,209455645,3997706,0,997.68,42.399998
209557127,209557116,3997706,0,997.74,42.399998
209657706,209657695,3997706,0,997.70996,42.399998
209940592,209940577,3997706,0,997.64996,42.41
210051282,210051271,3997706,0,997.70996,42.41
210545635,210545621,3997706,0,997.67,42.42
210949160,210949149,3997706,0,997.63995,42.42
211050654,211050640,3997706,0,997.63,42.43
211151299,211151284,3997706,0,997.57996,42.42
211251996,211251982,3997706,0,997.70996,42.42
211353529,211353515,3997706,0,997.66,42.43
211554593,211554582,3997706,0,997.70996,42.43
211656149,211656138,3997706,0,997.72,42.43
211756893,211756882,3997706,0,997.63995,42.43
212151410,212151399,3997706,0,997.70996,42.44
212241900,212241889,3997706,0,997.63995,42.44
212352475,212352464,3997706,0,997.72,42.44
213150098,213150087,3997706,0,997.64996,42.45
213250758,213250746,3997706,0,997.57996,42.45
213352178,213352164,3997706,0,997.69,42.45
214250626,214250615,3997706,0,997.64996,42.469997
214946452,214946441,3997706,0,997.67,42.469997
215047950,215047938,3997706,0,997.67,42.48
215249165,215249154,3997706,0,997.66,42.48
215350631,215350620,3997706,0,997.63995,42.48
215753815,215753804,3997706,0,997.68,42.489998
216237506,216237494,3997706,0,997.62,42.489998
216349237,216349217,3997706,0,997.64996,42.489998
216439864,216439853,3997706,0,997.67,42.5
216551446,216551435,3997706,0,997.66,42.5
216752563,216752552,3997706,0,997.58997,42.5
217045333,217045322,3997706,0,997.58997,42.5
217157022,217157007,3997706,0,997.61,42.5
217358137,217358126,3997706,0,997.61,42.51
217650758,217650740,3997706,0,997.61,42.51
217752261,217752250,3997706,0,997.54,42.51
218257266,218257255,3997706,0,997.57,42.52
218357820,218357808,3997706,0,997.63,42.53
218650372,218650360,3997706,0,997.57,42.53
218740872,218740861,3997706,0,997.56,42.53
218851552,218851537,3997706,0,997.57,42.53
218942956,218942945,3997706,0,997.61,42.53
219053591,219053579,3997706,0,997.57996,42.53
219144173,219144162,3997706,0,997.6,42.53
219255776,219255761,3997706,0,997.6,42.53
219447958,219447947,3997706,0,997.61,42.54
219649012,219649001,3997706,0,997.6,42.54
219750553,219750541,3997706,0,997.61,42.54
219951779,219951767,3997706,0,997.57,42.54
221849504,221849492,3997706,0,997.52997,42.57
221950013,221950002,3997706,0,997.61,42.57
222353290,222353278,3997706,0,997.54,42.579998
222454790,222454779,3997706,0,997.58997,42.579998
222555383,222555372,3997706,0,997.62,42.579998
222656068,222656053,3997706,0,997.56,42.579998
222757649,222757635,3997706,0,997.57996,42.579998
222848235,222848220,3997706,0,997.55,42.579998
222938763,222938752,3997706,0,997.62,42.579998
223050375,223050361,3997706,0,997.54,42.579998
223655587,223655562,3997706,0,997.50995,42.6
223856721,223856703,3997706,0,997.51996,42.6
224250947,224250935,3997706,0,997.51996,42.6
224351498,224351484,3997706,0,997.55,42.6
224956799,224956788,3997706,0,997.57,42.61
225057354,225057343,3997706,0,997.57,42.61
225148856,225148834,3997706,0,997.54,42.62
225551975,225551964,3997706,0,997.50995,42.62
226047113,226047098,3997706,0,997.55,42.629997
226450478,226450466,3997706,0,997.52997,42.629997
226752970,226752959,3997706,0,997.49,42.64
226853617,226853605,3997706,0,997.52997,42.629997
226955144,226955130,3997706,0,997.56,42.64
227156418,227156404,3997706,0,997.61,42.64
227257929,227257918,3997706,0,997.47,42.64
227338484,227338470,3997706,0,997.56,42.649998
227741834,227741823,3997706,0,997.54,42.649998
227853356,227853342,3997706,0,997.56,42.66
227943758,227943747,3997706,0,997.57,42.649998
228145933,228145922,3997706,0,997.57,42.66
228256670,228256659,3997706,0,997.52997,42.66
228347125,228347113,3997706,0,997.54,42.66
228751516,228751503,3997706,0,997.54,42.67
229054171,229054160,3997706,0,997.54,42.67
229154715,229154704,3997706,0,997.52997,42.67
229255184,229255173,3997706,0,997.57,42.67
229457447,229457427,3997706,0,997.57996,42.67
229547957,229547946,3997706,0,997.49,42.67
229639399,229639388,3997706,0,997.49,42.68
229840641,229840630,3997706,0,997.49,42.69
230042797,230042783,3997706,0,997.50995,42.69
230244983,230244972,3997706,0,997.55,42.69
230355591,230355580,3997706,0,997.67,42.69
230447064,230447046,3997706,0,997.58997,42.69
230547691,230547676,3997706,0,997.57,42.69
230951065,230951054,3997706,0,997.49,42.7
231153359,231153348,3997706,0,997.50995,42.7
231556653,231556642,3997706,0,997.5,42.71
231648137,231648123,3997706,0,997.57996,42.71
231849321,231849304,3997706,0,997.47,42.71
231940682,231940668,3997706,0,997.50995,42.71
232051354,232051342,3997706,0,997.52997,42.71
232253647,232253628,3997706,0,997.49,42.719997
232344150,232344139,3997706,0,997.50995,42.719997
232546196,232546184,3997706,0,997.50995,42.719997
232656781,232656766,3997706,0,997.45996,42.719997
232747296,232747283,3997706,0,997.55,42.719997
232848780,232848769,3997706,0,997.51996,42.73
232949421,232949407,3997706,0,997.52997,42.73
233352590,233352578,3997706,0,997.50995,42.73
233454281,233454270,3997706,0,997.5,42.73
233554938,233554920,3997706,0,997.45996,42.73
233757138,233757123,3997706,0,997.54,42.739998
233857628,233857617,3997706,0,997.48,42.739998
233948159,233948137,3997706,0,997.55,42.739998
234241872,234241860,3997706,0,997.51996,42.739998
234352520,234352506,3997706,0,997.48,42.75
234443015,234443004,3997706,0,997.50995,42.75
234847511,234847496,3997706,0,997.52997,42.76
235150210,235150195,3997706,0,997.57,42.76
235250865,235250854,3997706,0,997.56,42.76
235351479,235351468,3997706,0,997.49,42.75
235654237,235654217,3997706,0,997.50995,42.77
235755677,235755662,3997706,0,997.51996,42.77
236138876,236138865,3997706,0,997.50995,42.77
236249500,236249489,3997706,0,997.5,42.78
236451610,236451599,3997706,0,997.48,42.78
236744219,236744208,3997706,0,997.44995,42.78
236855917,236855902,3997706,0,997.43,42.78
236946549,236946538,3997706,0,997.44995,42.78
237148636,237148625,3997706,0,997.49,42.79
237854632,237854618,3997706,0,997.52997,42.8
238349425,238349413,3997706,0,997.44995,42.8
238550520,238550509,3997706,0,997.48,42.809998
238640961,238640950,3997706,0,997.47,42.809998
238843142,238843128,3997706,0,997.43,42.809998
238954819,238954808,3997706,0,997.48,42.809998
239155995,239155983,3997706,0,997.45996,42.809998
239247514,239247503,3997706,0,997.43,42.809998
239348060,239348049,3997706,0,997.43,42.82
239448667,239448656,3997706,0,997.47,42.82
239550116,239550105,3997706,0,997.45996,42.82
239650682,239650671,3997706,0,997.44,42.829998
239953401,239953389,3997706,0,997.49,42.829998
240054057,240054043,3997706,0,997.44,42.829998
240256051,240256040,3997706,0,997.44,42.829998
240941816,240941805,3997706,0,997.38995,42.84
241052397,241052386,3997706,0,997.43,42.84
241143887,241143876,3997706,0,997.38995,42.85
241254572,241254558,3997706,0,997.43,42.84
241345128,241345107,3997706,0,997.44,42.85
241657878,241657867,3997706,0,997.42,42.85
241749296,241749285,3997706,0,997.45996,42.86
241849899,241849888,3997706,0,997.49,42.85
241950520,241950508,3997706,0,997.41,42.85
242253007,242252996,3997706,0,997.45996,42.86
242354520,242354509,3997706,0,997.37,42.86
242455073,242455061,3997706,0,997.41,42.86
242949871,242949860,3997706,0,997.36,42.87
243353356,243353345,3997706,0,997.41,42.879997
243443860,243443849,3997706,0,997.39996,42.879997
243646019,243646005,3997706,0,997.39996,42.879997
243848184,243848173,3997706,0,997.44,42.879997
243948851,243948839,3997706,0,997.44,42.879997
244353242,244353231,3997706,0,997.33997,42.89
244655862,244655845,3997706,0,997.43,42.89
244857116,244857105,3997706,0,997.36,42.899998
244938475,244938461,3997706,0,997.37,42.899998
245049056,245049045,3997706,0,997.39996,42.899998
245251278,245251267,3997706,0,997.33997,42.899998
245341795,245341781,3997706,0,997.42,42.91
245452447,245452436,3997706,0,997.42,42.91
245855502,245855491,3997706,0,997.39996,42.91
245946975,245946964,3997706,0,997.39996,42.91
246047640,246047629,3997706,0,997.38,42.91
246148227,246148215,3997706,0,997.37,42.91
